     2.10           OBSERVATION DATA    G (GPS)             RINEX VERSION / TYPE
goGPS                                                       PGM / RUN BY / DATE 
yamatogawa_rover                                            MARKER NAME         
                                                            OBSERVER / AGENCY   
                    u-blox                                  REC # / TYPE / VERS 
                                                            ANT # / TYPE        
 -3749928.3337  3683383.4858  3600613.9204                  APPROX POSITION XYZ 
        0.0000        0.0000        0.0000                  ANTENNA: DELTA H/E/N
     2     0                                                WAVELENGTH FACT L1/2
     4    C1    L1    S1    D1                              # / TYPES OF OBSERV 
  2010     1     6     5    57    3.0000000     GPS         TIME OF FIRST OBS   
                                                            END OF HEADER       
 10  1  6  5 57  3.0000000  0  9G02G04G05G07G10G12G13G17G23
  21128675.686 7     -7818.26327        45.000 7      2781.846 7
  20670375.121 8      1562.63228        48.000 8       211.206 8
  22611076.342 7     -8627.25627        45.000 7      2921.798 7
  24677636.928 6    -10127.20426        38.000 6      2959.586 6
  21256378.072 7     -6097.56727        47.000 7      2343.480 7
  24801661.122 6      3589.08426        40.000 6      -751.200 6
  21523203.593 7      5574.50427        44.000 7      -822.115 7
  22489854.897 7     10780.05027        45.000 7     -2663.597 7
  23989108.380 7     11009.60127        46.000 7     -2272.836 7
 10  1  6  5 57  5.0000000  0  9G02G04G05G07G10G12G13G17G23
  21127620.628 7    -13376.38327        46.000 7      2777.090 7
  20670294.256 8      1146.65228        48.000 8       204.890 8
  22609963.943 7    -14466.17727        45.000 7      2919.600 7
  24676512.558 6    -16039.48126        41.000 6      2951.914 6
  21255485.424 7    -10778.87527        43.000 7      2339.795 7
  24801945.962 5      5097.63025        35.000 5      -753.510 5
  21523520.140 7      7225.34727        45.000 7      -829.252 7
  22490870.430 7     16112.97127        42.000 7     -2669.591 7
  23989975.098 8     15561.69028        48.000 8     -2279.918 8
 10  1  6  5 57  6.0000000  0  9G02G04G05G07G10G12G13G17G23
  21127091.067 7    -16152.63027        46.000 7      2774.585 7
  20670256.355 8       942.64928        50.000 8       202.631 8
  22609409.009 7    -17384.07127        43.000 7      2919.009 7
  24675947.694 7    -18991.20327        43.000 7      2950.810 7
  21255040.269 7    -13117.49027        47.000 7      2337.360 7
  24802089.821 6      5853.73726        38.000 6      -757.592 6
  21523677.890 7      8055.86627        47.000 7      -832.253 7
  22491377.010 7     18782.15027        45.000 7     -2669.065 7
  23990408.125 7     17842.76327        47.000 7     -2282.949 7
 10  1  6  5 57  7.0000000  0  9G02G04G05G07G10G12G13G17G23
  21126562.761 7    -18926.67627        44.000 7      2773.690 7
  20670217.231 8       740.72928        50.000 8       202.249 8
  22608852.993 7    -20299.60327        45.000 7      2913.324 7
  24675385.605 6    -21941.06026        41.000 6      2950.226 6
  21254596.038 8    -15453.61928        49.000 8      2334.272 8
  24802234.728 6      6612.14626        38.000 6      -762.516 6
  21523836.582 7      8888.64027        47.000 7      -831.606 7
  22491886.225 7     21453.56327        47.000 7     -2672.921 7
  23990843.176 7     20125.80127        47.000 7     -2281.185 7
 10  1  6  5 57  8.0000000  0  9G02G04G05G07G10G12G13G17G23
  21126034.596 7    -21699.49527        44.000 7      2771.805 7
  20670179.399 8       538.32328        51.000 8       201.470 8
  22608299.960 8    -23210.91928        48.000 8      2908.488 8
  24674824.581 6    -24892.94126        40.000 6      2951.125 6
  21254152.384 8    -17786.31428        49.000 8      2330.503 8
  24802379.844 6      7375.05636        36.000 6      -765.365 6
  21523995.327 8      9719.80628        48.000 8      -831.743 8
  22492395.090 7     24127.11027        45.000 7     -2676.032 7
  23991278.018 8     22405.87228        50.000 8     -2280.709 8
 10  1  6  5 57  9.0000000  0  9G02G04G05G07G10G12G13G17G23
  21125507.233 7    -24470.17627        43.000 7      2769.572 7
  20670140.677 8       338.14928        51.000 8       199.388 8
  22607746.317 8    -26120.06128        48.000 8      2908.358 8
  24674263.434 5    -27842.63725        33.000 5      2949.150 5
  21253708.677 7    -20116.70327        46.000 7      2329.057 7
  24802525.710 6      8140.05226        40.000 6      -766.083 6
  21524154.194 7     10553.37827        44.000 7      -834.545 7
  22492903.241 7     26802.69327        44.000 7     -2675.687 7
  23991712.459 8     24688.06228        48.000 8     -2283.378 8
 10  1  6  5 57 10.0000000  0  9G02G04G05G07G10G12G13G17G23
  21124981.475 7    -27239.80327        44.000 7      2768.861 7
  20670103.456 8       140.09228        49.000 8       197.125 8
  22607192.500 7    -29029.46027        43.000 7      2908.642 7
  24673702.462 5    -30790.01925        35.000 5      2945.374 5
  21253264.674 7    -22446.70427        45.000 7      2328.877 7
  24802672.519 7      8905.03127        42.000 7      -765.738 7
  21524313.113 7     11390.14527        44.000 7      -838.022 7
  22493413.974 7     29479.18327        45.000 7     -2677.060 7
  23992146.603 7     26973.39927        46.000 7     -2286.521 7
 10  1  6  5 57 11.0000000  0  9G02G04G05G07G10G12G13G17G23
  21124455.019 7    -30008.12127        46.000 7      2769.269 7
  20670065.885 8       -56.73528        49.000 8       197.713 8
  22606638.874 7    -31937.75527        44.000 7      2908.933 7
  24673141.350 5    -33736.64935        30.000 5      2947.051 5
  21252821.840 8    -24775.51128        48.000 8      2329.478 8
  24802818.787 6      9671.30126        41.000 6      -765.828 6
  21524473.218 7     12228.31927        44.000 7      -837.301 7
  22493923.799 7     32156.47327        45.000 7     -2677.070 7
  23992581.707 7     29260.23027        47.000 7     -2285.958 7
 10  1  6  5 57 12.0000000  0  8G02G04G05G10G12G13G17G23
  21123928.389 7    -32775.80327        46.000 7      2766.624 7
  20670029.327 8      -252.27928        52.000 8       195.210 8
  22606085.248 8    -34845.08028        48.000 8      2906.841 8
  21252378.447 7    -27103.54627        47.000 7      2327.383 7
  24802964.374 6     10438.45226        41.000 6      -767.045 6
  21524632.364 7     13068.10527        47.000 7      -840.338 7
  22494433.538 8     34835.29228        49.000 8     -2679.141 8
  23993017.805 7     31548.31827        46.000 7     -2289.088 7
 10  1  6  5 57 13.0000000  0  8G02G04G05G10G12G13G17G23
  21123402.230 7    -35542.15927        47.000 7      2766.355 7
  20669992.629 8      -446.58928        52.000 8       194.094 8
  22605533.158 8    -37751.22428        48.000 8      2905.917 8
  21251936.433 7    -29430.05027        47.000 7      2326.129 7
  24803110.851 6     11206.91326        40.000 6      -768.728 6
  21524791.825 8     13909.47928        48.000 8      -841.635 8
  22494943.765 8     37515.23428        49.000 8     -2680.205 8
  23993453.921 7     33837.52927        46.000 7     -2289.676 7
 10  1  6  5 57 14.0000000  0  8G02G04G05G10G12G13G17G23
  21122875.967 7    -38307.20927        47.000 7      2764.307 7
  20669956.158 8      -639.45328        52.000 8       191.941 8
  22604980.702 7    -40656.05827        47.000 7      2903.852 7
  21251493.896 7    -31755.19227        46.000 7      2324.178 7
  24803256.368 6     11976.80226        40.000 6      -771.228 6
  21524952.576 8     14752.60028        48.000 8      -843.971 8
  22495454.009 8     40196.45428        49.000 8     -2682.009 8
  23993889.653 7     36128.22627        46.000 7     -2291.197 7
 10  1  6  5 57 15.0000000  0  9G02G04G05G07G10G12G13G17G23
  21122349.877 7    -41070.94227        46.000 7      2763.034 7
  20669919.548 8      -830.87728        52.000 8       191.022 8
  22604427.792 7    -43559.53827        47.000 7      2902.718 7
  24670903.901 5    -45509.49835        35.000 5      2941.283 5
  21251051.306 7    -34078.84727        45.000 7      2323.250 7
  24803403.648 6     12748.09126        40.000 6      -770.969 6
  21525113.851 7     15597.47927        45.000 7      -844.919 7
  22495964.585 8     42879.09328        49.000 8     -2683.085 8
  23994326.589 7     38420.25027        46.000 7     -2292.489 7
 10  1  6  5 57 16.0000000  0  9G02G04G05G07G10G12G13G17G23
  21121824.469 7    -43833.68427        46.000 7      2761.127 7
  20669883.531 8     -1021.19528        52.000 8       188.608 8
  22603875.702 7    -46461.69827        46.000 7      2900.943 7
  24670339.910 5    -48450.09325        33.000 5      2940.214 5
  21250610.164 8    -36401.16628        48.000 8      2320.881 8
  24803551.347 7     13520.85127        42.000 7      -774.240 7
  21525275.318 8     16443.55628        49.000 8      -848.588 8
  22496475.423 7     45562.97827        47.000 7     -2685.431 7
  23994762.007 7     40713.23527        46.000 7     -2295.133 7
 10  1  6  5 57 17.0000000  0  9G02G04G05G07G10G12G13G17G23
  21121299.043 7    -46595.13627        45.000 7      2761.397 7
  20669847.287 8     -1210.03528        48.000 8       188.334 8
  22603323.455 7    -49362.87527        44.000 7      2900.894 7
  24669779.967 5    -51389.46925        35.000 5      2938.106 5
  21250167.889 7    -38722.17327        46.000 7      2320.719 7
  24803699.569 7     14294.62527        42.000 7      -774.354 7
  21525437.360 7     17291.60927        46.000 7      -848.661 7
  22496986.923 7     48248.07027        45.000 7     -2684.774 7
  23995197.773 7     43007.60227        47.000 7     -2294.599 7
 10  1  6  5 57 18.0000000  0  9G02G04G05G07G10G12G13G17G23
  21120773.756 7    -49355.82227        45.000 7      2761.261 7
  20669811.444 8     -1398.01728        51.000 8       188.258 8
  22602771.452 7    -52263.04727        47.000 7      2900.698 7
  24669220.548 5    -54327.90325        32.000 5      2937.490 5
  21249725.683 7    -41042.37627        45.000 7      2320.467 7
  24803847.390 7     15069.58627        42.000 7      -774.427 7
  21525599.892 7     18140.64327        45.000 7      -848.747 7
  22497498.825 8     50934.02528        48.000 8     -2685.445 8
  23995634.291 7     45303.11627        46.000 7     -2294.779 7
 10  1  6  5 57 19.0000000  0  9G02G04G05G07G10G12G13G17G23
  21120248.924 7    -52115.50707        45.000 7      2759.452 7
  20669775.549 8     -1585.30708        52.000 8       186.213 8
  22602220.130 7    -55162.27007        47.000 7      2898.885 7
  24668665.038 5    -57265.43225        32.000 5      2936.532 5
  21249285.274 7    -43361.92507        46.000 7      2318.212 7
  24803995.158 6     15845.08506        40.000 6      -776.632 6
  21525761.743 7     18991.23007        45.000 7      -851.298 7
  22498010.274 8     53620.51508        48.000 8     -2687.217 8
  23996071.715 7     47599.25807        46.000 7     -2297.988 7
 10  1  6  5 57 20.0000000  0  9G02G04G05G07G10G12G13G17G23
  21119723.096 8    -54874.82408        48.000 8      2759.095 8
  20669739.846 8     -1771.62908        50.000 8       185.385 8
  22601668.598 8    -58061.19208        48.000 8      2898.918 8
  24668105.025 5    -60202.66825        33.000 5      2938.112 5
  21248844.569 8    -45680.50408        48.000 8      2318.422 8
  24804142.107 6     16621.48606        39.000 6      -776.874 6
  21525923.227 8     19842.64708        49.000 8      -852.203 8
  22498520.396 7     56307.74207        47.000 7     -2687.662 7
  23996508.965 7     49896.46707        45.000 7     -2296.929 7
 10  1  6  5 57 21.0000000  0  9G02G04G05G07G10G12G13G17G23
  21119197.269 7    -57633.93907        46.000 7      2760.480 7
  20669704.369 8     -1957.66008        52.000 8       186.796 8
  22601117.171 8    -60959.65608        48.000 8      2899.977 8
  24667545.624 5    -63139.90825        33.000 5      2937.589 5
  21248402.974 8    -47998.55908        48.000 8      2319.158 8
  24804289.945 6     17398.42206        39.000 6      -775.396 6
  21526085.270 8     20694.48708        49.000 8      -851.099 8
  22499030.745 7     58995.47307        47.000 7     -2687.190 7
  23996946.233 7     52193.56107        46.000 7     -2296.576 7
 10  1  6  5 57 22.0000000  0  9G02G04G05G07G10G12G13G17G23
  21118672.750 7    -60392.11907        47.000 7      2757.142 7
  20669669.469 8     -2142.58008        51.000 8       183.944 8
  22600565.849 8    -63857.18608        48.000 8      2896.660 8
  24666986.240 5    -66076.14825        32.000 5      2935.077 5
  21247962.722 8    -50315.57708        48.000 8      2316.258 8
  24804437.835 6     18176.42206        38.000 6      -778.993 6
  21526247.783 8     21547.74408        49.000 8      -854.344 8
  22499542.124 7     61684.22007        46.000 7     -2689.870 7
  23997383.274 7     54491.85807        45.000 7     -2299.220 7
 10  1  6  5 57 23.0000000  0  9G02G04G05G07G10G12G13G17G23
  21118148.214 7    -63149.79507        46.000 7      2757.053 7
  20669634.324 8     -2326.93808        52.000 8       184.183 8
  22600014.893 8    -66754.11708        48.000 8      2895.480 8
  24666427.065 5    -69012.05525        35.000 5      2935.455 5
  21247521.633 7    -52631.89407        46.000 7      2315.024 7
  24804585.098 6     18955.04506        38.000 6      -781.049 6
  21526410.611 8     22401.79208        48.000 8      -853.618 8
  22500053.782 7     64373.51507        47.000 7     -2689.416 7
  23997820.489 7     56790.55507        45.000 7     -2298.049 7
 10  1  6  5 57 24.0000000  0  9G02G04G05G07G10G12G13G17G23
  21117623.189 7    -65906.28907        45.000 7      2756.463 7
  20669598.883 8     -2510.08008        49.000 8       182.537 8
  22599464.095 8    -69649.84708        48.000 8      2895.214 8
  24665868.885 4    -71946.91034        29.000 4      2931.615 4
  21247080.997 7    -54946.84807        44.000 7      2314.831 7
  24804733.268 6     19734.99906        38.000 6      -780.621 6
  21526573.247 7     23257.45807        43.000 7      -855.081 7
  22500566.277 7     67064.00007        47.000 7     -2691.301 7
  23998258.158 7     59090.37807        44.000 7     -2300.217 7
 10  1  6  5 57 25.0000000  0  9G02G04G05G07G10G12G13G17G23
  21117098.182 7    -68661.61507        46.000 7      2755.510 7
  20669563.668 7     -2691.74807        47.000 7       181.751 7
  22598913.104 8    -72544.36508        48.000 8      2894.706 8
  24665310.443 4    -74880.39834        28.000 4      2934.526 4
  21246640.397 7    -57260.52707        47.000 7      2314.147 7
  24804882.170 6     20516.21106        39.000 6      -781.276 6
  21526736.721 7     24114.84907        44.000 7      -857.894 7
  22501079.889 7     69755.83107        47.000 7     -2691.768 7
  23998695.390 7     61391.72307        44.000 7     -2301.787 7
 10  1  6  5 57 26.0000000  0  9G02G04G05G07G10G12G13G17G23
  21116574.274 7    -71416.12507        46.000 7      2755.035 7
  20669528.995 8     -2872.46308        48.000 8       180.788 8
  22598362.375 8    -75438.03008        48.000 8      2894.090 8
  24664752.420 4    -77812.93534        27.000 4      2932.180 4
  21246200.721 7    -59573.31507        46.000 7      2313.466 7
  24805030.933 6     21298.42606        39.000 6      -782.197 6
  21526900.491 7     24973.46307        43.000 7      -858.347 7
  22501592.594 8     72448.58108        48.000 8     -2692.529 8
  23999133.478 7     63694.06207        44.000 7     -2302.243 7
 10  1  6  5 57 27.0000000  0  9G02G04G05G07G10G12G13G17G23
  21116050.279 7    -74169.57907        47.000 7      2752.652 7
  20669493.937 7     -3051.98507        43.000 7       177.895 7
  22597811.577 8    -78330.58508        48.000 8      2891.337 8
  24664189.999 4    -80744.64334        26.000 4      2931.149 4
  21245760.522 8    -61884.79708        48.000 8      2310.122 8
  24805179.958 6     22081.83606        38.000 6      -784.438 6
  21527064.558 8     25833.49008        48.000 8      -861.505 8
  22502105.543 7     75142.41007        44.000 7     -2695.108 7
  23999572.107 7     65997.41807        43.000 7     -2305.665 7
 10  1  6  5 57 28.0000000  0 10G02G04G05G07G08G10G12G13G17G23
  21115526.738 7    -76922.23007        44.000 7      2752.436 7
  20669459.089 7     -3230.44407        46.000 7       177.581 7
  22597261.057 8    -81222.45008        48.000 8      2891.188 8
  24663631.889 5    -83675.27935        32.000 5      2930.307 5
  25798184.599 4    -90455.41934        29.000 4      3185.928 4
  21245320.602 7    -64195.56807        47.000 7      2309.940 7
  24805328.756 6     22866.03006        39.000 6      -785.830 6
  21527228.713 7     26695.03607        44.000 7      -861.155 7
  22502618.318 7     77837.25707        45.000 7     -2695.117 7
  24000010.945 7     68302.19907        44.000 7     -2304.733 7
 10  1  6  5 57 29.0000000  0 10G02G04G05G07G08G10G12G13G17G23
  21115003.301 7    -79674.70907        45.000 7      2751.176 7
  20669426.963 8     -3408.61708        48.000 8       177.200 8
  22596710.450 8    -84114.02508        50.000 8      2890.540 8
  24663076.606 6    -86605.91036        37.000 6      2930.631 6
  25797580.350 5    -93642.24535        30.000 5      3185.458 5
  21244881.258 7    -66505.88607        46.000 7      2309.128 7
  24805477.607 6     23650.53606        38.000 6      -786.233 6
  21527391.663 7     27557.04807        42.000 7      -862.469 7
  22503130.360 7     80532.32307        44.000 7     -2695.659 7
  24000450.184 7     70607.01607        46.000 7     -2305.357 7
 10  1  6  5 57 30.0000000  0  9G02G04G05G07G10G12G13G17G23
  21114478.538 7    -82425.90607        46.000 7      2750.812 7
  20669394.610 8     -3585.45508        50.000 8       176.591 8
  22596160.629 8    -87004.29608        48.000 8      2889.792 8
  24662518.827 5    -89535.41825        35.000 5      2929.314 5
  21244441.704 7    -68814.84707        47.000 7      2308.363 7
  24805626.405 6     24436.60906        39.000 6      -786.673 6
  21527554.072 7     28420.63307        43.000 7      -864.261 7
  22503642.716 7     83228.48007        47.000 7     -2696.632 7
  24000888.953 7     72913.21007        46.000 7     -2306.350 7
 10  1  6  5 57 31.0000000  0  9G02G04G05G07G10G12G13G17G23
  21113954.874 7    -85176.08307        46.000 7      2748.976 7
  20669360.862 8     -3761.27808        51.000 8       174.786 8
  22595610.842 8    -89893.37408        48.000 8      2888.054 8
  24661962.758 5    -92464.34325        35.000 5      2927.762 5
  21244002.552 8    -71122.49608        49.000 8      2306.532 8
  24805776.180 6     25224.01706        39.000 6      -787.794 6
  21527716.446 7     29285.38907        43.000 7      -865.767 7
  22504155.804 7     85925.72707        47.000 7     -2698.398 7
  24001328.070 7     75220.25407        44.000 7     -2308.312 7
 10  1  6  5 57 32.0000000  0  9G02G04G05G07G10G12G13G17G23
  21113430.949 7    -87925.29107        44.000 7      2749.581 7
  20669327.671 8     -3935.87008        51.000 8       175.076 8
  22595061.510 7    -92781.48207        47.000 7      2888.043 7
  24661400.495 5    -95391.91625        34.000 5      2928.591 5
  21243564.255 8    -73429.05108        50.000 8      2306.491 8
  24805925.903 6     26012.40106        40.000 6      -788.251 6
  21527880.932 7     30151.80507        43.000 7      -866.051 7
  22504669.469 8     88624.20208        48.000 8     -2698.107 8
  24001767.658 7     77528.52007        44.000 7     -2307.528 7
 10  1  6  5 57 33.0000000  0  9G02G04G05G07G10G12G13G17G23
  21112907.303 7    -90674.34607        45.000 7      2748.521 7
  20669294.289 8     -4110.29008        51.000 8       174.057 8
  22594511.583 8    -95669.22608        49.000 8      2886.942 8
  24660847.358 5    -98319.59325        33.000 5      2928.932 5
  21243125.975 8    -75735.18308        50.000 8      2305.597 8
  24806076.917 6     26801.21406        40.000 6      -789.441 6
  21528046.308 7     31018.56407        45.000 7      -867.796 7
  22505182.750 7     91322.85507        47.000 7     -2698.793 7
  24002206.688 7     79836.81807        43.000 7     -2308.784 7
 10  1  6  5 57 34.0000000  0  9G02G04G05G07G10G12G13G17G23
  21112386.361 7    -93422.45707        45.000 7      2748.188 7
  20669261.343 8     -4283.86608        50.000 8       172.774 8
  22593963.210 8    -98556.19208        49.000 8      2886.861 8
  24660287.136 4   -101246.79934        29.000 4      2923.737 4
  21242687.033 8    -78040.39508        48.000 8      2305.355 8
  24806228.490 6     27590.90206        40.000 6      -790.650 6
  21528211.648 7     31886.65407        42.000 7      -868.816 7
  22505696.362 7     94022.22507        46.000 7     -2700.146 7
  24002646.608 7     82145.92707        43.000 7     -2309.755 7
 10  1  6  5 57 35.0000000  0  9G02G04G05G07G10G12G13G17G23
  21111863.815 7    -96170.57307        46.000 7      2747.874 7
  20669227.402 8     -4457.07508        48.000 8       173.113 8
  22593414.069 7   -101442.79107        45.000 7      2886.266 7
  24659735.273 5   -104173.73935        34.000 5      2926.207 5
  21242248.003 8    -80345.21108        49.000 8      2304.279 8
  24806379.312 6     28381.20306        41.000 6      -790.031 6
  21528378.787 8     32755.03808        51.000 8      -869.138 8
  22506209.451 7     96722.05207        46.000 7     -2700.032 7
  24003086.825 7     84455.35107        47.000 7     -2309.955 7
 10  1  6  5 57 36.0000000  0  8G02G04G05G10G12G13G17G23
  21111341.181 7    -98917.87007        46.000 7      2746.917 7
  20669194.282 7     -4629.31707        47.000 7       170.928 7
  22592864.998 7   -104328.73907        46.000 7      2885.359 7
  21241809.688 8    -82649.21808        50.000 8      2303.373 8
  24806530.378 7     29172.10407        42.000 7      -791.520 7
  21528545.366 8     33624.96908        51.000 8      -870.643 8
  22506723.604 7     99422.70907        46.000 7     -2701.612 7
  24003526.536 7     86765.85207        47.000 7     -2310.610 7
 10  1  6  5 57 37.0000000  0  9G02G04G05G07G10G12G13G17G23
  21110818.529 7   -101664.35507        47.000 7      2746.568 7
  20669162.104 8     -4800.68508        48.000 8       170.614 8
  22592315.578 7   -107213.81207        46.000 7      2885.261 7
  24658620.762 5   -110024.49135        30.000 5      2925.496 5
  21241370.867 8    -84952.31508        49.000 8      2303.057 8
  24806680.555 6     29963.99506        37.000 6      -791.373 6
  21528711.091 8     34495.97908        50.000 8      -871.772 8
  22507237.757 7    102124.05907        46.000 7     -2702.090 7
  24003965.984 8     89077.15408        48.000 8     -2311.544 8
 10  1  6  5 57 38.0000000  0  9G02G04G05G07G10G12G13G17G23
  21110295.581 7   -104409.64907        47.000 7      2745.146 7
  20669129.629 8     -4970.49508        48.000 8       169.869 8
  22591766.490 7   -110097.77807        45.000 7      2883.859 7
  24658064.484 5   -112948.47735        34.000 5      2923.117 5
  21240933.024 8    -87254.08208        50.000 8      2301.381 8
  24806830.958 6     30757.11106        37.000 6      -794.276 6
  21528877.025 8     35368.77808        50.000 8      -872.572 8
  22507750.881 7    104826.83807        44.000 7     -2702.624 7
  24004406.358 8     91389.84008        48.000 8     -2312.802 8
 10  1  6  5 57 39.0000000  0  9G02G04G05G07G10G12G13G17G23
  21109773.802 8   -107154.01708        48.000 8      2744.643 8
  20669096.979 7     -5139.41207        47.000 7       169.089 7
  22591217.296 7   -112980.73907        45.000 7      2882.972 7
  24657507.386 5   -115871.51335        33.000 5      2922.626 5
  21240495.181 8    -89554.78108        50.000 8      2300.908 8
  24806981.274 6     31551.32506        38.000 6      -793.470 6
  21529043.099 8     36242.81808        50.000 8      -874.131 8
  22508264.545 7    107530.63207        45.000 7     -2703.486 7
  24004846.313 8     93703.49708        48.000 8     -2313.354 8
 10  1  6  5 57 40.0000000  0  9G02G04G05G07G10G12G13G17G23
  21109251.936 7   -109898.12607        46.000 7      2745.240 7
  20669064.592 8     -5307.83408        50.000 8       169.275 8
  22590668.487 7   -115863.50507        45.000 7      2884.213 7
  24656954.633 6   -118794.40136        36.000 6      2922.968 6
  21240057.337 8    -91855.16908        49.000 8      2301.420 8
  24807132.271 6     32345.81006        40.000 6      -792.959 6
  21529210.063 8     37117.64508        49.000 8      -874.554 8
  22508778.489 7    110234.64507        45.000 7     -2702.902 7
  24005286.756 8     96017.60908        48.000 8     -2313.642 8
 10  1  6  5 57 41.0000000  0  9G02G04G05G07G10G12G13G17G23
  21108729.302 7   -112642.68107        45.000 7      2743.519 7
  20669033.339 8     -5476.59008        50.000 8       167.759 8
  22590120.131 7   -118746.61907        47.000 7      2882.631 7
  24656397.953 5   -121717.78725        35.000 5      2922.249 5
  21239619.476 8    -94155.80908        49.000 8      2300.249 8
  24807284.106 6     33140.10106        38.000 6      -795.623 6
  21529375.857 8     37992.43408        49.000 8      -876.046 8
  22509292.747 7    112938.22807        45.000 7     -2704.917 7
  24005727.252 7     98331.43307        46.000 7     -2314.614 7
 10  1  6  5 57 42.0000000  0  9G02G04G05G07G10G12G13G17G23
  21108206.842 7   -115385.46207        43.000 7      2742.420 7
  20669002.068 8     -5643.50008        51.000 8       166.625 8
  22589571.811 7   -121627.92907        47.000 7      2881.085 7
  24655839.494 5   -124639.53025        34.000 5      2920.947 5
  21239182.261 7    -96454.58507        46.000 7      2298.540 7
  24807435.486 6     33936.25506        37.000 6      -797.878 6
  21529542.594 8     38869.31808        48.000 8      -877.422 8
  22509807.755 7    115643.65707        43.000 7     -2705.879 7
  24006167.574 7    100647.00307        46.000 7     -2315.872 7
 10  1  6  5 57 43.0000000  0  9G02G04G05G07G10G12G13G17G23
  21107684.453 7   -118127.41407        45.000 7      2740.254 7
  20668971.094 8     -5809.45608        50.000 8       164.061 8
  22589024.153 8   -124508.22808        48.000 8      2878.717 8
  24655283.827 5   -127560.45025        34.000 5      2919.854 5
  21238744.959 8    -98752.22308        48.000 8      2295.635 8
  24807586.814 6     34733.55306        37.000 6      -799.727 6
  21529709.121 8     39747.39208        49.000 8      -879.872 8
  22510322.362 7    118350.15307        43.000 7     -2707.397 7
  24006608.820 7    102963.44407        46.000 7     -2318.281 7
 10  1  6  5 57 44.0000000  0  9G02G04G05G07G10G12G13G17G23
  21107162.883 7   -120868.50707        45.000 7      2740.531 7
  20668940.085 8     -5974.40708        51.000 8       164.272 8
  22588475.745 8   -127387.67408        48.000 8      2878.698 8
  24654727.549 5   -130480.57525        35.000 5      2919.190 5
  21238308.476 7   -101048.91407        47.000 7      2295.615 7
  24807739.015 6     35531.71406        37.000 6      -799.215 6
  21529876.294 8     40626.77108        48.000 8      -880.242 8
  22510837.824 7    121057.51107        45.000 7     -2708.253 7
  24007049.228 7    105280.81807        45.000 7     -2318.203 7
 10  1  6  5 57 45.0000000  0  9G02G04G05G07G10G12G13G17G23
  21106641.575 7   -123609.58307        44.000 7      2741.509 7
  20668909.076 8     -6139.21908        52.000 8       165.649 8
  22587927.843 8   -130267.09808        48.000 8      2880.366 8
  24654171.812 5   -133400.71125        34.000 5      2921.882 5
  21237871.593 7   -103345.49007        47.000 7      2297.432 7
  24807889.855 6     36330.02206        36.000 6      -798.011 6
  21530042.979 7     41506.58807        47.000 7      -879.134 7
  22511353.094 7    123764.91407        45.000 7     -2706.735 7
  24007489.951 7    107598.32107        45.000 7     -2316.484 7
 10  1  6  5 57 46.0000000  0  9G02G04G05G07G10G12G13G17G23
  21106120.302 7   -126349.93207        43.000 7      2740.275 7
  20668877.630 8     -6303.18708        52.000 8       164.120 8
  22587379.627 7   -133145.64407        47.000 7      2878.960 7
  24653617.157 5   -136320.18025        35.000 5      2919.352 5
  21237434.587 7   -105641.06207        47.000 7      2295.772 7
  24808042.021 6     37129.34806        37.000 6      -799.010 6
  21530209.698 7     42387.46607        46.000 7      -881.350 7
  22511868.766 7    126473.16807        46.000 7     -2708.405 7
  24007931.128 7    109916.57507        45.000 7     -2318.140 7
 10  1  6  5 57 47.0000000  0  9G02G04G05G07G10G12G13G17G23
  21105599.326 7   -129089.27107        43.000 7      2738.906 7
  20668846.447 8     -6466.02508        52.000 8       162.470 8
  22586832.266 8   -136023.26008        48.000 8      2877.384 8
  24653060.809 5   -139238.66425        34.000 5      2918.976 5
  21236998.244 7   -107935.60307        46.000 7      2293.971 7
  24808194.431 6     37929.69406        36.000 6      -801.104 6
  21530377.133 7     43269.82807        46.000 7      -883.558 7
  22512385.030 7    129182.46707        46.000 7     -2709.705 7
  24008372.286 7    112235.97807        45.000 7     -2319.125 7
 10  1  6  5 57 48.0000000  0  8G02G04G05G07G10G13G17G23
  21105078.315 7   -131827.76707        43.000 7      2738.667 7
  20668816.066 8     -6627.81808        52.000 8       160.908 8
  22586283.806 7   -138899.97707        46.000 7      2876.500 7
  24652504.461 5   -142156.21125        33.000 5      2917.751 5
  21236561.936 7   -110229.17907        47.000 7      2292.917 7
  21530545.580 7     44153.53707        43.000 7      -884.681 7
  22512901.644 7    131892.66007        45.000 7     -2710.894 7
  24008813.620 7    114556.45407        43.000 7     -2320.423 7
 10  1  6  5 57 49.0000000  0  9G02G04G05G07G10G12G13G17G23
  21104557.007 7   -134565.35207        43.000 7      2737.432 7
  20668785.772 8     -6788.66808        52.000 8       160.938 8
  22585736.497 7   -141775.56407        46.000 7      2875.612 7
  24651949.335 5   -145073.16905        35.000 5      2916.669 5
  21236125.227 7   -112521.51307        45.000 7      2292.030 7
  24808499.060 6     39533.50106        36.000 6      -802.808 6
  21530714.079 7     45038.33007        45.000 7      -885.305 7
  22513417.839 7    134603.90507        46.000 7     -2710.942 7
  24009255.128 7    116877.62307        45.000 7     -2321.167 7
 10  1  6  5 57 50.0000000  0  9G02G04G05G07G10G12G13G17G23
  21104035.577 7   -137302.40107        42.000 7      2736.302 7
  20668755.095 8     -6948.87908        52.000 8       159.636 8
  22585189.625 7   -144650.51307        44.000 7      2874.596 7
  24651395.220 6   -147989.62706        36.000 6      2915.906 6
  21235688.326 7   -114813.16507        47.000 7      2290.476 7
  24808652.395 6     40336.79006        40.000 6      -804.947 6
  21530882.771 7     45924.00507        45.000 7      -886.546 7
  22513935.046 8    137315.70208        48.000 8     -2712.184 8
  24009696.130 7    119199.41507        46.000 7     -2322.412 7
 10  1  6  5 57 51.0000000  0  9G02G04G05G07G10G12G13G17G23
  21103514.287 7   -140038.91407        42.000 7      2737.010 7
  20668725.133 8     -7108.43608        52.000 8       159.777 8
  22584642.648 7   -147525.04507        45.000 7      2874.760 7
  24650841.525 6   -150905.62806        36.000 6      2915.959 6
  21235252.210 7   -117104.22907        47.000 7      2291.843 7
  24808806.183 6     41140.57506        41.000 6      -804.118 6
  21531051.026 7     46810.70007        46.000 7      -886.601 7
  22514451.188 8    140027.95708        48.000 8     -2711.994 8
  24010138.632 7    121521.94307        47.000 7     -2322.357 7
 10  1  6  5 57 52.0000000  0  9G02G04G05G07G10G12G13G17G23
  21102992.962 7   -142774.96307        42.000 7      2735.900 7
  20668694.473 8     -7267.18708        52.000 8       158.229 8
  22584095.426 7   -150399.13207        44.000 7      2873.520 7
  24650287.481 6   -153820.88206        36.000 6      2913.990 6
  21234816.304 8   -119394.74108        48.000 8      2289.978 8
  24808959.344 6     41945.08606        38.000 6      -805.038 6
  21531220.485 7     47698.52207        47.000 7      -888.748 7
  22514967.418 7    142740.95407        47.000 7     -2713.239 7
  24010580.786 7    123845.30407        46.000 7     -2323.973 7
 10  1  6  5 57 53.0000000  0  8G02G04G05G07G10G13G17G23
  21102472.596 7   -145510.15407        43.000 7      2737.414 7
  20668664.895 8     -7425.10008        52.000 8       159.577 8
  22583549.112 7   -153272.26407        46.000 7      2874.622 7
  24649733.523 6   -156735.52206        37.000 6      2916.172 6
  21234380.223 8   -121684.25708        49.000 8      2290.937 8
  21531390.467 7     48587.39407        47.000 7      -887.209 7
  22515483.526 7    145454.76607        47.000 7     -2712.062 7
  24011023.044 7    126169.36407        45.000 7     -2322.397 7
 10  1  6  5 57 54.0000000  0  9G02G04G05G07G10G12G13G17G23
  21101952.318 7   -148244.54007        45.000 7      2733.877 7
  20668635.351 8     -7581.98708        52.000 8       155.975 8
  22583002.345 7   -156144.52707        45.000 7      2872.027 7
  24649179.985 6   -159649.29806        36.000 6      2912.519 6
  21233945.067 8   -123972.77608        49.000 8      2287.945 8
  24809268.021 7     43557.75637        42.000 7      -806.661 7
  21531560.764 7     49477.62407        47.000 7      -891.340 7
  22516000.314 7    148169.49307        47.000 7     -2715.350 7
  24011465.215 7    128494.46307        45.000 7     -2325.844 7
 10  1  6  5 57 55.0000000  0  9G02G04G05G07G10G12G13G17G23
  21101431.708 7   -150978.88307        46.000 7      2734.487 7
  20668605.128 8     -7738.58308        48.000 8       156.810 8
  22582455.420 7   -159016.81507        44.000 7      2872.537 7
  24648624.928 6   -162562.88906        36.000 6      2913.267 6
  21233509.143 8   -126261.18108        50.000 8      2288.441 8
  24809418.267 6     44363.95936        40.000 6      -806.304 6
  21531730.607 8     50368.50608        49.000 8      -890.911 8
  22516516.858 7    150884.38007        46.000 7     -2715.459 7
  24011907.229 7    130819.91007        42.000 7     -2325.706 7
 10  1  6  5 57 56.0000000  0  9G02G04G05G07G10G12G13G17G23
  21100911.412 7   -153712.55307        45.000 7      2732.772 7
  20668575.340 7     -7894.58307        47.000 7       155.502 7
  22581908.722 7   -161888.27007        43.000 7      2870.147 7
  24648070.273 6   -165476.04306        36.000 6      2913.411 6
  21233073.952 8   -128548.65608        50.000 8      2286.469 8
  24809577.064 6     45171.32226        41.000 6      -808.151 6
  21531900.712 8     51260.13908        50.000 8      -891.805 8
  22517033.210 7    153599.99707        45.000 7     -2716.272 7
  24012348.336 7    133145.77607        43.000 7     -2325.131 7
 10  1  6  5 57 57.0000000  0  9G02G04G05G07G10G12G13G17G23
  21100392.478 7   -156445.20507        46.000 7      2732.076 7
  20668545.605 8     -8049.59608        51.000 8       154.645 8
  22581363.228 7   -164758.58607        46.000 7      2869.884 7
  24647516.264 6   -168388.61106        36.000 6      2911.374 6
  21232639.860 8   -130834.95008        51.000 8      2285.520 8
  24809728.515 7     45979.87327        42.000 7      -808.949 7
  21532070.450 8     52153.03408        48.000 8      -893.541 8
  22517549.824 7    156316.50107        47.000 7     -2717.268 7
  24012791.467 7    135472.55507        43.000 7     -2327.968 7
 10  1  6  5 57 58.0000000  0  9G02G04G05G07G10G12G13G17G23
  21099872.636 7   -159177.56007        46.000 7      2733.214 7
  20668516.376 8     -8203.90808        49.000 8       154.202 8
  22580817.298 7   -167628.73307        46.000 7      2870.579 7
  24646962.534 6   -171300.47706        38.000 6      2912.171 6
  21232205.647 8   -133120.89508        50.000 8      2286.401 8
  24809882.251 6     46788.69726        38.000 6      -808.086 6
  21532240.084 8     53046.94208        48.000 8      -894.037 8
  22518066.507 7    159033.57507        44.000 7     -2716.319 7
  24013234.371 7    137800.07007        44.000 7     -2327.903 7
 10  1  6  5 57 59.0000000  0  9G02G04G05G07G10G12G13G17G23
  21099353.056 7   -161909.30907        46.000 7      2729.818 7
  20668487.845 8     -8357.34808        48.000 8       151.535 8
  22580270.688 7   -170498.32507        45.000 7      2868.226 7
  24646409.623 6   -174211.41706        41.000 6      2909.706 6
  21231770.019 8   -135406.10908        48.000 8      2284.172 8
  24810034.068 6     47598.29826        37.000 6      -810.519 6
  21532410.904 8     53942.11808        50.000 8      -897.629 8
  22518582.458 7    161751.38207        43.000 7     -2718.087 7
  24013678.043 7    140128.52607        45.000 7     -2331.357 7
 10  1  6  5 58  0.0000000  0  9G02G04G05G07G10G12G13G17G23
  21098834.226 7   -164639.97207        46.000 7      2730.592 7
  20668457.446 8     -8509.09508        48.000 8       150.254 8
  22579724.374 7   -173368.49307        45.000 7      2869.528 7
  24645855.335 6   -177120.96306        41.000 6      2907.853 6
  21231334.951 8   -137691.41508        48.000 8      2284.266 8
  24810188.084 5     48407.30725        35.000 5      -809.398 5
  21532581.235 8     54839.94008        50.000 8      -898.839 8
  22519100.799 7    164468.78607        47.000 7     -2718.604 7
  24014122.186 7    142460.08907        46.000 7     -2332.989 7
 10  1  6  5 58  1.0000000  0  9G02G04G05G07G10G12G13G17G23
  21098315.483 7   -167370.32107        46.000 7      2729.444 7
  20668427.990 8     -8659.43508        50.000 8       150.224 8
  22579178.862 7   -176238.73307        45.000 7      2869.389 7
  24645301.884 7   -180028.31307        43.000 7      2909.260 7
  21230899.864 8   -139976.48408        48.000 8      2284.583 8
  24810341.925 6     49216.30326        36.000 6      -809.333 6
  21532753.504 7     55739.82807        47.000 7      -899.481 7
  22519618.739 8    167187.71608        48.000 8     -2717.742 8
  24014567.323 8    144793.10808        49.000 8     -2332.792 8
 10  1  6  5 58  2.0000000  0  9G02G04G05G07G10G12G13G17G23
  21097796.234 7   -170100.50807        47.000 7      2729.792 7
  20668399.442 8     -8809.59808        49.000 8       149.770 8
  22578632.636 7   -179108.60007        43.000 7      2869.636 7
  24644749.759 7   -182935.69107        45.000 7      2907.655 7
  21230465.546 8   -142261.13808        48.000 8      2284.112 8
  24810495.853 6     50025.70726        36.000 6      -812.602 6
  21532924.150 8     56640.08708        49.000 8      -900.727 8
  22520136.731 7    169906.81007        46.000 7     -2719.610 7
  24015011.658 8    147126.23508        48.000 8     -2333.224 8
 10  1  6  5 58  3.0000000  0  9G02G04G05G07G10G12G13G17G23
  21097277.352 8   -172829.76508        48.000 8      2729.318 8
  20668371.818 8     -8958.97008        51.000 8       148.878 8
  22578086.706 7   -181977.66507        43.000 7      2868.038 7
  24644196.360 7   -185843.02507        43.000 7      2905.781 7
  21230030.913 8   -144544.86308        49.000 8      2283.541 8
  24810649.938 6     50836.14236        36.000 6      -812.382 6
  21533095.964 8     57541.38408        48.000 8      -901.638 8
  22520654.217 7    172626.16907        47.000 7     -2720.924 7
  24015454.457 6    149460.27306        39.000 6     -2333.964 6
 10  1  6  5 58  4.0000000  0  9G02G04G05G07G10G12G13G17G23
  21096757.109 7   -175558.83207        45.000 7      2727.784 7
  20668343.811 8     -9107.75608        49.000 8       147.687 8
  22577541.299 7   -184846.55607        44.000 7      2868.553 7
  24643643.066 7   -188749.42307        44.000 7      2906.153 7
  21229596.804 8   -146828.26908        50.000 8      2282.503 8
  24810805.158 6     51646.73626        36.000 6      -810.877 6
  21533267.866 7     58443.63907        47.000 7      -903.650 7
  22521171.110 7    175346.39107        47.000 7     -2719.291 7
  24015898.391 7    151794.88007        42.000 7     -2336.378 7
 10  1  6  5 58  5.0000000  0 10G02G04G05G07G08G10G12G13G17G23
  21096237.686 7   -178286.98407        46.000 7      2726.955 7
  20668315.088 8     -9255.55008        49.000 8       146.923 8
  22576995.264 7   -187714.33507        45.000 7      2866.990 7
  24643090.156 6   -191654.98506        41.000 6      2904.448 6
  25775788.850 4   -208138.05934        28.000 4      3172.042 4
  21229162.678 8   -149110.56208        49.000 8      2281.061 8
  24810960.989 6     52458.45026        37.000 6      -813.702 6
  21533439.838 8     59347.16108        50.000 8      -904.437 8
  22521689.521 8    178067.54908        48.000 8     -2721.418 8
  24016343.197 6    154130.33906        38.000 6     -2337.107 6
 10  1  6  5 58  6.0000000  0  9G02G04G05G07G10G12G13G17G23
  21095718.716 7   -181014.99407        45.000 7      2728.188 7
  20668286.801 8     -9403.21508        50.000 8       146.953 8
  22576448.776 7   -190582.37907        42.000 7      2867.176 7
  24642537.385 7   -194561.08107        43.000 7      2903.762 7
  21228727.539 8   -151392.85008        49.000 8      2281.885 8
  24811115.231 6     53270.29426        38.000 6      -812.539 6
  21533611.444 7     60251.11407        46.000 7      -905.452 7
  22522207.042 7    180788.05407        47.000 7     -2721.743 7
  24016786.781 6    156466.04006        38.000 6     -2335.584 6
 10  1  6  5 58  7.0000000  0 10G02G04G05G07G08G10G12G13G17G23
  21095199.433 7   -183742.49807        44.000 7      2727.512 7
  20668259.456 8     -9549.85008        50.000 8       146.738 8
  22575902.514 7   -193449.84507        43.000 7      2866.240 7
  24641984.562 7   -197465.94207        44.000 7      2904.563 7
  25774584.663 4   -214493.57834        27.000 4      3176.181 4
  21228293.761 8   -153674.46308        50.000 8      2281.335 8
  24811269.491 6     54082.51026        38.000 6      -813.120 6
  21533783.974 7     61156.48607        45.000 7      -905.810 7
  22522725.122 7    183509.72307        46.000 7     -2722.215 7
  24017231.971 6    158803.09106        41.000 6     -2337.095 6
 10  1  6  5 58  8.0000000  0  9G02G04G05G07G10G12G13G17G23
  21094680.638 7   -186469.40507        44.000 7      2725.106 7
  20668231.396 8     -9695.80308        50.000 8       144.265 8
  22575356.881 7   -196316.30007        42.000 7      2866.532 7
  24641431.303 7   -200370.04607        42.000 7      2903.164 7
  21227860.281 8   -155955.09308        51.000 8      2279.880 8
  24811423.960 6     54895.79726        40.000 6      -815.283 6
  21533955.527 7     62062.65707        45.000 7      -907.913 7
  22523242.818 7    186232.53507        46.000 7     -2723.585 7
  24017676.900 6    161140.72836        41.000 6     -2338.165 6
 10  1  6  5 58  9.0000000  0  9G02G04G05G07G10G12G13G17G23
  21094161.354 6   -189195.09406        41.000 6      2725.408 6
  20668203.214 8     -9840.76008        48.000 8       142.944 8
  22574811.579 6   -199181.55306        40.000 6      2863.778 6
  24640879.248 7   -203273.97707        42.000 7      2901.054 7
  21227426.311 8   -158234.51708        48.000 8      2278.387 8
  24811579.581 7     55710.41327        43.000 7      -816.014 7
  21534129.035 8     62970.17208        48.000 8      -909.849 8
  22523761.229 7    188955.65007        46.000 7     -2725.273 7
  24018122.177 6    163479.02936        37.000 6     -2339.622 6
 10  1  6  5 58 10.0000000  0  9G02G04G05G07G10G12G13G17G23
  21093642.402 7   -191920.57907        46.000 7      2725.550 7
  20668175.625 8     -9985.21108        51.000 8       143.856 8
  22574265.823 7   -202047.09107        43.000 7      2865.104 7
  24640325.884 6   -206177.30206        41.000 6      2901.783 6
  21226992.097 8   -160513.72008        50.000 8      2279.310 8
  24811734.347 6     56525.19926        41.000 6      -815.021 6
  21534302.054 7     63878.47107        46.000 7      -909.884 7
  22524279.203 7    191679.20907        46.000 7     -2724.609 7
  24018567.855 6    165818.02326        38.000 6     -2337.322 6
 10  1  6  5 58 11.0000000  0  9G02G04G05G07G10G12G13G17G23
  21093124.043 7   -194646.24607        47.000 7      2725.077 7
  20668148.264 8    -10129.60008        48.000 8       143.953 8
  22573721.324 7   -204912.08907        43.000 7      2864.652 7
  24639773.218 6   -209080.32306        38.000 6      2904.583 6
  21226558.407 8   -162792.70408        49.000 8      2278.772 8
  24811889.707 7     57340.03727        44.000 7      -815.316 7
  21534475.788 7     64787.15007        47.000 7      -908.948 7
  22524798.435 7    194403.51707        46.000 7     -2723.995 7
  24019012.801 7    168156.49737        45.000 7     -2341.315 7
 10  1  6  5 58 12.0000000  0  9G02G04G05G07G10G12G13G17G23
  21092605.911 7   -197371.04107        46.000 7      2723.394 7
  20668121.547 8    -10272.95408        50.000 8       142.283 8
  22573176.424 7   -207776.53807        45.000 7      2862.936 7
  24639220.936 6   -211982.72306        36.000 6      2899.785 6
  21226124.560 8   -165070.77008        50.000 8      2276.314 8
  24812044.874 7     58155.95927        44.000 7      -817.527 7
  21534648.807 8     65697.03808        49.000 8      -911.524 8
  22525317.108 7    197128.35507        47.000 7     -2726.523 7
  24019458.043 7    170496.31127        44.000 7     -2341.211 7
 10  1  6  5 58 13.0000000  0  9G02G04G05G07G10G12G13G17G23
  21092088.792 7   -200094.84707        46.000 7      2723.249 7
  20668093.732 8    -10415.59308        50.000 8       141.047 8
  22572632.378 6   -210639.96606        41.000 6      2864.099 6
  24638668.934 6   -214884.93006        40.000 6      2900.494 6
  21225691.986 8   -167347.81408        50.000 8      2276.925 8
  24812200.478 7     58972.83507        44.000 7      -817.911 7
  21534821.529 8     66607.99808        49.000 8      -912.631 8
  22525835.344 8    199853.40808        48.000 8     -2726.342 8
  24019903.478 7    172837.00727        42.000 7     -2340.579 7
 10  1  6  5 58 14.0000000  0  9G02G04G05G07G10G12G13G17G23
  21091569.927 7   -202818.72407        47.000 7      2724.038 7
  20668066.335 8    -10557.75608        49.000 8       142.585 8
  22572087.722 7   -213503.34007        43.000 7      2864.578 7
  24638118.222 6   -217786.41306        38.000 6      2902.214 6
  21225258.785 8   -169624.63708        51.000 8      2276.646 8
  24812356.500 6     59789.92706        40.000 6      -817.165 6
  21534995.141 7     67519.67007        47.000 7      -912.157 7
  22526354.174 7    202579.41307        45.000 7     -2724.237 7
  24020349.505 7    175177.76827        45.000 7     -2341.232 7
 10  1  6  5 58 15.0000000  0 10G02G04G05G07G08G10G12G13G17G23
  21091051.638 7   -205541.59707        47.000 7      2723.081 7
  20668040.491 8    -10698.98808        49.000 8       141.527 8
  22571542.804 7   -216365.27607        47.000 7      2862.185 7
  24637566.219 5   -220687.36505        35.000 5      2903.306 5
  25769751.912 4   -239894.59534        27.000 4      3175.433 4
  21224825.077 8   -171900.03708        50.000 8      2275.958 8
  24812511.877 6     60608.49206        41.000 6      -818.469 6
  21535168.806 7     68432.34307        47.000 7      -912.427 7
  22526873.196 7    205306.64807        46.000 7     -2726.129 7
  24020794.870 7    177519.16527        46.000 7     -2340.899 7
 10  1  6  5 58 16.0000000  0 10G02G04G05G07G08G10G12G13G17G23
  21090533.838 7   -208263.35407        46.000 7      2722.559 7
  20668013.181 8    -10839.03308        49.000 8       139.511 8
  22570999.561 7   -219226.64407        47.000 7      2862.050 7
  24637014.426 6   -223587.39936        41.000 6      2899.506 6
  25769148.780 5   -243070.03035        33.000 5      3174.117 5
  21224393.027 8   -174174.65008        50.000 8      2274.701 8
  24812667.951 6     61427.81006        41.000 6      -817.288 6
  21535342.261 7     69346.76707        46.000 7      -915.229 7
  22527393.195 7    208034.11307        47.000 7     -2728.442 7
  24021241.211 7    179862.23327        46.000 7     -2342.627 7
 10  1  6  5 58 17.0000000  0 10G02G04G05G07G08G10G12G13G17G23
  21090015.409 7   -210985.35907        46.000 7      2721.116 7
  20667986.744 8    -10978.65408        51.000 8       139.508 8
  22570455.149 7   -222088.46807        42.000 7      2862.704 7
  24636462.423 6   -226486.47936        40.000 6      2898.548 6
  25768535.492 4   -246245.00034        29.000 4      3176.284 4
  21223959.721 8   -176449.41808        50.000 8      2275.398 8
  24812823.066 6     62246.68806        40.000 6      -818.496 6
  21535516.990 8     70262.05308        48.000 8      -914.964 8
  22527910.315 7    210761.92607        46.000 7     -2727.533 7
  24021686.000 6    182205.96926        39.000 6     -2343.909 6
 10  1  6  5 58 18.0000000  0 10G02G04G05G07G08G10G12G13G17G23
  21089497.731 7   -213706.60607        47.000 7      2720.818 7
  20667960.586 8    -11117.57908        50.000 8       139.655 8
  22569909.952 7   -224949.19707        46.000 7      2860.987 7
  24635910.613 6   -229385.45126        36.000 6      2900.319 6
  25767928.818 4   -249419.58334        29.000 4      3174.248 4
  21223526.467 7   -178723.23407        47.000 7      2274.217 7
  24812979.246 7     63066.49907        43.000 7      -819.608 7
  21535691.580 8     71178.14208        49.000 8      -915.966 8
  22528429.528 7    213490.72007        43.000 7     -2726.566 7
  24022132.010 6    184549.86026        39.000 6     -2343.434 6
 10  1  6  5 58 19.0000000  0 10G02G04G05G07G08G10G12G13G17G23
  21088980.053 7   -216427.31207        47.000 7      2721.354 7
  20667934.149 8    -11255.85508        51.000 8       138.986 8
  22569365.645 7   -227809.45707        42.000 7      2861.309 7
  24635358.680 6   -232283.73926        38.000 6      2900.604 6
  25767323.767 5   -252594.23335        33.000 5      3174.278 5
  21223094.504 8   -180996.36208        51.000 8      2274.167 8
  24813136.211 7     63887.16907        44.000 7      -819.911 7
  21535866.239 8     72095.18808        48.000 8      -916.186 8
  22528949.266 7    216220.05807        45.000 7     -2728.437 7
  24022578.962 7    186894.06107        45.000 7     -2344.084 7
 10  1  6  5 58 20.0000000  0 10G02G04G05G07G08G10G12G13G17G23
  21088462.113 8   -219147.89708        48.000 8      2719.370 8
  20667907.904 8    -11393.96408        48.000 8       137.619 8
  22568821.251 7   -230669.43807        43.000 7      2858.533 7
  24634808.370 6   -235182.30826        41.000 6      2898.558 6
  25766720.338 5   -255768.90235        33.000 5      3174.800 5
  21222661.948 8   -183269.15508        48.000 8      2271.722 8
  24813292.739 7     64708.23007        43.000 7      -821.602 7
  21536040.724 8     73012.64608        49.000 8      -918.479 8
  22529469.265 7    218949.42807        46.000 7     -2731.160 7
  24023025.077 6    189238.77206        40.000 6     -2347.424 6
 10  1  6  5 58 21.0000000  0 10G02G04G05G07G08G10G12G13G17G23
  21087944.993 8   -221867.34108        48.000 8      2718.818 8
  20667881.240 7    -11530.93807        47.000 7       136.016 7
  22568277.886 7   -233527.93207        45.000 7      2859.017 7
  24634258.880 7   -238078.24437        42.000 7      2897.002 7
  25766114.187 5   -258943.31635        32.000 5      3174.870 5
  21222229.846 8   -185540.42908        50.000 8      2271.427 8
  24813450.140 7     65530.62007        44.000 7      -822.669 7
  21536214.650 7     73931.46707        46.000 7      -919.372 7
  22529989.002 7    221680.14207        45.000 7     -2729.597 7
  24023471.925 7    191584.65607        44.000 7     -2346.506 7
 10  1  6  5 58 22.0000000  0 10G02G04G05G07G08G10G12G13G17G23
  21087426.879 7   -224587.36207        45.000 7      2717.114 7
  20667855.728 8    -11668.08908        48.000 8       135.077 8
  22567733.893 7   -236387.14607        46.000 7      2856.689 7
  24633705.952 5   -240975.62335        34.000 5      2897.000 5
  25765511.718 5   -262118.04935        35.000 5      3173.785 5
  21221798.145 8   -187812.34908        50.000 8      2268.955 8
  24813605.901 7     66352.55807        43.000 7      -824.935 7
  21536389.867 7     74850.39907        47.000 7      -921.744 7
  22530508.390 6    224410.66506        40.000 6     -2732.645 6
  24023917.830 6    193930.43936        41.000 6     -2346.619 6
 10  1  6  5 58 23.0000000  0 10G02G04G05G07G08G10G12G13G17G23
  21086908.904 7   -227306.66007        45.000 7      2720.201 7
  20667829.657 8    -11804.42008        50.000 8       136.394 8
  22567189.725 8   -239245.71408        49.000 8      2858.285 8
  24633150.843 6   -243872.80436        37.000 6      2895.136 6
  25764910.995 6   -265292.92126        38.000 6      3174.080 6
  21221365.344 8   -190083.40508        49.000 8      2271.302 8
  24813762.098 6     67175.13406        41.000 6      -823.926 6
  21536565.556 8     75770.48108        49.000 8      -920.477 8
  22531027.691 7    227141.60107        42.000 7     -2733.714 7
  24024364.259 6    196277.11036        37.000 6     -2345.892 6
 10  1  6  5 58 24.0000000  0 10G02G04G05G07G08G10G12G13G17G23
  21086391.941 7   -230025.50807        43.000 7      2718.892 7
  20667803.255 7    -11940.79807        47.000 7       136.152 7
  22566646.064 8   -242103.24408        50.000 8      2856.520 8
  24632601.702 6   -246770.35936        39.000 6      2897.565 6
  25764302.261 6   -268468.24126        37.000 6      3175.819 6
  21220933.364 8   -192353.46008        48.000 8      2269.295 8
  24813919.935 6     67998.95006        40.000 6      -825.124 6
  21536739.465 7     76690.44907        46.000 7      -918.967 7
  22531547.743 7    229873.60337        42.000 7     -2731.337 7
  24024810.165 6    198623.11826        41.000 6     -2345.052 6
 10  1  6  5 58 25.0000000  0 10G02G04G05G07G08G10G12G13G17G23
  21085875.938 7   -232742.81907        45.000 7      2715.424 7
  20667777.132 7    -12076.65707        46.000 7       133.560 7
  22566102.978 7   -244958.11607        46.000 7      2852.972 7
  24632049.822 4   -249668.91334        27.000 4      2902.250 4
  25763697.716 6   -271644.13726        38.000 6      3176.566 6
  21220502.047 7   -194621.29007        45.000 7      2265.326 7
  24814077.929 6     68825.61006        37.000 6      -829.179 6
  21536915.677 7     77610.62107        46.000 7      -921.298 7
  22532067.742 6    232605.98426        39.000 6     -2733.572 6
  24025256.576 7    200968.49527        42.000 7     -2346.198 7
 10  1  6  5 58 26.0000000  0 10G02G04G05G07G08G10G12G13G17G23
  21085359.360 8   -235457.84408        50.000 8      2713.399 8
  20667752.144 7    -12210.89407        47.000 7       133.247 7
  22565560.503 7   -247810.98407        47.000 7      2851.206 7
  24631495.341 6   -252566.86036        37.000 6      2899.181 6
  25763091.583 6   -274819.96026        37.000 6      3177.387 6
  21220071.341 8   -196886.72808        48.000 8      2264.413 8
  24814234.545 7     69654.84607        42.000 7      -830.307 7
  21537090.703 8     78532.68408        49.000 8      -922.569 8
  22532587.339 7    235338.91127        43.000 7     -2733.677 7
  24025703.302 6    203316.04426        37.000 6     -2348.173 6
 10  1  6  5 58 27.0000000  0 10G02G04G05G07G08G10G12G13G17G23
  21084842.327 8   -238171.33708        50.000 8      2712.755 8
  20667726.649 7    -12344.83607        46.000 7       133.307 7
  22565018.080 8   -250661.64708        50.000 8      2849.913 8
  24630945.432 6   -255465.84926        41.000 6      2897.579 6
  25762484.786 6   -277996.71236        37.000 6      3183.084 6
  21219640.059 8   -199150.39408        49.000 8      2261.823 8
  24814392.312 7     70486.64307        46.000 7      -831.738 7
  21537266.148 8     79454.90208        49.000 8      -923.248 8
  22533107.007 7    238072.25637        42.000 7     -2733.723 7
  24026150.237 7    205663.37427        42.000 7     -2347.807 7
 10  1  6  5 58 28.0000000  0 10G02G04G05G07G08G10G12G13G17G23
  21084326.080 8   -240884.35608        51.000 8      2713.399 8
  20667701.102 7    -12478.28107        47.000 7       133.167 7
  22564475.850 8   -253511.56708        49.000 8      2850.324 8
  24630394.389 5   -258364.65835        34.000 5      2899.680 5
  25761882.300 5   -281173.47035        35.000 5      3180.275 5
  21219209.649 8   -201413.12608        49.000 8      2263.380 8
  24814550.167 7     71319.35707        46.000 7      -832.357 7
  21537442.011 7     80377.87007        47.000 7      -922.949 7
  22533627.721 7    240805.94427        44.000 7     -2733.356 7
  24026598.079 7    208011.40927        46.000 7     -2347.033 7
 10  1  6  5 58 29.0000000  0 10G02G04G05G07G08G10G12G13G17G23
  21083810.286 8   -243596.93008        50.000 8      2712.341 8
  20667675.712 8    -12611.02608        49.000 8       133.487 8
  22563933.288 8   -256361.67608        48.000 8      2850.429 8
  24629842.736 6   -261262.82036        41.000 6      2899.038 6
  25761278.226 6   -284350.99536        37.000 6      3176.830 6
  21218779.240 8   -203675.82808        48.000 8      2262.144 8
  24814708.580 7     72152.00807        42.000 7      -832.632 7
  21537618.694 8     81302.08208        48.000 8      -924.226 8
  22534148.069 6    243539.33526        41.000 6     -2733.630 6
  24027045.119 7    210360.38627        43.000 7     -2347.028 7
 10  1  6  5 58 30.0000000  0 10G02G04G05G07G08G10G12G13G17G23
  21083293.550 8   -246309.18708        49.000 8      2712.737 8
  20667650.391 7    -12743.30807        47.000 7       132.035 7
  22563390.830 7   -259211.46707        46.000 7      2850.470 7
  24629291.431 7   -264160.85927        45.000 7      2896.299 7
  25760673.925 6   -287528.34326        39.000 6      3176.418 6
  21218348.359 8   -205938.01208        49.000 8      2262.558 8
  24814867.569 6     72985.07106        40.000 6      -832.512 6
  21537794.366 7     82226.95107        45.000 7      -924.953 7
  22534667.719 6    246273.20926        38.000 6     -2736.012 6
  24027491.827 8    212709.66628        48.000 8     -2350.215 8
 10  1  6  5 58 31.0000000  0 10G02G04G05G07G08G10G12G13G17G23
  21082777.931 7   -249021.32407        46.000 7      2713.712 7
  20667625.577 8    -12875.40908        50.000 8       133.580 8
  22562848.774 7   -262060.71307        47.000 7      2851.554 7
  24628740.161 7   -267058.85827        44.000 7      2898.767 7
  25760070.060 6   -290705.81336        38.000 6      3179.080 6
  21217918.281 8   -208199.79008        50.000 8      2264.329 8
  24815026.104 7     73818.69407        42.000 7      -831.384 7
  21537969.287 7     83152.15607        42.000 7      -923.459 7
  22535188.015 6    249007.63136        41.000 6     -2732.019 6
  24027939.390 7    215058.55207        45.000 7     -2347.198 7
 10  1  6  5 58 32.0000000  0 10G02G04G05G07G08G10G12G13G17G23
  21082261.527 8   -251733.66108        49.000 8      2709.885 8
  20667600.274 8    -13007.21008        48.000 8       130.447 8
  22562306.631 7   -264910.26507        47.000 7      2846.078 7
  24628189.083 7   -269956.36927        42.000 7      2896.708 7
  25759465.619 6   -293883.26336        37.000 6      3174.743 6
  21217487.068 7   -210461.64707        47.000 7      2258.831 7
  24815184.709 5     74652.10605        34.000 5      -838.612 5
  21538145.569 7     84078.08307        44.000 7      -926.933 7
  22535708.956 7    251742.40927        42.000 7     -2737.141 7
  24028385.540 6    217408.09006        37.000 6     -2351.961 6
 10  1  6  5 58 33.0000000  0 10G02G04G05G07G08G10G12G13G17G23
  21081745.925 8   -254444.53908        48.000 8      2711.807 8
  20667575.635 8    -13137.95208        50.000 8       130.572 8
  22561764.452 7   -267758.12407        45.000 7      2848.368 7
  24627637.953 7   -272853.45227        44.000 7      2897.093 7
  25758860.795 6   -297060.47426        38.000 6      3177.929 6
  21217056.746 8   -212721.80808        49.000 8      2260.549 8
  24815343.925 6     75487.47006        41.000 6      -835.440 6
