     2.11           OBSERVATION DATA    G (GPS)             RINEX VERSION / TYPE
teqc  2019Feb12                         20210103 00:30:51UTCPGM / RUN BY / DATE
ZIMM                                                        MARKER NAME
14001M004                                                   MARKER NUMBER
TRIMBLE NETR9       SWISSTOPO                               OBSERVER / AGENCY
5429R49141          TRIMBLE NETR9       5.45                REC # / TYPE / VERS
99390               TRM29659.00     NONE                    ANT # / TYPE
  4331297.3480   567555.6390  4633133.7280                  APPROX POSITION XYZ
        0.0000        0.0000        0.0000                  ANTENNA: DELTA H/E/N
     1     1                                                WAVELENGTH FACT L1/2
    10    C1    L1    S1    C2    L2    S2    P2    C5    L5# / TYPES OF OBSERV
          S5                                                # / TYPES OF OBSERV
    30.0000                                                 INTERVAL
Linux 2.4.21-27.ELsmp|Opteron|gcc -static|Linux 64|=+       COMMENT
     2.11           OBSERVATION DATA    M (MIXED)           COMMENT
NetR9 5.45          Receiver Operator   20210102 000001 UTC COMMENT
L2C CARRIER PHASE MEASUREMENTS: PHASE SHIFTS REMOVED        COMMENT
L2C PHASE MATCHES L2 P PHASE                                COMMENT
GLONASS C/A & P PHASE MATCH: PHASE SHIFTS REMOVED           COMMENT
Forced Modulo Decimation to 30 seconds                      COMMENT
teqc edited: all GLONASS satellites excluded                COMMENT
teqc edited: all Galileo satellites excluded                COMMENT
  2021     1     2     0     0    0.0000000     GPS         TIME OF FIRST OBS
                                                            END OF HEADER
 21  1  2  0  0  0.0000000  0 11G21G23G16G07G15G26G08G18G27G20G10
  23589929.625 6 123965922.744 6        40.200                    96596843.86946
        23.500    23589932.59446
  21442010.617 8 112678538.433 8        47.900    21442015.238 9  87801476.79249
        38.800    21442014.96549  21442015.520 6  84143075.486 6        39.400
  21524837.695 9 113113846.640 9        48.600                    88140631.84049
        39.800    21524840.87549
  24653562.547 5 129555346.563 5        36.900    24653567.270 5 100952218.55046
        21.800    24653566.30146
  24511558.688 5 128809118.464 5        35.500    24511564.406 3 100370754.69847
        27.000    24511563.68047
  23568414.258 7 123852836.276 7        41.400    23568421.813 7  96508754.92949
        39.000    23568421.36749  23568416.262 2  92487530.942 2        31.600
  22079879.852 8 116030577.566 8        46.300    22079886.852 8  90413454.70749
        48.500    22079885.66049  22079882.020 5  86646214.334 5        37.900
  23442181.359 6 123189515.537 6        40.100    23442186.449 7  95991843.32547
        25.400    23442185.78147  23442187.676 4  91992170.722 4        34.100
  20231335.547 9 106316411.623 9        50.500    20231341.727 9  82843988.33649
        55.300    20231341.12549  20231337.559 7  79392147.003 7        43.700
  21405321.484 8 112485728.866 8        47.200                    87651247.78249
        38.200    21405324.75449
  21099651.328 9 110879423.715 9        52.000    21099657.727 9  86399624.28849
        54.900    21099657.62949  21099652.871 7  82799543.655 7        41.100
 21  1  2  0  0 30.0000000  0 11G21G23G16G07G15G26G08G18G27G20G10
  23575105.313 6 123888019.802 6        40.800                    96536140.28347
        25.600    23575108.39547
  21448642.609 9 112713388.486 9        48.400    21448647.184 9  87828632.68649
        39.200    21448646.50849  21448646.855 6  84169099.885 6        39.700
  21539376.688 9 113190249.797 9        48.500                    88200166.77049
        40.600    21539379.94149
  24656790.563 6 129572301.828 6        38.600    24656794.629 5 100965430.41446
        22.500    24656793.36346
  24514137.813 5 128822667.54315        35.400    24514141.660 3 100381312.42557
        27.800    24514141.55147
  23589016.383 6 123961102.180 6        40.300    23589023.984 7  96593117.96049
        38.200    23589023.18849  23589018.523 3  92568378.861 3        32.300
  22065272.750 8 115953820.613 8        46.300    22065280.531 8  90353644.10249
        48.700    22065279.43849  22065275.145 5  86588895.801 5        37.500
  23460117.352 6 123283768.690 6        40.600    23460121.973 7  96065287.29547
        27.500    23460121.22347  23460122.672 4  92062554.553 4        34.200
  20228498.047 9 106301499.241 9        51.300    20228504.012 9  82832368.29549
        55.100    20228503.48849  20228499.793 7  79381011.151 7        43.000
  21413558.078 8 112529012.194 8        47.000                    87684975.05049
        37.900    21413560.98449
  21093416.742 9 110846659.599 9        52.600    21093422.992 9  86374093.81249
        55.000    21093422.82849  21093418.102 6  82775076.945 6        40.800
 21  1  2  0  1  0.0000000  0 11G21G23G16G07G15G26G08G18G27G20G10
  23560317.164 6 123810308.703 6        40.500                    96475586.19346
        23.500    23560320.87146
  21455382.750 9 112748809.419 9        48.600    21455387.270 9  87856233.42349
        39.000    21455386.90649  21455387.266 6  84195550.567 6        39.100
  21553998.797 9 113267090.096 9        48.300                    88260042.32249
        39.800    21554002.08249
  24660109.711 5 129589748.282 5        36.900    24660114.066 5 100979025.02746
        20.400    24660113.16046
  24516826.234 4 128836797.613 4        34.500    24516830.273 3 100392322.91747
        26.900    24516830.35247
  23609644.742 6 124069505.614 6        40.500    23609652.324 7  96677588.15349
        37.800    23609651.69149  23609647.715 3  92649329.479 3        32.900
  22050706.117 8 115877271.807 8        45.500    22050713.906 8  90293995.70649
        48.600    22050712.89149  22050708.805 6  86531732.765 6        38.100
  23478068.898 6 123378107.134 6        40.900    23478074.223 7  96138797.77647
        26.000    23478073.70347  23478074.660 3  92133002.058 3        33.900
  20225737.406 9 106286993.498 9        50.900    20225743.609 9  82821065.11849
        55.000    20225743.11349  20225739.535 7  79370178.940 7        43.400
  21421892.820 8 112572812.562 8        47.200                    87719105.21249
        37.400    21421895.67249
  21087287.719 9 110814453.272 9        52.700    21087294.305 9  86348997.98849
        55.000    21087294.21149  21087289.281 6  82751026.782 6        40.800
 21  1  2  0  1 30.0000000  0 11G21G23G16G07G15G26G08G18G27G20G10
  23545565.648 6 123732789.335 6        40.900                    96415181.49146
        24.300    23545569.38346
  21462231.164 8 112784799.224 8        47.500    21462236.156 9  87884277.43149
        39.100    21462235.37549  21462235.824 6  84222426.118 6        39.300
  21568704.047 9 113344364.777 9        48.300                    88320256.36349
        39.900    21568707.18449
  24663522.836 5 129607684.430 5        37.900    24663527.887 5 100993001.20046
        22.200    24663527.14546
  24519626.609 5 128851508.462 5        35.900    24519629.988 5 100403785.93747
        27.900    24519629.84447
  23630299.047 6 124178043.557 6        40.200    23630306.613 7  96762163.18849
        38.100    23630306.12949  23630301.617 3  92730380.502 3        32.600
  22036179.008 8 115800931.858 8        45.900    22036186.555 8  90234510.05649
        48.800    22036185.73449  22036181.758 6  86474725.688 6        38.200
  23496036.945 6 123472529.018 6        39.900    23496042.395 7  96212373.25347
        25.800    23496041.28147  23496042.688 4  92203511.896 4        34.400
  20223054.672 9 106272894.744 9        51.300    20223060.539 9  82810079.08149
        55.000    20223060.25049  20223056.492 7  79359650.647 7        42.900
  21430325.727 8 112617127.886 8        46.900                    87753636.64949
        38.400    21430328.82049
  21081265.602 9 110782805.089 9        53.200    21081271.840 9  86324337.07549
        55.000    21081271.72749  21081266.797 6  82727393.411 6        40.900
 21  1  2  0  2  0.0000000  0 11G21G23G16G07G15G26G08G18G27G20G10
  23530849.797 6 123655461.703 6        39.500                    96354926.19646
        24.500    23530854.37546
  21469187.898 8 112821356.124 8        47.600    21469192.500 9  87912763.34149
        39.400    21469191.94949  21469192.398 6  84249725.103 6        39.200
  21583490.766 9 113422071.214 9        48.600                    88380806.82949
        40.600    21583494.10549
  24667029.891 6 129626108.639 6        39.000    24667033.051 5 101007357.66846
        21.500    24667032.38746
  24522536.359 5 128866799.47715        35.400    24522539.711 5 100415701.07257
        27.800    24522539.00047
  23650978.508 6 124286713.155 6        40.600    23650985.355 7  96846840.78649
        39.000    23650985.47749  23650980.137 2  92811529.90712        31.200
  22021692.344 8 115724802.120 8        46.000    22021699.590 8  90175188.19249
        49.000    22021698.75449  22021695.039 6  86417875.574 6        38.400
  23514020.930 6 123567032.695 6        39.600    23514026.074 7  96286012.47547
        26.000    23514025.05147  23514026.883 3  92274082.742 3        33.600
  20220449.086 9 106259203.526 9        50.900    20220455.441 9  82799410.59749
        55.200    20220454.82049  20220451.207 7  79349426.673 7        43.400
  21438855.828 8 112661956.189 8        46.500                    87788567.79249
        37.500    21438859.17649
  21075349.508 9 110751715.684 9        53.800    21075355.895 9  86300111.57249
        55.500    21075355.46149  21075350.813 7  82704177.309 7        41.100
 21  1  2  0  2 30.0000000  0 11G21G23G16G07G15G26G08G18G27G20G10
  23516172.430 6 123578327.517 6        40.400                    96294821.63447
        26.300    23516175.23847
  21476252.367 9 112858479.874 9        48.800    21476256.945 9  87941690.94449
        38.800    21476256.30949  21476257.047 6  84277447.378 6        39.900
  21598359.844 9 113500208.388 9        48.600                    88441692.92749
        40.400    21598363.08649
  24670627.758 5 129645020.700 5        37.600    24670632.055 5 101022094.34146
        21.300    24670631.46546
  24525555.016 4 128882671.62314        34.800    24525559.832 5 100428069.03157
        29.800    24525560.21147
  23671682.219 6 124395513.206 6        40.300    23671689.770 7  96931620.03449
        37.700    23671688.97749  23671684.371 2  92892776.71312        31.700
  22007245.945 8 115648885.165 8        46.100    22007253.059 8  90116032.13949
        48.900    22007251.88349  22007248.027 6  86361184.365 6        38.400
  23532019.648 6 123661618.033 6        40.200    23532025.156 7  96359715.30347
        26.500    23532024.26247  23532025.777 3  92344714.637 3        33.600
  20217921.633 9 106245921.951 9        51.400    20217928.023 9  82789061.32249
        54.900    20217927.21949  20217923.758 7  79339508.625 7        43.600
  21447484.102 8 112707297.166 8        46.600                    87823898.43649
        37.900    21447487.48449
  21069540.250 9 110721187.135 9        53.400    21069546.297 9  86276323.09549
        55.100    21069545.97749  21069541.668 7  82681380.025 7        41.300
 21  1  2  0  3  0.0000000  0 11G21G23G16G07G15G26G08G18G27G20G10
  23501530.969 6 123501385.610 6        40.800                    96234866.93947
        25.600    23501534.26647
  21483424.070 9 112896167.451 9        48.300    21483428.535 9  87971057.89849
        38.700    21483427.46149  21483428.914 6  84305590.721 6        39.900
  21613310.258 9 113578772.909 9        48.300                    88502912.03749
        39.600    21613313.37149
  24674319.055 6 129664418.041 6        38.100    24674322.723 5 101037209.11546
        20.600    24674322.90646
  24528686.633 5 128899123.067 5        37.200    24528689.973 5 100440888.38048
        31.300    24528689.72348
  23692410.398 6 124504439.706 6        40.300    23692417.789 7  97016497.82249
        38.400    23692416.99249  23692413.551 3  92974117.897 3        32.500
  21992839.664 8 115573181.234 8        46.600    21992846.910 8  90057042.06949
        48.900    21992845.81649  21992842.008 6  86304652.222 6        38.700
  23550033.008 6 123756282.231 6        38.100    23550038.902 7  96433479.57446
        24.400    23550037.84446  23550039.016 3  92415405.40413        33.400
  20215472.109 9 106233049.356 9        50.800    20215478.547 9  82779030.72149
        55.200    20215477.73849  20215474.375 7  79329895.967 7        43.400
  21456209.625 8 112753147.511 8        46.500                    87859625.98049
        37.400    21456212.75049
  21063837.102 9 110691218.800 9        52.800    21063843.621 9  86252971.15949
        55.100    21063843.23049  21063838.922 7  82659001.063 7        41.500
 21  1  2  0  3 30.0000000  0 11G21G23G16G07G15G26G08G18G27G20G10
  23486927.008 7 123424637.917 7        41.700                    96175063.56747
        25.300    23486929.88347
  21490703.250 8 112934418.575 8        47.600    21490707.520 9  88000863.97849
        38.700    21490707.14549  21490708.184 6  84334154.871 6        39.900
  21628341.555 9 113657763.529 9        48.300                    88564463.17649
        39.400    21628344.75849
  24678103.281 6 129684300.585 6        38.100    24678106.703 5 101052702.01246
        20.600    24678105.78146
  24531928.258 5 128916155.412 5        37.500    24531932.180 6 100454160.38548
        32.300    24531931.55148
  23713161.516 6 124613491.391 6        39.400    23713169.766 7  97101473.15049
        38.000    23713169.18849  23713165.090 3  93055552.553 3        32.100
  21978474.656 8 115497693.177 8        46.100    21978482.434 8  89998220.22449
        49.100    21978480.88749  21978477.063 6  86248281.269 6        38.400
  23568061.820 6 123851025.298 6        38.800    23568068.109 7  96507305.30446
        24.200    23568067.07846  23568068.074 3  92486155.041 3        32.900
  20213100.961 9 106220587.846 9        50.700    20213107.012 9  82769320.45849
        55.200    20213106.47349  20213103.023 7  79320590.313 7        43.600
  21465031.188 8 112799506.734 8        46.700                    87895750.05349
        37.800    21465034.30149
  21058241.352 9 110661812.769 9        53.100    21058247.582 9  86230057.37749
        54.900    21058247.69149  21058242.824 7  82637042.048 7        41.100
 21  1  2  0  4  0.0000000  0 11G21G23G16G07G15G26G08G18G27G20G10
  23472359.422 7 123348083.796 7        42.400                    96115411.02147
        26.200    23472362.05947
  21498088.930 8 112973230.545 8        47.900    21498093.230 9  88031107.08349
        39.200    21498093.01649  21498093.617 6  84363137.847 6        39.500
  21643453.961 9 113737177.212 9        48.700                    88626343.96849
        39.800    21643456.77749
  24681977.875 6 129704665.977 6        38.400    24681982.418 4 101068571.12146
        21.100    24681981.37946
  24535277.469 5 128933766.929 5        37.500    24535283.594 5 100467883.70048
        31.100    24535282.57848
  23733936.664 6 124722664.679 6        40.500    23733945.293 7  97186543.21849
        38.800    23733944.35949  23733939.172 2  93137078.075 2        31.200
  21964151.328 8 115422421.022 8        46.200    21964158.348 8  89939566.60349
        49.300    21964157.13349  21964153.137 6  86192071.599 6        38.400
  23586106.656 6 123945844.716 6        39.400    23586111.387 7  96581190.55547
        25.300    23586110.46547  23586111.715 4  92556961.805 4        34.200
  20210807.477 9 106208537.165 9        51.000    20210813.863 9  82759930.31549
        55.000    20210813.28549  20210809.527 7  79311591.424 7        43.100
  21473949.492 8 112846372.007 8        46.700                    87932268.44449
        37.900    21473952.76249
  21052752.531 9 110632968.798 9        53.100    21052758.758 9  86207581.57149
        54.900    21052758.62949  21052754.164 7  82615502.726 7        41.100
 21  1  2  0  4 30.0000000  0 11G21G23G16G07G15G26G08G18G27G20G10
  23457827.352 7 123271723.803 7        41.600                    96055909.74647
        25.800    23457831.37547
  21505580.422 8 113012602.282 8        47.300    21505585.426 9  88061786.35549
        39.000    21505584.94549  21505585.820 6  84392538.824 6        39.000
  21658645.297 8 113817011.967 8        47.800                    88688552.86149
        39.000    21658648.62949
  24685945.133 6 129725513.323 6        38.500    24685949.211 5 101084815.79746
        20.600    24685948.76646
  24538740.258 5 128951957.525 5        37.200    24538744.363 5 100482058.17948
        30.900    24538744.32848
  23754734.891 6 124831957.501 6        40.100    23754741.555 6  97271706.45349
        37.100    23754741.39549  23754737.531 2  93218692.868 2        31.700
  21949868.984 8 115347367.004 8        47.000    21949876.086 8  89881082.96449
        49.600    21949874.81649  21949871.125 6  86136024.752 6        38.800
  23604164.383 6 124040739.665 6        39.200    23604169.258 7  96655134.66447
        25.600    23604168.91447  23604169.785 4  92627824.848 4        34.000
  20208592.891 9 106196898.545 9        51.100    20208599.148 9  82750861.27149
        55.000    20208598.50849  20208594.730 7  79302900.265 7        42.700
  21482963.820 8 112893741.971 8        46.300                    87969180.11749
        37.100    21482967.02749
  21047370.961 9 110604688.069 9        53.200    21047377.129 9  86185544.64649
        55.600    21047377.10949  21047372.492 7  82594384.009 7        41.600
 21  1  2  0  5  0.0000000  0 11G21G23G16G07G15G26G08G18G27G20G10
  23443334.164 7 123195558.469 7        41.100                    95996560.15947
        26.300    23443337.21147
  21513179.234 8 113052532.311 8        47.800    21513183.563 9  88092900.67949
        38.800    21513183.54349  21513184.242 6  84422356.724 6        39.400
  21673917.133 8 113897265.408 8        47.800                    88751088.00349
        38.900    21673920.42649
  24690004.688 6 129746841.376 6        39.200    24690008.203 5 101101434.98046
        21.800    24690007.80146
  24542312.055 5 128970727.037 5        35.000    24542316.031 5 100496683.83147
        28.900    24542316.09847
  23775554.406 6 124941367.549 6        39.400    23775561.867 7  97356961.06149
        37.400    23775561.83649  23775557.402 3  93300395.140 3        32.600
  21935628.750 8 115272533.311 8        46.700    21935635.484 8  89822771.00649
        49.500    21935634.38749  21935631.176 6  86080142.467 6        38.500
  23622236.336 6 124135709.032 6        38.800    23622241.086 7  96729136.72046
        23.300    23622240.84046  23622241.836 4  92698743.489 4        34.200
  20206456.828 9 106185672.971 9        51.200    20206462.828 9  82742114.06849
        55.300    20206462.14149  20206458.477 7  79294517.532 7        42.800
  21492073.656 8 112941614.989 8        46.900                    88006483.77749
        37.400    21492076.65649
  21042096.734 9 110576971.491 9        52.700    21042102.863 9  86163947.31649
        55.000    21042102.80149  21042098.555 7  82573686.588 7        41.300
 21  1  2  0  5 30.0000000  0 11G21G23G16G07G15G26G08G18G27G20G10
  23428877.008 6 123119588.182 6        40.800                    95937362.56446
        24.900    23428880.64546
  21520883.742 9 113093018.886 9        48.100    21520888.070 9  88124448.65849
        39.000    21520887.73849  21520888.449 6  84452590.209 6        38.800
  21689268.336 9 113977935.453 9        48.100                    88813947.77549
        39.400    21689271.70749
  24694154.258 6 129768648.809 6        39.000    24694157.871 5 101118427.83446
        21.500    24694157.39846
  24545992.922 5 128990075.555 5        35.900    24545997.453 4 100511760.60547
        29.500    24545997.11347
  23796396.734 6 125050892.095 6        40.000    23796404.445 7  97442304.83649
        37.900    23796403.84849  23796399.336 3  93382182.905 3        32.700
  21921430.133 8 115197920.420 8        46.400    21921437.383 8  89764631.10749
        49.500    21921436.03949  21921432.605 6  86024425.081 6        38.300
  23640322.719 6 124230751.319 6        39.500    23640327.211 7  96803195.64947
        25.600    23640326.25447  23640327.734 3  92769716.603 3        33.800
  20204399.102 9 106174861.112 9        51.200    20204405.582 9  82733689.24649
        55.600    20204404.85549  20204401.227 7  79286443.725 7        43.300
  21501279.195 8 112989989.381 8        47.100                    88044178.11049
        37.600    21501282.23849
  21036929.469 9 110549819.666 9        53.000    21036936.113 9  86142790.06649
        55.300    21036935.95349  21036931.238 7  82553410.872 7        41.400
 21  1  2  0  6  0.0000000  0 11G21G23G16G07G15G26G08G18G27G20G10
  23414457.945 7 123043813.105 7        42.200                    95878317.07247
        26.200    23414461.49647
  21528693.055 9 113134059.906 9        48.100    21528697.914 9  88156428.67349
        38.400    21528697.38349  21528698.004 6  84483237.741 6        39.400
  21704697.773 9 114059019.551 9        48.400                    88877130.19249
        39.400    21704701.59849
  24698394.539 5 129790933.952 5        36.900    24698399.082 5 101135792.84945
        19.900    24698397.84045
  24549785.703 5 129010001.93215        37.500    24549789.484 5 100527287.71657
        29.700    24549789.74647
  23817258.859 6 125160528.240 6        38.800    23817267.008 6  97527735.58349
        36.800    23817266.60249  23817261.949 2  93464054.071 2        31.200
  21907274.258 9 115123530.270 9        48.000    21907281.336 8  89706664.77049
        49.700    21907280.34049  21907276.496 6  85968873.993 6        39.000
  23658422.469 6 124325864.781 6        39.400    23658426.590 7  96877310.03047
        25.500    23658426.21547  23658427.039 3  92840742.856 3        33.200
  20202420.516 9 106164463.324 9        50.900    20202427.043 9  82725587.07049
        55.800    20202426.42649  20202422.582 7  79278679.148 7        43.200
  21510579.055 8 113038862.748 8        46.600                    88082261.25949
        37.600    21510582.59049
  21031870.320 9 110523232.870 9        52.900    21031876.770 9  86122073.08949
        55.000    21031876.78149  21031872.059 7  82533557.127 7        41.200
 21  1  2  0  6 30.0000000  0 11G21G23G16G07G15G26G08G18G27G20G10
  23400076.078 7 122968234.736 7        42.600                    95819424.87047
        26.600    23400079.17647
  21536608.773 8 113175655.128 8        47.300    21536613.102 9  88188840.54649
        38.300    21536612.71149  21536613.590 6  84514299.123 6        39.300
  21720206.414 8 114140516.094 8        47.900                    88940633.98449
        38.900    21720209.87949
  24702726.695 6 129813696.381 6        38.700    24702729.988 5 101153529.78246
        22.000    24702728.97346
  24553687.180 5 129030507.212 5        37.600    24553691.266 4 100543265.87247
        28.900    24553691.70747
  23838144.219 6 125270274.883 6        39.900    23838150.957 6  97613252.44749
        37.100    23838150.70349  23838145.680 2  93546007.722 2        31.600
  21893161.313 8 115049365.220 8        47.300    21893167.977 8  89648873.83949
        49.900    21893167.03949  21893163.395 6  85913491.050 6        38.300
  23676534.961 6 124421049.624 6        38.600    23676540.031 7  96951479.99646
        24.700    23676539.46146  23676540.336 3  92911822.451 3        33.100
  20200521.320 9 106154481.815 9        51.700    20200527.449 9  82717809.26849
        56.000    20200526.96549  20200523.219 7  79271225.418 7        43.200
  21519974.250 8 113088234.654 8        46.800                    88120732.86549
        37.900    21519977.81649
  21026918.914 9 110497213.194 9        53.500    21026925.375 9  86101798.03249
        55.300    21026925.26649  21026920.484 6  82514126.857 6        40.900
 21  1  2  0  7  0.0000000  0 11G21G23G16G07G15G26G08G18G27G20G10
  23385730.992 7 122892851.922 7        41.300                    95760685.03447
        25.800    23385733.83247
  21544628.859 9 113217801.615 9        48.400    21544633.238 9  88221681.97149
        38.700    21544632.82449  21544633.648 6  84545772.139 6        39.000
  21735792.445 8 114222421.792 8        47.700                    89004456.60549
        38.900    21735796.00849
  24707147.734 6 129836933.661 6        38.000    24707152.289 5 101171636.70646
        20.100    24707150.97346
  24557699.063 5 129051589.651 5        36.900    24557703.895 5 100559693.78747
        29.600    24557703.30147
  23859048.320 6 125380128.267 6        39.600    23859055.566 7  97698852.48349
        37.200    23859054.97349  23859051.000 2  93628041.126 2        31.900
  21879091.125 9 114975425.808 9        48.100    21879098.004 8  89591258.73249
        49.900    21879096.76249  21879093.027 6  85858276.562 6        38.900
  23694660.516 6 124516303.236 6        39.400    23694666.332 7  97025703.57146
        24.600    23694665.54346  23694666.895 3  92982953.390 3        33.600
  20198701.047 9 106144916.083 9        51.000    20198707.121 9  82710355.45849
        55.200    20198706.53949  20198702.832 7  79264082.190 7        43.400
  21529464.266 8 113138102.176 8        46.700                    88159590.67649
        37.200    21529467.13349
  21022075.656 9 110471760.042 9        53.600    21022081.766 9  86081964.41349
        55.000    21022081.67249  21022076.664 6  82495119.639 6        40.900
 21  1  2  0  7 30.0000000  0 11G21G23G16G07G15G26G08G18G27G20G10
  23371423.461 7 122817665.463 7        41.700                    95702098.21047
        27.400    23371426.83247
  21552753.547 8 113260497.761 8        47.300    21552758.355 9  88254951.69249
        38.400    21552757.75849  21552758.270 6  84577655.622 6        39.200
  21751456.250 8 114304734.977 8        47.900                    89068596.75349
        39.400    21751459.53949
  24711661.445 6 129860644.346 6        38.300    24711664.043 5 101190112.52246
        21.100    24711663.64546
  24561821.500 5 129073248.921 5        37.800    24561825.176 5 100576571.18748
        30.200    24561825.11348
  23879972.945 6 125490085.921 6        39.900    23879979.465 7  97784533.77549
        37.900    23879979.52749  23879975.430 3  93710152.30713        32.100
  21865063.961 9 114901713.505 9        48.000    21865070.934 8  89533820.58649
        50.300    21865069.87549  21865066.086 6  85803231.678 6        38.600
  23712800.633 6 124611624.464 6        39.800    23712804.867 7  97099979.84047
        25.500    23712804.16847  23712805.520 3  93054134.779 3        33.500
  20196960.008 9 106135767.029 9        51.300    20196966.031 9  82703226.32549
        55.900    20196965.60549  20196962.020 7  79257250.109 7        43.200
  21539047.258 8 113188463.636 8        46.000                    88198833.39149
        36.700    21539050.50049
  21017339.836 9 110446874.140 9        53.200    21017346.098 9  86062572.81249
        55.100    21017345.98849  21017341.176 7  82476536.031 7        41.000
 21  1  2  0  8  0.0000000  0 11G21G23G16G07G15G26G08G18G27G20G10
  23357153.336 7 122742675.798 7        41.800                    95643664.72547
        28.600    23357156.91847
  21560982.461 8 113303742.054 8        46.600    21560987.402 9  88288648.55249
        38.800    21560986.90249  21560987.598 6  84609948.448 6        39.300
  21767197.039 9 114387453.249 9        48.100                    89133052.55049
        39.300    21767200.52749
  24716261.648 5 129884827.349 5        36.800    24716266.023 5 101208956.36445
        19.600    24716265.21945
  24566051.469 5 129095485.002 5        36.600    24566056.715 5 100593898.06547
        29.200    24566056.22747
  23900916.000 6 125600145.632 6        39.200    23900923.879 7  97870294.57449
        37.400    23900923.44949  23900918.785 2  93792339.757 2        31.400
  21851080.117 8 114828230.427 8        46.700    21851087.484 8  89476561.04949
        50.000    21851086.20749  21851082.422 6  85748357.945 6        38.400
  23730952.438 6 124707012.266 6        40.500    23730956.863 7  97174307.99346
        24.400    23730956.00446  23730957.957 3  93125365.90913        33.700
  20195298.352 9 106127035.638 9        50.900    20195304.676 9  82696422.64049
        56.100    20195303.94149  20195300.641 7  79250729.923 7        43.600
  21548724.500 8 113239317.438 8        46.200                    88238459.72849
        37.100    21548727.57849
  21012712.594 9 110422556.352 9        54.100    21012718.688 9  86043623.89349
        55.200    21012718.23049  21012713.883 7  82458376.649 7        41.700
 21  1  2  0  8 30.0000000  0 11G21G23G16G07G15G26G08G18G27G20G10
  23342920.727 7 122667883.413 7        42.300                    95585384.96247
        27.600    23342924.32447
  21569315.859 8 113347532.888 8        47.400    21569320.637 9  88322771.28749
        39.100    21569320.09049  21569320.672 6  84642649.402 6        39.200
  21783014.398 9 114470574.297 9        48.500                    89197822.19549
        39.000    21783017.87149
  24720953.242 6 129909481.357 6        38.000    24720956.996 5 101228167.26745
        19.600    24720956.93445
  24570393.469 5 129118297.170 5        35.900    24570397.582 5 100611673.86847
        29.800    24570396.82447
  23921878.742 6 125710305.007 6        39.300    23921885.992 6  97956133.04849
        36.900    23921885.91049  23921880.809 2  93874601.637 2        31.800
  21837140.797 8 114754978.180 8        47.300    21837148.129 8  89419481.39649
        50.000    21837146.76649  21837143.320 6  85693656.622 6        39.200
  23749116.094 6 124802465.508 6        39.600    23749121.102 7  97248687.12546
        24.700    23749120.81646  23749121.289 3  93196645.895 3        32.800
  20193716.586 9 106118722.790 9        50.700    20193722.926 9  82689945.09649
        56.000    20193722.02349  20193718.629 7  79244522.247 7        43.100
  21558494.820 8 113290661.468 8        46.800                    88278468.07649
        37.700    21558498.03549
  21008193.000 9 110398807.376 9        53.700    21008199.258 9  86025118.20849
        54.900    21008199.16849  21008194.465 7  82440642.034 7        41.700
 21  1  2  0  9  0.0000000  0 11G21G23G16G07G15G26G08G18G27G20G10
  23328726.344 7 122593288.752 7        42.900                    95527259.26747
        27.800    23328729.21947
  21577752.633 8 113391868.724 8        47.200    21577757.418 9  88357318.69749
        38.600    21577756.91849  21577757.688 6  84675757.335 6        39.400
  21798908.227 9 114554096.117 9        48.100                    89262904.12549
        38.900    21798911.57049
  24725734.414 5 129934604.674 5        37.900    24725738.535 5 101247743.83646
        22.000    24725737.49246
  24574844.117 5 129141684.870 5        36.500    24574847.426 5 100629898.06947
        29.700    24574847.89847
  23942859.938 6 125820561.714 6        38.600    23942867.676 7  98042047.35049
        36.000    23942867.02749  23942863.223 3  93956936.136 3        32.100
  21823245.477 9 114681958.531 9        48.200    21823252.844 9  89362582.98049
        50.100    21823251.60549  21823247.809 6  85639128.964 6        38.900
  23767292.664 6 124897983.065 6        40.100    23767297.215 7  97323116.38446
        24.900    23767296.69546  23767298.039 3  93267973.970 3        32.500
  20192214.461 9 106110829.415 9        51.200    20192220.770 9  82683794.40849
        56.200    20192219.89549  20192216.320 7  79238627.852 7        43.400
  21568357.961 8 113342494.262 8        47.300                    88318857.26649
        37.100    21568361.29349
  21003782.117 9 110375628.002 9        52.900    21003788.402 9  86007056.36249
        55.300    21003788.28949  21003783.328 7  82423332.779 7        41.100
 21  1  2  0  9 30.0000000  0 11G21G23G16G07G15G26G08G18G27G20G10
  23314568.258 7 122518891.831 7        42.500                    95469287.64847
        25.800    23314571.55547
  21586292.930 8 113436747.497 8        47.900    21586297.469 9  88392289.17349
        38.500    21586297.08249  21586298.074 6  84709270.699 6        39.500
  21814877.828 9 114638015.536 9        48.100                    89328295.88349
        39.400    21814880.77049
  24730603.766 5 129960195.755 5        37.300    24730607.996 5 101267684.87646
        20.900    24730607.48046
  24579404.625 6 129165647.834 6        38.000    24579407.813 5 100648570.51448
        30.700    24579407.53548
  23963859.000 6 125930912.900 6        39.200    23963866.918 7  98128035.25349
        37.200    23963866.78149  23963862.180 2  94039341.226 2        31.200
  21809394.664 8 114609172.243 8        46.700    21809402.133 8  89305866.40549
        50.100    21809401.01249  21809397.047 6  85584775.619 6        39.200
  23785480.734 6 124993563.488 6        39.600    23785486.320 7  97397594.60946
        24.400    23785485.21546  23785486.551 3  93339348.984 3        32.700
  20190792.453 9 106103355.983 9        50.900    20190798.406 9  82677970.96449
        55.400    20190797.95749  20190794.328 7  79233047.053 7        43.200
  21578314.469 8 113394813.639 8        46.700                    88359625.61749
        37.200    21578317.67249
  20999479.484 9 110353018.449 9        53.200    20999485.945 9  85989438.52749
        55.200    20999485.91049  20999480.602 6  82406449.025 6        40.900
 21  1  2  0 10  0.0000000  0 11G21G23G16G07G15G26G08G18G27G20G10
  23300448.648 7 122444693.275 7        41.500                    95411470.61747
        26.800    23300452.32047
  21594935.953 9 113482167.444 9        48.100    21594940.531 9  88427681.35149
        38.400    21594940.03149  21594940.910 6  84743188.217 6        39.200
  21830921.633 8 114722330.805 8        47.500                    89393996.09149
        39.000    21830925.27049
  24735563.047 6 129986253.069 6        38.000    24735566.660 5 101287989.25746
        20.100    24735566.41446
  24584072.898 5 129190185.248 5        37.100    24584077.047 5 100667690.62248
        30.700    24584076.89848
  23984875.664 6 126041356.197 6        40.200    23984883.125 6  98214094.97249
        37.200    23984882.77749  23984878.230 2  94121815.130 2        31.300
  21795589.125 8 114536621.489 8        46.700    21795596.047 8  89249333.37349
        50.300    21795594.94949  21795591.398 6  85530598.106 6        39.400
  23803680.930 6 125089205.518 6        39.500    23803686.098 7  97472120.85746
        23.900    23803685.76246  23803687.055 3  93410769.915 3        33.100
  20189449.891 9 106096303.294 9        50.800    20189456.363 9  82672475.36149
        56.600    20189455.86749  20189452.223 7  79227780.430 7        43.600
  21588362.602 8 113447617.825 8        46.400                    88400771.74549
        37.400    21588366.01649
  20995285.555 9 110330979.322 9        53.000    20995292.031 9  85972265.20149
        55.000    20995291.89549  20995286.953 6  82389991.245 6        40.900
 21  1  2  0 10 30.0000000  0 11G21G23G16G07G15G26G08G18G27G20G10
  23286367.594 7 122370693.447 7        42.600                    95353808.43147
        27.900    23286370.87947
  21603681.805 8 113528126.909 8        47.900    21603686.535 9  88463493.92749
        38.500    21603685.78149  21603687.059 6  84777508.582 6        39.000
  21847041.313 8 114807039.191 8        47.500                    89460002.62649
        38.300    21847044.92649
  24740609.500 6 130012775.235 6        38.900    24740613.914 5 101308655.85446
        21.100    24740613.43046
  24588852.086 5 129215296.597 5        37.700    24588855.664 5 100687257.91648
        30.200    24588855.65648
  24005909.008 6 126151889.182 6        39.900    24005917.246 6  98300224.56949
        37.100    24005916.61349  24005912.500 1  94204356.022 1        30.600
  21781828.227 8 114464307.690 8        47.800    21781835.016 8  89192984.97349
        50.300    21781834.01649  21781830.840 6  85476597.554 6        39.600
  23821892.352 6 125184908.053 6        38.300    23821897.914 7  97546694.21346
        22.200    23821897.02746  23821898.441 3  93482236.096 3        32.600
  20188188.336 9 106089672.171 9        50.500    20188194.680 9  82667308.25649
        55.700    20188194.10249  20188190.488 7  79222828.632 7        43.300
  21598502.109 8 113500904.838 8        46.100                    88442294.09149
        36.900    21598506.25449
  20991200.500 9 110309511.245 9        53.400    20991206.777 9  85955536.83749
        55.100    20991206.50049  20991201.902 7  82373959.888 7        41.400
 21  1  2  0 11  0.0000000  0 11G21G23G16G07G15G26G08G18G27G20G10
  23272323.734 7 122296892.345 7        41.800                    95296301.07947
        27.600    23272326.58647
  21612530.141 8 113574623.829 8        47.500    21612534.367 9  88499725.30349
        38.800    21612533.78549  21612534.922 6  84812230.339 6        39.200
  21863235.344 8 114892138.101 8        47.500                    89526313.45949
        38.600    21863238.75849
  24745745.578 6 130039760.411 6        39.600    24745749.105 4 101329683.26246
        20.900    24745748.28546
  24593738.789 5 129240981.072 5        37.600    24593743.383 5 100707271.85447
        29.200    24593743.11747
  24026960.063 6 126262509.145 6        40.400    24026967.398 6  98386421.93849
        37.300    24026966.83249  24026962.773 2  94286961.797 2        31.500
  21768112.602 8 114392232.432 8        47.200    21768119.613 8  89136822.44449
        50.500    21768118.43049  21768114.910 6  85422775.148 6        39.100
  23840115.008 6 125280669.737 6        39.700    23840120.445 7  97621313.69446
        23.300    23840120.20346  23840121.156 3  93553746.338 3        32.500
  20187006.930 9 106083463.162 9        51.400    20187013.094 9  82662470.07049
        56.100    20187012.52349  20187008.746 7  79218192.042 7        43.400
  21608734.438 8 113554672.831 8        46.400                    88484191.22149
        36.600    21608737.75849
  20987224.078 9 110288614.501 9        53.200    20987230.258 9  85939253.67149
        55.000    20987230.01649  20987225.457 7  82358355.205 7        41.000
 21  1  2  0 11 30.0000000  0 11G21G23G16G07G15G26G08G18G27G20G10
  23258317.273 7 122223290.543 7        42.700                    95238949.05247
        26.800    23258321.02747
  21621479.820 8 113621656.599 8        47.500    21621484.598 9  88536374.22049
        38.000    21621483.74649  21621484.559 6  84847352.206 6        38.900
  21879502.742 8 114977625.686 8        47.600                    89592927.15649
        38.100    21879506.44149
  24750968.031 5 130067207.182 5        36.900    24750971.656 5 101351070.34045
        19.900    24750971.43045
  24598735.977 5 129267238.160 5        37.600    24598739.746 5 100727731.96048
        30.500    24598739.63348
  24048026.500 6 126373213.838 6        39.500    24048033.508 6  98472685.33549
        36.900    24048033.19949  24048029.492 2  94369630.892 2        31.600
  21754442.641 9 114320397.560 9        48.500    21754450.086 9  89080847.23649
        50.700    21754449.00849  21754445.117 6  85369132.257 6        39.600
  23858349.453 7 125376489.440 7        41.000    23858354.363 7  97695978.39747
        25.600    23858353.62547  23858354.637 3  93625300.065 3        32.700
  20185905.578 9 106077677.175 9        50.800    20185911.988 9  82657961.50449
        55.600    20185911.55549  20185907.734 7  79213871.329 7        43.600
  21619057.195 8 113608919.782 8        46.500                    88526461.58349
        37.300    21619060.42649
  20983356.195 9 110268289.712 9        53.800    20983362.672 9  85923416.18749
        55.000    20983362.30549  20983357.629 7  82343177.615 7        41.400
 21  1  2  0 12  0.0000000  0 11G21G23G16G07G15G26G08G18G27G20G10
  23244349.594 7 122149888.062 7        42.700                    95181752.32347
        27.900    23244352.89847
  21630531.164 8 113669223.463 8        47.300    21630536.168 9  88573439.32049
        38.000    21630535.65249  21630536.324 6  84882872.946 6        39.100
  21895844.234 8 115063499.774 8        47.300                    89659842.02149
        38.500    21895847.64549
  24756279.023 6 130095114.070 6        38.000    24756282.422 4 101372815.93045
        18.600    24756281.79745
  24603840.539 5 129294066.871 5        37.100    24603844.434 5 100748637.46547
        29.800    24603844.55147
  24069107.711 6 126484000.817 6        38.900    24069115.965 6  98559012.83749
        36.200    24069114.91849  24069110.496 1  94452361.45611        30.600
  21740819.133 9 114248804.776 9        48.100    21740826.453 9  89025060.66549
        50.900    21740825.48849  21740821.660 6  85315670.119 6        39.200
  23876594.281 6 125472366.129 6        40.300    23876599.016 7  97770687.47746
        22.900    23876598.70346  23876599.824 3  93696896.235 3        33.100
  20184885.344 9 106072315.018 9        50.900    20184891.793 9  82653783.19349
        56.300    20184891.18049  20184887.469 7  79209867.118 7        42.800
  21629470.961 8 113663643.962 8        46.400                    88569103.81349
        36.900    21629473.91449
  20979597.539 9 110248537.477 9        53.900    20979603.746 9  85908024.84549
        55.000    20979603.55549  20979598.781 6  82328427.585 6        40.500
 21  1  2  0 12 30.0000000  0 11G21G23G16G07G15G26G08G18G27G20G10
  23230419.867 7 122076685.787 7        43.000                    95124711.60947
        27.900    23230423.06647
  21639684.398 8 113717322.331 8        47.500    21639689.215 9  88610918.96149
        38.800    21639688.77749  21639689.109 6  84918790.941 6        38.600
  21912258.844 8 115149757.028 8        47.500                    89727055.46749
        38.400    21912261.85949
  24761676.922 6 130123479.339 6        38.000    24761680.082 5 101394918.72345
        19.300    24761679.30545
  24609054.602 5 129321467.323 5        37.900    24609059.430 5 100769988.47747
        29.900    24609059.00047
  24090204.492 6 126594867.406 6        38.300    24090212.414 6  98645402.38249
        35.300    24090212.25049  24090207.891 1  94535151.413 1        30.700
  21727241.836 8 114177455.120 8        47.900    21727249.094 9  88969463.54349
        50.900    21727247.97349  21727243.828 6  85262389.565 6        39.400
  23894849.398 6 125568298.364 6        39.900    23894854.785 7  97845439.81546
        22.300    23894853.59046  23894855.215 3  93768533.944 3        32.600
  20183945.758 9 106067377.193 9        51.100    20183952.008 9  82649935.54449
        55.800    20183951.40649  20183947.754 7  79206179.797 7        43.600
  21639975.508 8 113718843.262 8        46.500                    88612116.24549
        36.100    21639978.46149
  20975947.734 9 110229357.965 9        53.600    20975954.160 9  85893079.78449
        55.000    20975953.81349  20975949.195 7  82314105.246 7        41.200
 21  1  2  0 13  0.0000000  0 11G21G23G16G07G15G26G08G18G27G20G10
  23216527.141 7 122003683.743 7        42.700                    95067826.89747
        27.900    23216532.05547
  21648938.383 8 113765951.471 8        47.300    21648943.102 9  88648811.81149
        38.000    21648942.11349  21648942.984 6  84955104.934 6        39.200
  21928745.695 9 115236395.891 9        48.300                    89794566.26949
        38.200    21928748.71149
  24767160.188 5 130152301.390 5        35.200    24767164.633 5 101417377.41045
        17.400    24767164.87145
  24614378.461 5 129349438.486 5        37.500    24614382.203 5 100791784.19748
        30.600    24614381.73848
  24111317.359 6 126705811.225 6        38.800    24111325.137 6  98731852.09749
        36.400    24111324.61749  24111320.340 2  94617999.009 2        31.300
  21713711.148 9 114106350.395 9        48.300    21713718.090 8  88914057.28249
        50.900    21713717.14849  21713712.996 6  85209291.883 6        39.100
  23913115.023 7 125664285.082 7        41.100    23913119.980 7  97920234.65346
        23.900    23913119.60246  23913120.340 2  93840212.294 2        31.400
  20183086.727 9 106062864.540 9        50.300    20183093.195 9  82646419.19349
        55.500    20183092.67249  20183089.074 7  79202809.954 7        43.400
  21650569.188 8 113774515.202 8        46.400                    88655496.98949
        36.700    21650572.68449
  20972407.297 9 110210751.707 9        53.700    20972413.363 9  85878581.41549
        55.000    20972413.27749  20972408.379 7  82300210.963 7        41.600
 21  1  2  0 13 30.0000000  0 11G21G23G16G07G15G26G08G18G27G20G10
  23202674.336 7 121930882.150 7        42.700                    95011098.41147
        29.100    23202677.97347
  21658292.602 8 113815109.034 8        47.300    21658297.188 9  88687116.41249
        38.100    21658296.47749  21658297.344 6  84991813.504 6        39.200
  21945304.078 8 115323413.863 8        47.600                    89862372.47949
        38.400    21945307.39549
  24772732.172 6 130181578.332 6        38.400    24772736.043 5 101440190.61146
        20.100    24772735.06346
  24619808.641 5 129377979.501 5        37.100    24619813.637 5 100814023.96647
        29.600    24619812.59847
  24132443.555 6 126816829.787 6        40.200    24132451.238 6  98818360.04849
        36.700    24132450.43849  24132446.523 2  94700902.516 2        31.500
  21700227.297 8 114035492.537 8        47.500    21700234.191 9  88858843.37949
        51.000    21700233.23049  21700229.340 6  85156378.584 6        39.200
  23931391.391 6 125760325.147 6        40.300    23931395.820 7  97995071.04246
        24.400    23931395.29346  23931396.277 2  93911930.472 2        31.500
  20182309.477 9 106058777.802 9        50.600    20182315.539 9  82643234.71049
        55.500    20182315.10549  20182311.402 7  79199758.145 7        43.200
  21661253.047 8 113830658.855 8        46.400                    88699245.28949
        36.400    21661256.24649
  20968975.555 9 110192719.145 9        53.700    20968981.828 9  85864530.07949
        55.000    20968981.66449  20968976.938 7  82286745.096 7        41.700
 21  1  2  0 14  0.0000000  0 11G21G23G16G07G15G26G08G18G27G20G10
  23188858.789 7 121858281.069 7        42.700                    94954526.16047
        29.700    23188862.09847
  21667747.125 9 113864793.005 9        48.000    21667751.781 9  88725831.19749
        38.600    21667751.33649  21667751.805 6  85028915.166 6        39.400
  21961935.063 8 115410808.267 8        47.000                    89930472.01449
        37.500    21961938.17249
  24778389.477 5 130211308.768 5        35.700    24778393.949 5 101463357.15445
        18.600    24778393.01645
  24625348.430 5 129407089.655 5        37.700    24625352.449 5 100836707.20947
        29.000    24625352.01247
  24153583.148 6 126927920.639 6        39.300    24153590.727 6  98904924.35349
        35.500    24153590.20749  24153586.242 1  94783859.95311        30.900
  21686790.906 9 113964883.169 9        48.700    21686797.750 8  88803823.10549
        50.900    21686796.65249  21686793.297 6  85103650.804 6        39.700
  23949676.180 6 125856417.286 6        38.300    23949681.699 7  98069947.99146
        22.600    23949681.01646  23949682.242 2  93983687.609 2        31.500
  20181612.883 9 106055117.581 9        50.600    20181619.023 9  82640382.58949
        55.500    20181618.55949  20181615.074 7  79197024.868 7        43.600
  21672026.141 8 113887271.833 8        46.300                    88743359.30349
        36.600    21672029.28549
  20965653.391 9 110175260.555 9        54.500    20965659.699 9  85850925.99149
        54.900    20965659.27749  20965654.934 6  82273707.848 6        40.900
 21  1  2  0 14 30.0000000  0 11G21G23G16G07G15G26G08G18G27G20G10
  23175081.281 7 121785881.157 7        43.100                    94898110.66147
        28.200    23175084.83247
  21677301.859 9 113915001.524 9        48.100    21677306.238 9  88764954.71949
        37.900    21677305.48049  21677306.313 6  85066408.528 6        38.600
  21978636.734 8 115498576.716 8        47.400                    89998862.99949
        38.000    21978640.06649
  24784132.133 5 130241490.859 5        36.000    24784137.004 4 101486875.62745
        18.600    24784136.44545
  24630996.430 5 129436768.174 5        37.500    24630999.336 4 100859833.34147
        29.300    24630999.50847
  24174737.266 6 127039081.229 6        40.400    24174744.230 6  98991542.99249
        37.300    24174743.82849  24174739.223 2  94866869.43912        31.300
  21673401.867 9 113894523.578 9        48.300    21673409.008 9  88748997.46449
        50.700    21673407.63349  21673404.043 6  85051109.572 6        39.800
  23967971.188 6 125952560.402 6        39.200    23967976.965 6  98144864.66546
        22.800    23967976.98846  23967978.453 3  94055482.709 3        32.200
  20180997.578 9 106051884.602 9        50.500    20181003.805 9  82637863.38849
        56.300    20181003.34049  20181000.082 7  79194610.651 7        43.600
  21682887.898 8 113944352.083 8        46.100                    88787837.42349
        36.100    21682891.27349
  20962440.352 9 110158376.305 9        54.100    20962446.473 9  85837769.43749
        55.100    20962446.33649  20962441.641 7  82261099.479 7        41.500
 21  1  2  0 15  0.0000000  0 11G21G23G16G07G15G26G08G18G27G20G10
  23161342.727 7 121713682.800 7        43.600                    94841852.22547
        29.200    23161345.99647
  21686955.313 8 113965732.580 8        47.300    21686959.930 9  88804485.41949
        38.100    21686959.14149  21686960.512 6  85104292.133 6        39.000
  21995409.438 8 115586716.512 8        47.600                    90067543.35749
        38.200    21995412.61349
  24789962.766 5 130272122.815 5        37.100    24789966.379 4 101510744.74445
        17.800    24789965.73445
  24636751.203 5 129467014.129 5        35.500    24636755.270 4 100883401.65147
        28.700    24636755.19947
  24195902.281 6 127150309.054 6        39.600    24195909.875 7  99078214.02949
        36.000    24195909.92649  24195905.316 2  94949929.204 2        31.000
  21660060.539 8 113824415.436 8        47.300    21660067.477 9  88694367.76049
        51.100    21660066.77749  21660062.578 6  84998756.112 6        39.800
  23986277.039 6 126048753.221 6        39.600    23986281.645 6  98219820.10146
        24.200    23986281.59846  23986282.773 2  94127314.994 2        31.700
  20180463.688 9 106049079.470 9        51.500    20180470.105 9  82635677.57349
        55.900    20180469.60249  20180466.109 7  79192515.896 7        43.700
  21693838.563 8 114001897.610 8        47.000                    88832678.09049
        36.200    21693841.71149
  20959336.836 9 110142066.633 9        53.900    20959342.816 9  85825060.62149
        55.300    20959342.93049  20959338.094 7  82248920.191 7        41.700
 21  1  2  0 15 30.0000000  0 11G21G23G16G07G15G26G08G18G27G20G10
  23147642.703 7 121641685.998 7        43.900                    94785750.84447
        28.600    23147645.32447
  21696708.266 8 114016984.264 8        47.100    21696712.848 9  88844421.79149
        38.500    21696712.14849  21696713.398 6  85142564.482 6        39.000
  22012251.875 8 115675225.343 8        47.100                    90136511.26849
        37.400    22012255.15649
  24795877.320 5 130303203.074 5        37.300    24795881.070 5 101534963.08045
        19.600    24795879.34845
  24642615.344 5 129497826.721 5        35.800    24642618.664 5 100907411.49547
        27.900    24642618.76247
  24217080.688 6 127261601.730 6        38.600    24217088.648 6  99164935.55749
        36.300    24217088.10549  24217084.273 2  95033037.33212        31.000
  21646767.664 9 113754560.164 9        48.700    21646774.586 9  88639935.09949
        51.300    21646773.81649  21646769.172 6  84946591.469 6        39.500
  24004591.063 6 126144994.635 6        39.000    24004596.211 6  98294813.40546
        23.600    24004595.21146  24004596.797 2  94199183.585 2        31.800
  20180011.602 9 106046702.833 9        51.100    20180017.977 9  82633825.64449
        55.600    20180017.33249  20180013.520 7  79190741.150 7        44.100
  21704877.078 8 114059906.179 8        46.500                    88877879.58949
        36.000    21704880.20749
  20956342.625 9 110126331.832 9        54.700    20956348.770 9  85812799.74349
        55.400    20956348.59849  20956343.582 6  82237170.218 6        40.900
 21  1  2  0 16  0.0000000  0 11G21G23G16G07G15G26G08G18G27G20G10
  23133979.797 7 121569891.464 7        43.300                    94729807.06947
        29.200    23133982.85947
  21706559.703 8 114068754.695 8        46.400    21706564.398 9  88884762.39649
        38.000    21706563.91849  21706564.836 6  85181224.221 6        38.800
  22029164.195 8 115764100.602 8        47.600                    90205764.71549
        37.300    22029167.29349
  24801876.422 5 130334729.927 5        37.800    24801879.727 5 101559529.42845
        19.300    24801879.48445
  24648585.414 5 129529205.081 5        35.800    24648590.375 5 100931862.18447
        27.500    24648589.49647
  24238270.906 6 127372956.834 6        39.200    24238278.387 6  99251705.75649
        35.900    24238277.91049  24238273.684 2  95116192.120 2        31.000
  21633523.094 9 113684959.972 9        48.100    21633529.855 9  88585701.19449
        51.300    21633529.02749  21633525.078 6  84894617.313 6        39.500
  24022913.750 6 126241283.702 6        38.700    24022919.516 7  98369843.81046
        22.600    24022919.13346  24022919.852 3  94271087.68513        32.400
  20179641.406 9 106044755.549 9        51.400    20179647.082 9  82632308.28349
        55.700    20179646.71149  20179642.945 7  79189286.995 7        43.800
  21716003.680 8 114118375.786 8        46.500                    88923440.31649
        36.200    21716006.82449
  20953457.953 9 110111172.330 9        54.000    20953463.805 9  85800987.15949
        55.200    20953463.53149  20953458.910 7  82225849.817 7        41.100
 21  1  2  0 16 30.0000000  0 11G21G23G16G07G15G26G08G18G27G20G10
  23120355.969 7 121498298.921 7        42.300                    94674020.70947
        28.300    23120359.09447
  21716509.609 8 114121041.903 8        47.100    21716514.461 9  88925505.68449
        38.100    21716513.80949  21716514.406 6  85220269.878 6        39.200
  22046145.883 8 115853340.394 8        46.800                    90275302.20649
        37.000    22046149.12949
  24807959.758 5 130366701.734 5        36.600    24807963.789 5 101584442.45045
        19.300    24807963.40245
  24654665.102 5 129561148.396 5        36.100    24654668.793 4 100956753.13647
        28.700    24654667.23447
  24259472.445 6 127484371.898 6        39.300    24259479.648 6  99338522.68349
        34.600    24259479.26249  24259475.445 1  95199391.651 1        30.500
  21620327.469 9 113615616.330 9        48.200    21620334.234 9  88531667.20149
        51.200    21620333.12949  21620329.629 6  84842834.751 6        40.400
  24041246.555 6 126337619.141 6        38.300    24041251.664 7  98444910.36046
        22.800    24041251.23446  24041252.078 2  94343026.492 2        31.900
  20179352.266 9 106043238.249 9        52.000    20179358.527 9  82631125.96949
        56.300    20179357.95349  20179354.512 7  79188153.939 7        43.300
  21727217.875 8 114177305.230 8        47.300                    88969359.36349
        36.200    21727220.62949
  20950682.750 9 110096588.371 9        53.800    20950688.684 9  85789623.04349
        55.000    20950688.31649  20950683.617 7  82214959.227 7        41.600
 21  1  2  0 17  0.0000000  0 11G21G23G16G07G15G26G08G18G27G20G10
  23106771.125 7 121426908.830 7        43.300                    94618392.09147
        28.500    23106774.16847
  21726557.484 8 114173844.152 8        47.300    21726561.898 8  88966650.28449
        38.000    21726561.80949  21726562.043 6  85259700.129 6        38.300
  22063196.734 8 115942941.960 8        47.400                    90345121.60749
        38.100    22063199.83649
  24814128.453 5 130399116.673 5        37.000    24814133.125 5 101609700.80445
        19.600    24814132.64845
  24660851.523 5 129593656.193 5        37.900    24660854.629 5 100982083.91248
        30.200    24660854.63748
  24280685.297 6 127595844.652 6        39.100    24280693.078 6  99425384.56749
        35.000    24280692.12149  24280688.281 1  95282634.294 1        30.000
  21607180.922 9 113546530.833 9        48.200    21607188.250 9  88477834.35449
        51.400    21607186.77749  21607183.188 6  84791244.920 6        39.400
  24059587.102 6 126434000.146 6        39.000    24059592.398 7  98520012.45946
        24.000    24059591.53546  24059592.703 3  94414999.309 3        32.400
  20179145.375 9 106042151.786 9        50.900    20179151.762 9  82630279.37249
        55.700    20179151.30549  20179147.629 7  79187342.628 7        43.500
  21738518.695 8 114236691.853 8        46.200                    89015634.65449
        36.200    21738521.57049
  20948016.883 9 110082580.404 9        54.100    20948023.113 9  85778707.76649
        55.200    20948022.87949  20948018.336 7  82204498.726 7        41.300
 21  1  2  0 17 30.0000000  0 11G21G23G16G07G15G26G08G18G27G20G10
  23093224.883 7 121355721.571 7        44.100                    94562921.51947
        29.100    23093227.71547
  21736702.828 8 114227158.746 8        46.700    21736707.605 9  89008194.14049
        38.600    21736706.89149  21736707.809 6  85299512.973 6        38.600
  22080315.555 9 116032902.290 9        48.100                    90415220.56249
        37.900    22080319.16849
  24820380.898 5 130431972.643 5        37.000    24820385.434 5 101635302.81345
        18.600    24820384.41445
  24667143.977 6 129626726.610 6        38.200    24667148.391 4 101007853.08048
        31.200    24667146.97748
  24301908.828 6 127707372.052 6        40.600    24301916.184 7  99512289.01749
        36.400    24301915.50449  24301911.148 1  95365917.70311        30.100
  21594083.680 8 113477704.838 8        47.900    21594090.805 9  88424203.71949
        51.500    21594089.58249  21594086.469 6  84739848.903 6        40.100
  24077936.352 6 126530424.896 6        39.600    24077941.273 7  98595148.63446
        23.300    24077940.63746  24077941.469 2  94487004.821 2        31.400
  20179020.953 9 106041496.177 9        50.900    20179027.074 9  82629768.50649
        55.700    20179026.52049  20179022.949 7  79186853.054 7        43.300
  21749906.227 8 114296533.367 8        46.700                    89062264.40749
        35.900    21749908.89849
  20945460.969 9 110069147.984 9        53.400    20945466.977 9  85768240.96149
        55.300    20945466.85549  20945462.348 7  82194468.040 7        41.700
 21  1  2  0 18  0.0000000  0 11G21G23G16G07G15G26G08G18G27G20G10
  23079717.266 7 121284737.353 7        44.100                    94507609.18247
        29.200    23079719.86747
  21746946.133 8 114280983.933 8        46.800    21746950.371 8  89050135.84249
        37.900    21746949.73049  21746950.348 6  85339707.141 6        39.000
  22097502.398 8 116123219.316 8        47.500                    90485597.45249
        38.000    22097505.91849
  24826717.273 6 130465267.838 6        38.300    24826721.031 5 101661247.16045
        19.300    24826720.44545
  24673544.375 5 129660359.286 5        37.800    24673547.574 4 101034060.33948
        30.400    24673547.23848
  24323141.156 6 127818951.774 6        38.700    24323147.965 6  99599234.27049
