     2.11           OBSERVATION DATA    G (GPS)             RINEX VERSION / TYPE
teqc  2019Feb12                         20210105 00:30:18UTCPGM / RUN BY / DATE
ZIMM                                                        MARKER NAME
14001M004                                                   MARKER NUMBER
TRIMBLE NETR9       SWISSTOPO                               OBSERVER / AGENCY
5429R49141          TRIMBLE NETR9       5.45                REC # / TYPE / VERS
99390               TRM29659.00     NONE                    ANT # / TYPE
  4331297.3480   567555.6390  4633133.7280                  APPROX POSITION XYZ
        0.0000        0.0000        0.0000                  ANTENNA: DELTA H/E/N
     1     1                                                WAVELENGTH FACT L1/2
    10    C1    L1    S1    C2    L2    S2    P2    C5    L5# / TYPES OF OBSERV
          S5                                                # / TYPES OF OBSERV
    30.0000                                                 INTERVAL
Linux 2.4.21-27.ELsmp|Opteron|gcc -static|Linux 64|=+       COMMENT
     2.11           OBSERVATION DATA    M (MIXED)           COMMENT
NetR9 5.45          Receiver Operator   20210104 000000 UTC COMMENT
L2C CARRIER PHASE MEASUREMENTS: PHASE SHIFTS REMOVED        COMMENT
L2C PHASE MATCHES L2 P PHASE                                COMMENT
GLONASS C/A & P PHASE MATCH: PHASE SHIFTS REMOVED           COMMENT
Forced Modulo Decimation to 30 seconds                      COMMENT
teqc edited: all GLONASS satellites excluded                COMMENT
teqc edited: all Galileo satellites excluded                COMMENT
  2021     1     4     0     0    0.0000000     GPS         TIME OF FIRST OBS
                                                            END OF HEADER
 21  1  4  0  0  0.0000000  0 11G21G23G16G07G15G26G08G18G10G27G20
  23355677.688 7 122734922.335 7        42.800                    95637617.99347
        27.600    23355680.80147
  21565390.852 8 113326913.847 8        47.000    21565395.430 9  88306705.98649
        38.900    21565395.15249  21565395.652 6  84627274.800 6        39.700
  21775329.742 8 114430117.021 8        47.300                    89166356.59949
        38.800    21775333.25449
  24716518.805 5 129886177.605 5        35.900    24716523.641 5 101210010.66345
        18.600    24716523.19945
  24562888.563 5 129078853.388 5        36.400    24562892.961 5 100580946.12147
        29.600    24562892.64547
  23904498.859 6 125618991.012 6        39.800    23904506.375 7  97884961.17549
        36.900    23904506.12549  23904501.590 2  93806447.040 2        31.300
  21852650.969 8 114836467.729 8        46.600    21852657.750 8  89483000.44049
        49.900    21852656.36349  21852652.840 6  85754555.391 6        39.100
  23735160.336 6 124729127.238 6        40.000    23735164.328 7  97191547.20346
        24.700    23735163.08246  23735165.074 3  93141890.305 3        33.700
  21011806.750 9 110417802.255 9        53.200    21011812.656 9  86039875.75949
        55.200    21011812.35949  21011807.930 7  82454849.110 7        41.100
  20195035.719 9 106125662.004 9        50.600    20195042.035 9  82695345.80349
        55.600    20195041.05149  20195037.672 7  79249744.900 7        43.300
  21552831.344 8 113260907.885 8        46.300                    88255272.41449
        37.100    21552834.30149
 21  1  4  0  0 30.0000000  0 11G21G23G16G07G15G26G08G18G10G27G20
  23341450.242 7 122660156.945 7        42.500                    95579359.26247
        27.700    23341453.55547
  21573770.242 8 113370947.729 8        47.000    21573774.828 9  88341018.11249
        38.800    21573774.30149  21573775.023 6  84660157.247 6        38.900
  21791185.992 8 114513442.425 8        47.500                    89231285.46049
        38.700    21791189.59449
  24721263.422 6 129911102.282 6        38.400    24721267.086 5 101229432.48446
        21.700    24721266.28146
  24567235.758 5 129101697.242 5        36.300    24567239.883 5 100598746.55547
        29.300    24567238.82047
  23925461.383 6 125729154.409 6        38.700    23925469.699 6  97970802.76649
        36.100    23925469.28549  23925464.789 2  93888711.864 2        31.500
  21838704.445 8 114763179.512 8        46.700    21838711.594 8  89425892.74249
        49.900    21838710.23449  21838706.988 6  85699827.196 6        38.400
  23753324.820 6 124824585.880 6        39.200    23753329.289 7  97265930.54446
        24.400    23753328.60246  23753330.145 3  93213174.301 3        33.300
  21007326.063 9 110394256.765 9        53.000    21007332.082 9  86021528.63649
        55.000    21007331.90649  21007327.215 7  82437266.435 7        41.000
  20193481.797 9 106117496.040 9        50.500    20193487.844 9  82688982.70749
        55.400    20193487.12949  20193483.770 7  79243646.929 7        43.400
  21562637.055 8 113312436.953 8        46.600                    88295424.94249
        37.500    21562639.87549
 21  1  4  0  1  0.0000000  0 11G21G23G16G07G15G26G08G18G10G27G20
  23327260.273 7 122585588.992 7        42.200                    95521254.38947
        29.100    23327263.43047
  21582253.266 8 113415525.468 8        47.200    21582257.504 9  88375754.00849
        38.700    21582257.17249  21582258.070 6  84693445.813 6        39.700
  21807118.609 9 114597166.780 9        48.200                    89296525.20649
        38.500    21807121.68049
  24726094.648 5 129936495.402 5        37.000    24726099.230 5 101249219.30046
        20.900    24726097.94946
  24571691.672 5 129125116.712 5        35.400    24571696.176 5 100616995.49147
        28.300    24571695.04347
  23946443.938 6 125839414.262 6        39.000    23946451.762 7  98056719.52649
        36.500    23946451.41849  23946447.383 3  93971048.738 3        32.000
  21824802.508 8 114690123.631 8        46.800    21824809.488 8  89368966.07549
        50.100    21824808.19149  21824804.543 6  85645272.479 6        39.000
  23771501.703 6 124920108.266 6        39.400    23771506.855 7  97340363.54647
        25.500    23771506.24647  23771507.379 3  93284505.944 3        32.700
  21002953.648 9 110371280.655 9        52.300    21002959.828 9  86003625.17449
        55.500    21002959.82849  21002954.633 7  82420108.961 7        41.100
  20192007.695 9 106109749.459 9        50.900    20192013.852 9  82682946.40649
        55.600    20192013.12949  20192009.602 7  79237862.163 7        43.400
  21572535.367 8 113364453.656 8        47.100                    88335957.44049
        37.300    21572538.42649
 21  1  4  0  1 30.0000000  0 11G21G23G16G07G15G26G08G18G10G27G20
  23313107.352 7 122511219.117 7        41.800                    95463303.88747
        27.600    23313110.91847
  21590839.195 8 113460645.610 8        46.600    21590843.531 9  88410912.57049
        38.200    21590843.10249  21590844.215 6  84727139.439 6        39.800
  21823126.063 9 114681288.190 9        48.100                    89362074.34649
        38.700    21823129.34449
  24731015.203 5 129962355.705 5        37.000    24731020.359 5 101269370.20746
        21.500    24731019.07846
  24576257.023 5 129149111.474 5        35.500    24576262.313 5 100635692.72947
        28.900    24576262.03547
  23967443.320 6 125949768.427 6        39.200    23967451.535 7  98142709.75749
        36.800    23967451.27349  23967446.848 2  94053456.038 2        31.900
  21810944.852 8 114617301.971 8        46.800    21810952.078 9  89312221.92449
        50.000    21810950.85549  21810947.098 6  85590892.680 6        39.200
  23789691.688 6 125015693.459 6        39.900    23789696.102 7  97414845.49747
        26.400    23789695.61747  23789696.496 3  93355884.490 3        32.700
  20998690.055 9 110348874.816 9        52.900    20998696.199 9  85986166.09149
        55.300    20998696.15249  20998690.961 6  82403377.313 6        40.900
  20190613.680 9 106102423.408 9        50.500    20190619.805 9  82677237.79549
        55.200    20190619.15649  20190615.586 7  79232391.385 7        44.000
  21582526.516 8 113416956.128 8        46.500                    88376868.45849
        36.900    21582529.23449
 21  1  4  0  2  0.0000000  0 11G21G23G16G07G15G26G08G18G10G27G20
  23298993.531 7 122437047.433 7        43.200                    95405507.77847
        27.700    23298996.66047
  21599528.242 8 113506306.105 8        47.300    21599532.793 9  88446492.17849
        38.400    21599531.92249  21599532.996 6  84761236.563 6        39.500
  21839209.117 8 114765804.023 8        47.500                    89427930.82049
        38.500    21839212.00449
  24736025.883 6 129988681.105 6        38.900    24736030.184 5 101289883.47746
        22.300    24736029.27346
  24580934.094 5 129173680.871 5        37.100    24580937.535 5 100654837.70548
        30.500    24580937.45348
  23988461.727 6 126060214.112 6        39.900    23988468.262 6  98228771.33249
        36.900    23988467.86749  23988463.602 2  94135931.720 2        31.100
  21797132.281 8 114544715.606 8        47.000    21797139.285 9  89255661.13049
        50.200    21797138.16049  21797134.301 6  85536688.562 6        39.700
  23807892.820 6 125111340.031 6        39.700    23807897.254 7  97489375.28847
        26.000    23807896.79347  23807898.207 3  93427308.862 3        32.800
  20994534.992 9 110327039.463 9        52.900    20994541.086 9  85969151.54149
        55.400    20994540.88749  20994536.000 6  82387071.729 6        40.900
  20189299.570 9 106095518.258 9        50.600    20189305.781 9  82671857.15349
        55.400    20189305.14849  20189301.406 7  79227234.942 7        43.300
  21592609.352 8 113469942.602 8        46.200                    88418156.61849
        37.200    21592612.43449
 21  1  4  0  2 30.0000000  0 11G21G23G16G07G15G26G08G18G10G27G20
  23284916.797 7 122363074.182 7        42.900                    95347866.31247
        27.700    23284920.41847
  21608319.828 8 113552505.006 8        47.400    21608324.039 9  88482491.33049
        38.700    21608323.56649  21608324.461 6  84795735.748 6        39.100
  21855366.344 8 114850711.415 8        47.500                    89494092.41549
        38.500    21855369.77349
  24741123.430 6 130015470.239 6        39.200    24741127.180 5 101310758.08446
        22.000    24741127.31346
  24585718.266 6 129198823.989 6        38.100    24585722.152 5 100674429.77248
        30.400    24585721.83248
  24009495.258 6 126170748.681 6        40.400    24009502.617 7  98314902.18249
        37.200    24009502.16049  24009497.895 1  94218473.796 1        30.600
  21783364.344 8 114472366.068 8        47.400    21783371.418 9  89199284.88549
        50.300    21783370.53549  21783366.941 6  85482661.357 6        39.300
  23826104.438 6 125207046.572 6        39.100    23826109.270 7  97563951.77546
        24.300    23826109.00446  23826110.289 3  93498777.97413        32.600
  20990488.430 9 110305774.984 9        53.100    20990494.438 9  85952581.82049
        55.100    20990494.20349  20990489.746 7  82371192.423 7        41.300
  20188065.789 9 106089034.692 9        50.800    20188071.906 9  82666805.02049
        55.000    20188071.46549  20188067.734 7  79222393.325 7        43.100
  21602784.102 8 113523411.359 8        46.100                    88459820.59849
        36.700    21602787.14549
 21  1  4  0  3  0.0000000  0 11G21G23G16G07G15G26G08G18G10G27G20
  23270877.844 7 122289299.466 7        41.700                    95290379.56147
        27.200    23270880.50047
  21617212.898 8 113599240.461 8        47.200    21617217.391 9  88518908.56749
        38.100    21617216.78149  21617217.793 6  84830635.605 6        39.400
  21871597.961 8 114936008.102 8        47.500                    89560557.34849
        37.600    21871601.16049
  24746309.320 6 130042721.406 6        38.400    24746312.887 4 101331992.75845
        19.900    24746312.12545
  24590611.508 6 129224540.302 6        38.100    24590616.090 5 100694468.42648
        30.900    24590615.39548
  24030546.047 6 126281369.635 6        39.900    24030553.039 6  98401100.32349
        37.300    24030552.49649  24030548.039 1  94301080.330 1        30.500
  21769642.250 8 114400255.033 8        47.100    21769649.570 8  89143094.46349
        50.500    21769648.10949  21769644.637 6  85428812.175 6        39.200
  23844328.086 6 125302811.877 6        40.000    23844332.633 7  97638574.06146
        23.000    23844332.41046  23844333.242 3  93570291.053 3        32.800
  20986550.703 9 110285081.837 9        53.200    20986556.863 9  85936457.28949
        55.100    20986556.58249  20986551.707 7  82355739.745 7        41.700
  20186912.125 9 106082973.400 9        51.400    20186918.555 9  82662081.93449
        56.000    20186918.09049  20186914.434 7  79217867.027 7        43.200
  21613050.117 8 113577360.043 8        46.000                    88501858.52949
        37.100    21613053.21949
 21  1  4  0  3 30.0000000  0 11G21G23G16G07G15G26G08G18G10G27G20
  23256876.555 7 122215724.145 7        41.900                    95233048.20147
        26.000    23256880.07047
  21626208.617 8 113646511.074 8        47.300    21626212.738 9  88555742.81849
        38.000    21626212.16849  21626212.660 6  84865935.088 6        38.700
  21887903.109 8 115021692.448 8        47.200                    89627324.35149
        38.300    21887906.14149
  24751581.789 5 130070433.623 5        37.700    24751586.238 4 101353586.65645
        19.300    24751585.73845
  24595615.492 6 129250829.571 6        38.400    24595618.953 5 100714953.57048
        30.800    24595618.17648
  24051611.906 6 126392074.937 6        38.800    24051619.473 7  98487364.19549
        36.200    24051618.84449  24051615.164 1  94383749.89711        30.700
  21755965.703 9 114328384.543 9        48.200    21755972.656 9  89087091.48549
        50.700    21755971.62549  21755967.926 6  85375142.669 6        39.500
  23862563.570 6 125398635.119 6        40.700    23862567.703 7  97713241.51447
        25.800    23862566.92647  23862568.191 3  93641847.291 3        32.800
  20982722.070 9 110264960.935 9        53.100    20982727.836 9  85920778.67949
        55.000    20982727.68849  20982722.551 6  82340714.417 6        40.900
  20185839.367 9 106077335.543 9        51.000    20185845.664 9  82657688.79549
        56.200    20185845.28949  20185841.852 7  79213656.940 7        43.600
  21623407.266 8 113631786.899 8        46.800                    88544269.06749
        37.600    21623410.21149
 21  1  4  0  4  0.0000000  0 11G21G23G16G07G15G26G08G18G10G27G20
  23242913.914 7 122142348.994 7        42.200                    95175872.80647
        28.800    23242917.34447
  21635305.188 8 113694315.319 8        47.500    21635309.656 9  88592992.87549
        38.300    21635309.09849  21635309.852 6  84901633.080 6        38.800
  21904281.547 8 115107761.887 8        47.400                    89694391.43449
        38.000    21904284.54749
  24756943.672 6 130098605.507 6        38.000    24756947.027 4 101375538.74245
        19.900    24756947.62545
  24600726.664 5 129277691.584 5        37.900    24600730.320 5 100735885.00648
        30.500    24600729.57848
  24072693.555 6 126502862.425 6        38.200    24072701.434 6  98573692.09549
        34.800    24072701.10949  24072697.168 1  94466480.831 1        30.000
  21742335.453 9 114256756.256 9        48.100    21742342.715 9  89031277.23949
        50.800    21742341.40249  21742337.652 6  85321654.026 6        39.900
  23880808.438 6 125494515.431 6        40.500    23880813.324 7  97787953.42547
        26.000    23880812.68047  23880813.328 3  93713446.271 3        32.500
  20979001.898 9 110245412.986 9        53.000    20979007.910 9  85905546.51549
        55.200    20979007.70749  20979002.762 7  82326116.930 7        41.100
  20184847.406 9 106072122.145 9        50.800    20184853.656 9  82653626.40849
        55.200    20184853.02749  20184849.473 7  79209763.829 7        43.200
  21633854.945 8 113686690.465 8        46.400                    88587051.07549
        36.400    21633857.82849
 21  1  4  0  4 30.0000000  0 11G21G23G16G07G15G26G08G18G10G27G20
  23228988.734 7 122069173.374 7        43.000                    95118852.87547
        29.300    23228992.66847
  21644503.414 9 113742650.213 9        48.200    21644507.633 9  88630656.44049
        38.400    21644507.03149  21644507.547 6  84937727.338 6        39.200
  21920732.859 8 115194212.914 8        47.800                    89761755.86349
        37.900    21920735.59849
  24762390.898 5 130127234.346 5        36.800    24762396.258 5 101397846.92045
        18.300    24762395.52745
  24605946.227 5 129305124.509 5        35.900    24605950.281 5 100757261.34247
        28.900    24605949.88747
  24093790.758 6 126613728.495 6        38.300    24093798.461 6  98660081.25849
        34.900    24093797.97349  24093793.844 1  94549270.45011        30.400
  21728751.469 9 114185370.656 9        48.000    21728757.977 8  88975652.10149
        50.800    21728757.02049  21728753.082 6  85268346.573 6        39.200
  23899064.656 6 125590450.601 6        40.700    23899068.742 7  97862708.08146
        24.300    23899068.14146  23899069.320 2  93785086.094 2        31.700
  20975390.680 9 110226437.404 9        53.400    20975397.082 9  85890760.35149
        55.100    20975396.74249  20975392.074 7  82311946.839 7        41.700
  20183936.172 9 106067332.855 9        50.700    20183942.234 9  82649894.49549
        55.300    20183941.69949  20183937.969 7  79206187.415 7        43.000
  21644393.078 8 113742068.043 8        46.200                    88630202.43549
        36.700    21644396.24249
 21  1  4  0  5  0.0000000  0 11G21G23G16G07G15G26G08G18G10G27G20
  23215101.922 7 121996197.889 7        43.400                    95061988.90547
        28.300    23215106.04347
  21653802.055 8 113791514.571 8        47.200    21653806.125 9  88668732.56649
        38.100    21653805.53549  21653806.117 6  84974216.948 6        39.400
  21937256.336 8 115281044.242 8        47.300                    89829416.63149
        38.200    21937259.08649
  24767926.875 6 130156318.974 6        38.500    24767930.098 5 101420510.20846
        20.100    24767929.45746
  24611274.727 5 129333128.121 5        36.200    24611279.613 3 100779082.36147
        28.000    24611278.82447
  24114902.625 6 126724671.311 6        38.900    24114910.320 6  98746530.16949
        36.000    24114910.21949  24114906.480 2  94632117.288 2        31.500
  21715213.430 9 114114230.412 9        48.500    21715220.605 9  88920218.15549
        50.700    21715219.52049  21715215.594 6  85215222.392 6        38.700
  23917330.367 6 125686439.980 6        40.400    23917334.652 7  97937504.98147
        25.800    23917334.15647  23917334.918 2  93856766.444 2        31.700
  20971889.141 9 110208035.122 9        53.400    20971895.043 9  85876420.92549
        55.000    20971894.93449  20971890.371 7  82298204.900 7        41.200
  20183105.742 9 106062968.960 9        50.400    20183111.875 9  82646494.05249
        55.600    20183111.30949  20183107.688 7  79202928.644 7        43.700
  21655020.844 8 113797918.167 8        46.100                    88673722.01249
        36.000    21655024.29349
 21  1  4  0  5 30.0000000  0 11G21G23G16G07G15G26G08G18G10G27G20
  23201253.641 7 121923422.906 7        42.800                    95005281.15847
        29.500    23201257.20347
  21663200.852 8 113840906.534 8        47.000    21663204.941 9  88707219.81449
        38.500    21663204.32049  21663204.914 6  85011100.563 6        38.800
  21953851.484 8 115368253.348 8        46.600                    89897371.76749
        37.700    21953854.49249
  24773546.398 5 130185857.970 5        36.500    24773551.449 5 101443527.62946
        20.100    24773551.00046
  24616711.938 5 129361701.694 5        37.100    24616715.852 4 100801347.49347
        28.700    24616716.01247
  24136029.453 6 126835688.439 6        40.100    24136036.613 6  98833037.03049
        37.400    24136035.87549  24136031.605 1  94715019.679 1        30.700
  21701723.164 9 114043336.546 9        49.100    21701730.031 9  88864976.17949
        50.900    21701728.95749  21701725.082 6  85162282.162 6        39.600
  23935607.117 6 125782482.542 6        39.400    23935611.668 7  98012343.32647
        25.800    23935611.35247  23935611.504 2  93928486.51112        31.400
  20968496.477 9 110190206.695 9        53.300    20968502.695 9  85862528.64649
        55.200    20968502.15649  20968497.465 7  82284891.478 7        41.600
  20182356.438 9 106059031.291 9        50.000    20182362.633 9  82643425.73549
        56.300    20182362.00849  20182358.328 7  79199988.171 7        43.500
  21665738.492 8 113854238.418 8        46.700                    88717607.92049
        37.100    21665741.57849
 21  1  4  0  6  0.0000000  0 11G21G23G16G07G15G26G08G18G10G27G20
  23187443.883 7 121850848.510 7        43.500                    94948729.72247
        29.200    23187446.71947
  21672699.734 8 113890823.803 8        47.100    21672703.969 9  88746116.38849
        38.500    21672703.46149  21672704.211 6  85048376.447 6        38.700
  21970518.164 8 115455837.192 8        47.200                    89965618.90849
        37.600    21970521.18849
  24779254.891 5 130215849.092 5        37.100    24779258.754 5 101466897.29345
        18.600    24779257.98845
  24622258.742 6 129390844.318 6        38.000    24622261.891 4 100824056.00047
        29.700    24622261.73447
  24157167.477 6 126946777.029 6        38.700    24157175.902 6  98919599.58149
        35.700    24157175.36349  24157171.238 1  94797975.423 1        30.500
  21688279.453 9 113972691.002 9        48.400    21688286.383 9  88809927.70849
        50.800    21688285.41849  21688282.086 6  85109527.372 6        39.400
  23953892.750 6 125878576.678 6        38.600    23953897.801 7  98087221.83846
        23.000    23953896.88346  23953898.641 3  94000245.154 3        33.300
  20965212.867 9 110172952.021 9        54.000    20965219.199 9  85849083.44949
        54.900    20965218.71549  20965214.277 7  82272006.479 7        41.100
  20181688.234 9 106055520.115 9        50.300    20181694.316 9  82640689.75649
        55.800    20181693.90649  20181690.402 7  79197366.181 7        43.500
  21676545.047 8 113911027.223 8        46.200                    88761858.93449
        36.700    21676547.97349
 21  1  4  0  6 30.0000000  0 11G21G23G16G07G15G26G08G18G10G27G20
  23173671.031 7 121778475.572 7        42.600                    94892335.25047
        29.400    23173674.59047
  21682298.234 8 113941265.168 8        47.700    21682302.742 8  88785421.33649
        38.300    21682301.77749  21682302.688 6  85086043.691 6        39.200
  21987255.594 8 115543793.962 8        47.000                    90034156.64449
        37.500    21987259.05549
  24785047.742 5 130246291.428 5        37.700    24785051.137 4 101490618.57945
        18.300    24785051.16445
  24627913.250 6 129420555.843 6        38.700    24627915.355 4 100847207.81448
        30.000    24627915.47748
  24178321.625 6 127057935.384 6        40.300    24178328.691 6  99006216.47749
        36.800    24178328.07849  24178323.480 2  94880983.293 2        31.000
  21674883.703 8 113902295.746 8        47.700    21674890.563 9  88755074.26349
        50.800    21674889.64149  21674885.703 6  85056959.495 6        39.300
  23972188.680 6 125974721.988 6        39.200    23972193.484 7  98162140.22946
        22.900    23972192.82046  23972194.434 3  94072041.900 3        32.800
  20962039.359 9 110156272.147 9        53.700    20962045.059 9  85836086.15449
        55.400    20962044.82449  20962039.977 6  82259550.769 6        40.900
  20181101.516 9 106052436.832 9        50.700    20181107.578 9  82638287.19549
        55.200    20181107.14549  20181103.387 7  79195063.744 7        43.800
  21687440.188 8 113968282.698 8        46.100                    88806473.59349
        36.000    21687443.17649
 21  1  4  0  7  0.0000000  0 11G21G23G16G07G15G26G08G18G10G27G20
  23159937.625 7 121706304.250 7        42.600                    94836097.89047
        28.900    23159940.63747
  21691996.305 8 113992228.371 8        47.200    21692000.773 9  88825132.93149
        37.500    21691999.84449  21692000.734 6  85124100.627 6        39.000
  22004063.602 8 115632121.133 8        47.200                    90102983.00549
        37.400    22004067.07049
  24790925.883 5 130277182.961 5        36.700    24790928.895 3 101514689.90945
        17.800    24790928.16845
  24633673.906 5 129450835.119 5        37.500    24633678.211 5 100870802.04048
        30.500    24633678.02048
  24199486.063 6 127169160.560 6        38.700    24199494.371 6  99092885.46349
        35.300    24199493.93049  24199489.168 1  94964041.080 1        30.900
  21661535.836 8 113832152.218 8        47.600    21661543.105 8  88700416.98149
        50.800    21661541.76649  21661537.738 6  85004579.605 6        39.200
  23990494.898 6 126070916.940 6        40.000    23990498.535 6  98237097.33546
        22.900    23990497.84846  23990499.672 3  94143875.804 3        32.100
  20958974.461 9 110140167.069 9        53.500    20958980.199 9  85823536.74849
        55.300    20958980.19149  20958975.363 7  82247524.224 7        41.300
  20180596.234 9 106049781.819 9        50.500    20180602.414 9  82636218.35049
        55.300    20180601.84849  20180598.219 7  79193081.097 7        43.600
  21698424.352 8 114026002.602 8        46.700                    88851450.13249
        36.300    21698426.85249
 21  1  4  0  7 30.0000000  0 11G21G23G16G07G15G26G08G18G10G27G20
  23146241.906 7 121634334.142 7        43.700                    94780017.32247
        29.200    23146245.19147
  21701792.789 8 114043710.841 8        46.400    21701797.457 9  88865249.15349
        38.400    21701796.87949  21701797.449 6  85162545.337 6        39.200
  22020941.734 8 115720815.844 8        47.000                    90172095.74249
        36.900    22020944.95349
  24796889.188 6 130308521.627 6        38.100    24796893.676 4 101539109.63945
        19.300    24796892.57045
  24639544.102 5 129481680.853 5        35.800    24639547.535 5 100894837.66447
        29.700    24639547.52047
  24220664.234 6 127280449.645 6        39.200    24220671.543 6  99179604.22149
        35.400    24220671.12949  24220667.059 2  95047146.53312        31.400
  21648236.281 8 113762261.620 8        47.800    21648243.008 9  88645956.79249
        51.000    21648242.35949  21648238.047 6  84952388.593 6        39.900
  24008807.992 6 126167159.806 6        39.200    24008812.691 7  98312091.79446
        23.300    24008812.44146  24008813.238 2  94215745.466 2        31.900
  20956019.172 9 110124636.507 9        54.100    20956024.859 9  85811435.02649
        55.400    20956024.65249  20956019.777 7  82235926.751 7        41.400
  20180172.672 9 106047555.101 9        51.300    20180178.734 9  82634483.24249
        55.800    20180178.18449  20180174.477 7  79191418.292 7        43.700
  21709495.641 8 114084184.783 8        46.300                    88896786.91349
        36.900    21709498.78149
 21  1  4  0  8  0.0000000  0 11G21G23G16G07G15G26G08G18G10G27G20
  23132584.867 7 121562566.204 7        42.600                    94724094.27247
        28.200    23132587.87547
  21711688.547 8 114095711.183 8        46.400    21711692.852 9  88905768.89249
        38.100    21711692.27749  21711693.141 6  85201376.761 6        38.900
  22037889.477 8 115809875.893 8        47.200                    90241493.17749
        37.600    22037892.29349
  24802936.852 5 130340305.766 5        37.700    24802941.574 5 101563876.44246
        20.600    24802941.21146
  24645521.664 4 129513092.508 4        34.300    24645525.180 5 100919314.30747
        27.400    24645524.67647
  24241853.508 6 127391800.597 6        39.000    24241861.090 6  99266371.17149
        34.700    24241860.90649  24241856.547 1  95130298.249 1        30.800
  21634984.875 8 113692625.872 8        47.400    21634991.539 9  88591695.17649
        51.300    21634990.72749  21634986.586 6  84900387.901 6        39.600
  24027131.547 5 126263450.022 5        37.600    24027136.477 7  98387123.08246
        23.000    24027136.08246  24027137.516 3  94287650.45613        32.900
  20953173.313 9 110109681.180 9        53.400    20953178.930 9  85799781.52449
        55.800    20953178.57049  20953173.914 7  82224758.804 7        41.300
  20179830.797 9 106045757.921 9        50.800    20179836.805 9  82633082.83749
        55.400    20179836.08249  20179832.578 7  79190076.224 7        43.100
  21720654.875 8 114142827.331 8        46.200                    88942482.39849
        36.200    21720658.11349
 21  1  4  0  8 30.0000000  0 11G21G23G16G07G15G26G08G18G10G27G20
  23118965.883 7 121491000.412 7        42.600                    94668328.73047
        27.800    23118968.89847
  21721681.672 8 114148227.654 8        47.000    21721686.320 9  88946690.81949
        37.900    21721685.81349  21721686.375 6  85240593.613 6        39.500
  22054905.828 8 115899298.951 8        46.700                    90311173.48049
        37.000    22054909.03949
  24809070.758 5 130372533.791 5        37.600    24809074.695 5 101588989.13246
        20.100    24809073.87146
  24651605.055 3 129545069.351 3        33.300    24651610.223 5 100944231.37247
        26.100    24651609.75847
  24263054.961 6 127503211.265 6        39.700    24263061.863 6  99353184.68449
        35.300    24263060.83649  24263056.445 1  95213494.50711        30.600
  21621782.438 8 113623246.910 8        47.800    21621789.398 9  88537633.66049
        51.300    21621788.34049  21621784.559 6  84848578.936 6        39.900
  24045463.680 6 126359786.624 6        38.300    24045468.676 7  98462190.55746
        22.300    24045468.34046  24045469.863 3  94359590.158 3        33.700
  20950436.727 9 110095301.684 9        53.400    20950442.723 9  85788576.72449
        55.300    20950442.33649  20950437.563 7  82214020.876 7        41.400
  20179570.352 9 106044391.160 9        50.000    20179576.625 9  82632017.82849
        55.200    20179576.08249  20179572.570 7  79189055.607 7        43.800
  21731902.039 8 114201928.541 8        46.400                    88988535.28349
        36.500    21731904.78549
 21  1  4  0  9  0.0000000  0 11G21G23G16G07G15G26G08G18G10G27G20
  23105386.414 7 121419637.035 7        43.100                    94612720.93247
        27.900    23105389.49247
  21731773.336 8 114201257.890 8        47.000    21731777.422 9  88988013.08749
        38.100    21731776.85549  21731777.602 6  85280194.114 6        39.200
  22071990.938 8 115989082.024 8        46.800                    90381134.30049
        37.200    22071994.61749
  24815287.680 5 130405203.869 5        36.600    24815290.605 3 101614446.29545
        17.400    24815290.45345
  24657798.891 5 129577610.380 5        36.200    24657802.750 5 100969588.03847
        27.300    24657801.84447
  24284266.078 6 127614678.944 6        38.400    24284273.445 6  99440042.61349
        35.000    24284273.03949  24284268.340 1  95296733.32711        30.100
  21608629.273 8 113554126.022 8        47.500    21608636.281 9  88483773.24649
        51.300    21608634.80949  21608631.711 6  84796962.722 6        40.200
  24063805.203 6 126456168.264 6        39.100    24063809.320 7  98537293.12546
        22.800    24063809.04746  24063810.105 3  94431563.365 3        33.000
  20947809.906 9 110081497.824 9        53.400    20947815.848 9  85777820.48549
        55.200    20947815.73849  20947811.145 7  82203712.828 7        41.600
  20179392.273 9 106043455.140 9        51.400    20179398.516 9  82631288.45549
        55.400    20179398.05549  20179394.500 7  79188356.624 7        43.300
  21743235.000 8 114261485.975 8        46.200                    89034943.67249
        36.400    21743237.91849
 21  1  4  0  9 30.0000000  0 11G21G23G16G07G15G26G08G18G10G27G20
  23091844.766 7 121348476.534 7        43.200                    94557271.21547
        29.000    23091848.23847
  21741962.031 8 114254799.805 8        46.700    21741966.383 9  89029734.05849
        37.700    21741965.45349  21741966.527 6  85320176.701 6        38.400
  22089144.336 8 116079223.021 8        46.700                    90451374.02949
        37.300    22089148.22749
  24821588.602 6 130438314.320 6        38.100    24821592.262 3 101640246.61045
        19.300    24821591.86345
  24664098.672 6 129610714.513 6        38.400    24664101.836 3 100995383.45847
        28.800    24664101.27747
  24305488.461 6 127726200.780 6        40.200    24305495.309 7  99526942.72849
        36.700    24305495.41449  24305491.156 2  95380012.615 2        31.100
  21595524.961 8 113485264.591 8        47.500    21595532.461 9  88430115.00649
        51.200    21595531.02349  21595527.867 6  84745540.236 6        40.000
  24082154.477 6 126552593.637 6        39.400    24082158.875 6  98612429.77247
        25.300    24082157.99247  24082158.715 3  94503569.357 3        32.400
  20945292.852 9 110068269.702 9        53.200    20945298.578 9  85767512.86949
        55.500    20945298.52349  20945293.969 7  82193834.699 7        41.400
  20179296.406 9 106042950.371 9        51.300    20179302.609 9  82630895.12649
        55.800    20179302.02049  20179298.121 7  79187979.684 7        43.100
  21754654.922 8 114321497.550 8        46.600                    89081705.94349
        36.000    21754657.71949
 21  1  4  0 10  0.0000000  0 11G21G23G16G07G15G26G08G18G10G27G20
  23078341.789 7 121277518.991 7        43.500                    94501979.65347
        29.100    23078345.37547
  21752247.680 8 114308851.308 8        46.200    21752252.063 9  89071852.11449
        37.500    21752251.50049  21752252.156 6  85360539.842 6        38.600
  22106365.320 8 116169719.192 8        47.200                    90521890.50349
        37.200    22106368.84049
  24827972.797 6 130471863.130 6        38.100    24827975.938 4 101666388.57545
        18.600    24827976.19945
  24670504.906 6 129644380.920 6        38.800    24670508.797 5 101021617.00248
        31.300    24670509.14148
  24326719.188 6 127837774.457 6        38.400    24326726.668 6  99613883.26849
        34.400    24326725.99249  24326721.676 1  95463330.602 1        30.300
  21582471.180 8 113416664.188 8        47.300    21582478.043 9  88376660.17149
        51.400    21582476.75049  21582473.637 6  84694312.719 6        40.400
  24100511.781 6 126649061.595 6        39.600    24100516.070 7  98687599.61447
        26.200    24100515.28547  24100516.109 2  94575607.091 2        31.800
  20942884.977 9 110055617.487 9        52.900    20942891.063 9  85757654.00649
        55.200    20942890.75849  20942886.133 7  82184386.620 7        41.300
  20179282.586 9 106042877.467 9        50.900    20179288.641 9  82630838.30949
        55.500    20179288.10549  20179284.316 7  79187925.225 7        43.600
  21766160.688 8 114381961.253 8        46.000                    89128820.52549
        35.800    21766163.50049
 21  1  4  0 10 30.0000000  0 11G21G23G16G07G15G26G08G18G10G27G20
  23064877.898 7 121206764.923 7        43.600                    94446846.63647
        29.000    23064881.25047
  21762629.766 8 114363410.499 8        46.800    21762634.250 9  89114365.76549
        37.500    21762633.54749  21762634.621 6  85401282.093 6        39.100
  22123653.180 8 116260567.870 8        46.800                    90592681.66849
        36.400    22123656.19149
  24834439.703 5 130505848.335 5        35.000    24834443.707 3 101692870.53645
        16.900    24834442.92645
  24677018.781 6 129678608.434 6        39.100    24677022.125 5 101048287.78748
        32.100    24677021.77748
  24347960.539 5 127949397.600 5        37.100    24347967.809 6  99700862.34349
        34.400    24347968.01249  24347962.734 1  95546685.58611        28.900
  21569466.875 9 113348327.100 9        48.000    21569473.707 9  88323410.49849
        51.400    21569472.82449  21569469.309 6  84643281.766 6        39.900
  24118876.578 6 126745571.136 6        40.200    24118881.219 7  98762801.80947
        25.000    24118881.09847  24118882.152 3  94647675.886 3        32.900
  20940586.938 9 110043541.443 9        53.200    20940592.855 9  85748244.10249
        55.400    20940592.93049  20940588.113 7  82175368.802 7        41.600
  20179350.844 9 106043237.147 9        50.900    20179357.160 9  82631118.58049
        55.400    20179356.44949  20179352.637 7  79188193.818 7        43.000
  21777752.203 8 114442875.055 8        46.400                    89176285.82249
        36.100    21777755.27349
 21  1  4  0 11  0.0000000  0 11G21G23G16G07G15G26G08G18G10G27G20
  23051452.250 7 121136214.358 7        43.100                    94391872.19547
        29.000    23051455.93047
  21773108.625 8 114418475.424 8        46.700    21773112.586 9  89157273.50049
        37.700    21773112.27349  21773113.293 6  85442402.014 6        39.000
  22141007.859 8 116351766.903 8        47.000                    90663745.83949
        37.300    22141011.00049
  24840989.438 3 130540268.370 3        33.300    24840993.781 3 101719691.24343
        13.900    24840993.24643
  24683638.258 5 129713396.376 5        37.000    24683642.520 5 101075395.28248
        31.600    24683641.57448
  24369210.914 6 128061067.843 6        38.100    24369219.133 6  99787878.11849
        36.300    24369218.44149  24369213.582 1  95630075.71511        30.600
  21556513.492 8 113280254.887 8        47.500    21556520.070 9  88270367.24349
        51.400    21556518.79749  21556515.063 6  84592448.659 6        39.900
  24137249.773 6 126842121.301 6        40.200    24137254.672 7  98838035.69847
        25.200    24137253.53947  24137255.410 3  94719774.996 3        33.400
  20938398.688 9 110032041.776 9        52.300    20938404.691 9  85739283.33449
        55.200    20938404.41049  20938399.711 7  82166781.396 7        41.100
  20179501.883 9 106044030.159 9        51.000    20179508.141 9  82631736.50549
        55.500    20179507.39149  20179503.855 7  79188785.997 7        43.200
  21789428.922 8 114504236.755 8        46.300                    89224100.13549
        36.400    21789432.10249
 21  1  4  0 11 30.0000000  0 11G21G23G16G07G15G26G08G18G10G27G20
  23038066.188 7 121065867.568 7        43.400                    94337056.55147
        29.300    23038069.24647
  21783682.727 8 114474044.034 8        46.700    21783686.914 9  89200573.71849
        38.100    21783686.58249  21783687.273 6  85483898.037 6        38.200
  22158428.398 8 116443313.739 8        47.200                    90735081.02349
        36.900    22158432.06649
  24847623.484 5 130575121.407 5        36.200    24847625.926 4 101746849.48545
        17.800    24847626.08245
  24690363.586 5 129748743.451 5        35.200    24690367.785 5 101102938.50248
        30.200    24690367.89848
  24390469.242 5 128172782.768 5        36.700    24390476.816 6  99874928.68248
        32.400    24390476.41048  24390472.418 1  95713499.160 1        29.800
  21543610.242 8 113212448.969 8        47.900    21543617.180 9  88217531.46749
        51.500    21543615.79749  21543612.059 6  84541814.372 6        39.900
  24155629.945 6 126938711.038 6        39.500    24155634.332 6  98913300.39746
        23.000    24155633.44146  24155635.199 3  94791903.625 3        33.300
  20936319.922 9 110021118.602 9        52.400    20936326.086 9  85730771.77249
        55.500    20936325.78949  20936321.105 7  82158624.491 7        41.200
  20179734.867 9 106045257.084 9        50.400    20179741.426 9  82632692.54549
        55.300    20179740.80549  20179737.594 7  79189702.203 7        43.200
  21801190.773 8 114566044.662 8        46.100                    89272262.12549
        36.300    21801193.78149
 21  1  4  0 12  0.0000000  0 11G21G23G16G07G15G26G08G18G10G27G20
  23024718.570 8 120995724.847 8        45.000                    94282399.87248
        30.600    23024722.23448
  21794352.656 8 114530114.129 8        47.200    21794356.820 9  89244264.70949
        37.800    21794356.37149  21794356.652 6  85525768.595 6        38.800
  22175915.430 8 116535205.650 8        46.600                    90806685.09849
        37.500    22175918.63749
  24854335.625 3 130610405.150 3        33.700    24854340.637 5 101774343.31345
        17.400    24854339.54345
  24697196.750 5 129784648.811 5        35.400    24697201.250 5 101130916.76047
        29.600    24697200.27747
  24411735.859 5 128284539.940 5        36.800    24411743.363 6  99962012.17648
        33.000    24411743.00448  24411738.406 1  95796954.13411        29.400
  21530757.781 8 113144910.753 8        47.500    21530765.012 9  88164904.30549
        51.500    21530763.85949  21530760.219 6  84491380.016 6        40.100
  24174017.688 6 127035339.148 6        38.900    24174022.316 7  98988595.01446
        23.900    24174021.21546  24174022.863 3  94864061.021 3        32.500
  20934351.352 9 110010771.948 9        52.900    20934357.301 9  85722709.45549
        55.100    20934357.11749  20934352.359 7  82150898.097 7        41.300
  20180051.313 9 106046918.423 9        51.100    20180057.547 9  82633987.09549
        55.400    20180056.80549  20180053.414 7  79190942.822 7        43.900
  21813036.750 8 114628296.442 8        46.600                    89320770.01049
        35.500    21813039.43449
 21  1  4  0 12 30.0000000  0 11G21G23G16G07G15G26G08G18G10G27G20
  23011409.469 7 120925786.657 7        43.800                    94227902.59547
        29.700    23011413.16847
  21805117.273 8 114586683.881 8        47.300    21805121.992 8  89288345.03049
        37.600    21805121.31649  21805121.469 6  85568012.234 6        39.100
  22193467.070 8 116627441.081 8        47.400                    90878556.84049
        37.000    22193470.54349
  24861132.156 5 130646118.201 5        35.100    24861135.988 4 101802171.57745
        16.300    24861136.53945
  24704135.906 5 129821111.461 5        36.900    24704139.129 4 101159329.23747
        28.700    24704137.92247
  24433011.359 6 128396336.932 6        39.200    24433018.250 6 100049126.72149
        35.900    24433018.02749  24433013.473 1  95880438.919 1        30.900
  21517956.992 8 113077642.483 8        47.500    21517964.281 9  88112487.48049
        51.700    21517963.36749  21517959.344 6  84441147.237 6        39.900
  24192413.211 6 127132004.766 6        39.700    24192417.762 7  99063918.85646
        24.300    24192416.74246  24192418.066 2  94936246.319 2        31.800
  20932492.141 9 110001002.094 9        52.600    20932498.035 9  85715096.59349
        55.300    20932497.90649  20932493.234 7  82143602.441 7        41.100
  20180450.242 9 106049015.029 9        51.100    20180456.629 9  82635620.80849
        55.800    20180455.91849  20180452.219 7  79192508.455 7        43.600
  21824967.203 8 114690989.990 8        46.300                    89369622.12749
        36.000    21824969.67249
 21  1  4  0 13  0.0000000  0 11G21G23G16G07G15G26G08G18G10G27G20
  22998139.273 7 120856052.979 7        44.100                    94173564.68247
        29.300    22998143.30547
  21815976.977 8 114643750.873 8        46.600    21815981.195 8  89332812.81449
        37.900    21815980.21949  21815981.148 6  85610627.192 6        38.400
  22211083.750 8 116720016.456 8        47.300                    90950693.48849
        37.400    22211086.61349
  24868009.609 5 130682258.159 5        35.000    24868013.570 3 101830332.59045
        16.900    24868013.26245
  24711179.227 5 129858130.203 5        35.900    24711183.563 3 101188174.97747
        26.800    24711182.75047
  24454290.773 5 128508171.156 5        36.700    24454298.957 6 100136270.28048
        33.300    24454298.70748  24454294.441 1  95963951.511 1        30.100
  21505207.766 9 113010645.249 9        48.100    21505215.086 9  88060281.85949
        51.700    21505214.23049  21505210.355 6  84391116.827 6        40.500
  24210814.320 6 127228706.499 6        38.600    24210819.523 7  99139270.82246
        24.200    24210818.76246  24210819.633 2  95008458.608 2        31.900
  20930742.633 9 109991808.793 9        52.100    20930748.594 9  85707932.98249
        55.600    20930748.51249  20930743.594 7  82136737.313 7        41.900
  20180932.281 9 106051547.172 9        51.400    20180938.355 9  82637593.89849
        55.400    20180937.78949  20180934.227 7  79194399.339 7        43.000
  21836980.844 8 114754122.999 8        46.400                    89418816.69149
        36.400    21836983.72749
 21  1  4  0 13 30.0000000  0 11G21G23G16G07G15G26G08G18G10G27G20
  22984908.883 7 120786524.264 7        43.200                    94119386.47747
        29.000    22984911.43447
  21826930.672 8 114701313.236 8        46.700    21826934.730 9  89377666.61249
        37.300    21826934.08249  21826935.133 6  85653612.063 6        39.100
  22228764.297 8 116812929.019 8        47.400                    91023092.89249
        36.900    22228767.23049
  24874967.820 5 130718823.235 5        37.300    24874971.676 3 101858824.79645
        17.400    24874970.26245
  24718329.203 5 129895703.738 5        35.500    24718333.473 4 101217453.01147
        27.300    24718333.50047
  24475580.359 6 128620040.358 6        38.700    24475586.445 6 100223441.07249
        34.200    24475586.28149  24475582.559 1  96047490.21011        30.100
  21492510.977 8 112943921.264 8        47.500    21492517.797 9  88008289.14949
        51.500    21492516.92249  21492513.191 6  84341290.489 6        40.400
  24229222.766 5 127325443.569 5        37.200    24229227.352 7  99214650.30346
        22.200    24229226.86346  24229228.070 3  95080697.304 3        32.100
  20929102.789 9 109983192.276 9        52.400    20929108.875 9  85701218.82349
        55.400    20929108.67649  20929104.000 7  82130302.911 7        41.500
  20181497.352 9 106054515.657 9        51.400    20181503.199 9  82639907.00649
        55.800    20181502.68849  20181499.129 7  79196616.075 7        43.600
  21849077.992 8 114817693.889 8        46.000                    89468352.44149
        36.500    21849081.18049
 21  1  4  0 14  0.0000000  0 11G21G23G16G07G15G26G08G18G10G27G20
  22971716.547 7 120717200.356 7        43.000                    94065367.86047
        29.500    22971720.18447
  21837978.156 8 114759368.594 8        47.500    21837982.375 9  89422904.55049
        37.800    21837981.87549  21837982.832 6  85696965.104 6        38.800
  22246508.742 9 116906176.828 9        48.100                    91095753.51449
        36.500    22246511.90649
  24882006.688 6 130755811.720 6        38.200    24882009.754 5 101887646.97345
        18.600    24882010.03145
  24725584.906 5 129933831.014 5        35.900    24725589.262 5 101247162.54047
        27.800    24725588.73047
  24496875.258 6 128731941.781 6        40.400    24496881.785 6 100310637.02349
        35.800    24496881.18849  24496877.262 2  96131052.963 2        31.400
  21479865.984 8 112877472.072 8        47.300    21479873.012 9  87956510.56949
        51.900    21479871.89849  21479868.250 6  84291669.361 6        40.500
  24247638.047 5 127422214.663 5        37.500    24247642.461 6  99290056.31846
        21.700    24247641.01246  24247642.887 3  95152961.42313        32.000
  20927572.891 9 109975152.333 9        52.800    20927579.020 9  85694953.93349
        55.100    20927578.86349  20927573.992 7  82124299.056 7        41.500
  20182145.008 9 106057920.791 9        50.900    20182151.234 9  82642560.35149
        55.800    20182150.59049  20182147.188 7  79199158.865 7        43.700
  21861257.602 8 114881699.868 8        46.400                    89518227.22249
        34.700    21861260.78149
 21  1  4  0 14 30.0000000  0 11G21G23G16G07G15G26G08G18G10G27G20
  22958564.578 7 120648081.616 7        43.700                    94011509.14848
        30.100    22958567.71948
  21849119.156 8 114817914.922 8        47.900    21849123.645 8  89468525.07049
        38.200    21849122.76649  21849123.637 6  85740684.777 6        38.600
  22264316.039 8 116999756.629 8        46.900                    91168672.82749
        36.200    22264319.50849
  24889124.938 5 130793221.559 5        37.300    24889129.266 5 101916797.44545
        19.300    24889128.79345
  24732945.586 5 129972511.070 5        36.600    24732949.504 5 101277302.88447
        28.100    24732948.79747
  24518173.617 5 128843873.226 5        36.600    24518181.453 6 100397856.30148
        31.900    24518180.84048  24518176.285 1  96214638.14311        29.900
  21467273.766 8 112811299.090 8        47.600    21467280.949 9  87904947.21049
        52.000    21467279.71949  21467275.898 6  84242254.464 6        40.300
  24266059.273 5 127519018.835 5        37.300    24266063.258 6  99365488.14746
        20.900    24266062.28146  24266063.766 2  95225250.21612        31.200
  20926152.641 9 109967688.999 9        52.700    20926158.754 9  85689138.36249
        55.100    20926158.80549  20926154.059 7  82118725.797 7        41.700
  20182876.297 9 106061763.262 9        51.400    20182882.383 9  82645554.48249
        55.600    20182881.71149  20182878.215 7  79202028.236 7        43.200
  21873520.500 8 114946138.933 8        46.200                    89568439.48649
        35.300    21873522.89849
 21  1  4  0 15  0.0000000  0 11G21G23G16G07G15G26G08G18G10G27G20
  22945450.523 7 120579168.592 7        43.900                    93957810.70747
        29.800    22945453.52047
  21860353.172 8 114876949.909 8        47.600    21860357.488 8  89514526.35249
        37.700    21860356.79349  21860357.836 6  85784769.338 6        38.600
  22282186.906 8 117093666.830 8        46.400                    91241849.59449
        36.900    22282190.38749
  24896323.781 5 130831050.654 5        36.400    24896328.000 5 101946274.60945
        19.300    24896327.90245
  24740410.531 5 130011742.774 5        36.200    24740415.512 5 101307873.10147
        29.000    24740415.23047
  24539478.953 6 128955832.174 6        38.600    24539485.723 6 100485097.03149
        34.400    24539485.82849  24539482.184 1  96298243.80011        29.900
  21454734.336 9 112745403.776 9        48.100    21454741.223 9  87853600.21649
        51.900    21454739.98049  21454736.352 6  84193046.945 6        40.400
  24284486.219 5 127615854.896 5        37.200    24284490.816 6  99440944.78546
        20.600    24284490.01646  24284490.547 1  95297562.826 1        29.800
  20924842.102 9 109960802.150 9        51.900    20924848.320 9  85683771.98649
        55.100    20924848.24649  20924843.520 7  82113583.024 7        41.300
  20183690.711 9 106066043.406 9        51.800    20183697.070 9  82648889.65649
        55.100    20183696.10949  20183692.738 7  79205224.436 7        42.700
  21885864.367 8 115011008.977 8        46.400                    89618987.57449
        35.700    21885867.30549
 21  1  4  0 15 30.0000000  0 11G21G23G16G07G15G26G08G18G10G27G20
  22932376.039 7 120510461.108 7        44.100                    93904272.43847
        29.300    22932378.41847
  21871679.422 8 114936471.395 8        46.600    21871684.207 9  89560906.72949
        37.000    21871683.18849  21871683.906 6  85829217.181 6        38.300
  22300119.656 8 117187904.452 8        47.200                    91315281.50649
        36.700    22300122.90649
  24903602.398 5 130869297.062 5        35.500    24903606.656 5 101976076.97045
        17.800    24903604.69545
  24747981.836 5 130051524.699 5        37.800    24747985.715 5 101338872.04247
        28.600    24747984.95747
  24560788.781 5 129067815.931 5        36.700    24560796.047 6 100572357.14748
        33.200    24560795.75848  24560791.832 1  96381868.06211        29.900
  21442248.234 9 112679788.360 9        48.800    21442255.090 9  87802471.32549
        52.200    21442254.00049  21442250.203 6  84144048.428 6        40.200
  24302919.203 5 127712721.848 5        36.900    24302924.246 6  99516425.49546
        21.500    24302923.93446  24302924.691 1  95369898.589 1        30.200
  20923641.148 9 109954491.655 9        52.300    20923647.383 9  85678854.73349
        55.100    20923647.35549  20923642.496 7  82108870.668 7        41.000
  20184588.641 9 106070761.875 9        51.400    20184594.832 9  82652566.37449
        55.500    20184594.05549  20184590.758 7  79208747.969 7        43.600
  21898290.484 8 115076307.729 8        46.100                    89669869.72649
        35.200    21898293.35549
 21  1  4  0 16  0.0000000  0 11G21G23G16G07G15G26G08G18G10G27G20
  22919340.477 7 120441959.585 7        44.000                    93850894.64147
        29.900    22919343.12947
  21883098.203 8 114996477.401 8        47.400    21883102.668 8  89607664.65949
        37.200    21883102.09449  21883102.668 6  85874026.878 6        38.800
  22318114.766 8 117282466.770 8        47.400                    91388966.42849
        36.200    22318117.65249
  24910958.922 3 130907958.847 3        33.300    24910963.434 5 102006202.98945
        16.300    24910962.78945
  24755656.281 6 130091855.524 6        39.200    24755660.820 4 101370298.66248
        30.500    24755659.17248
  24582102.242 5 129179822.576 5        36.400    24582110.613 6 100659634.96848
        32.300    24582109.97348  24582105.832 1  96465509.38011        29.800
  21429815.352 9 112614454.180 9        48.200    21429822.238 9  87751561.58149
        52.100    21429821.37549  21429817.840 6  84095259.912 6        40.500
  24321358.313 5 127809618.810 5        36.200    24321362.965 6  99591929.60145
        19.900    24321362.39545  24321364.168 2  95442256.682 2        31.200
  20922550.367 9 109948757.621 9        53.000    20922556.180 9  85674386.66649
        55.500    20922556.15249  20922551.457 7  82104588.755 7        41.700
  20185570.023 9 106075919.320 9        50.900    20185576.164 9  82656585.16049
        55.400    20185575.52049  20185572.066 7  79212599.295 7        43.400
  21910797.578 8 115142033.256 8        46.400                    89721084.42349
        35.700    21910800.79349
 21  1  4  0 16 30.0000000  0 11G21G23G16G07G15G26G08G18G10G27G20
  22906344.078 7 120373664.426 7        44.200                    93797677.63848
        30.300    22906348.14148
  21894608.922 8 115056965.812 8        47.900    21894613.605 8  89654798.49149
        37.400    21894612.78149  21894613.367 6  85919196.801 6        38.100
  22336170.547 8 117377351.271 8        46.300                    91462902.39549
        36.100    22336173.41449
  24918394.055 1                        30.100    24918399.387 5 102036671.89615
        15.600    24918398.85245
  24763436.297 6 130132734.159 6        40.600    24763439.422 4 101402152.12648
        31.300    24763438.30948
  24603421.297 5 129291849.463 5        37.900    24603428.426 6 100746928.71049
        34.800    24603427.50049  24603423.777 1  96549165.842 1        29.800
  21417436.258 9 112549403.109 9        48.800    21417443.617 9  87700872.44049
        52.300    21417442.44149  21417439.258 6  84046682.818 6        40.800
  24339802.375 5 127906544.87815        35.800    24339807.238 6  99667456.37155
        18.600    24339806.70745  24339808.953 2  95514636.478 2        31.200
  20921568.727 9 109943600.049 9        52.800    20921574.723 9  85670367.79049
        55.100    20921574.78149  20921569.984 7  82100737.356 7        41.400
  20186635.242 9 106081516.341 9        51.400    20186641.438 9  82660946.46849
        55.700    20186640.65249  20186637.258 7  79216778.886 7        43.900
  21923386.141 8 115208183.549 8        47.300                    89772630.10149
        36.000    21923389.04349
 21  1  4  0 17  0.0000000  0 11G21G23G16G07G15G26G08G18G10G27G20
  22893387.398 7 120305575.509 7        44.000                    93744621.39148
        30.000    22893391.10548
  21906211.031 8 115117934.328 8        47.000    21906215.281 8  89702306.42349
        37.200    21906214.40649  21906215.391 6  85964725.266 6        38.600
  22354287.063 8 117472555.106 8        45.700                    91537087.18849
        35.500    22354290.11749
  24925908.023 2 130986519.61712        31.200    24925912.504 4 102067419.10154
        14.800    24925912.55944
  24771318.906 6 130174159.593 6        39.400    24771322.172 4 101434431.65348
        30.100    24771320.98848
  24624741.141 4 129403894.241 4        34.300    24624749.617 6 100834236.34748
        31.600    24624749.07848  24624745.430 1  96632835.650 1        29.900
  21405112.078 9 112484636.846 9        48.200    21405118.852 9  87650405.22149
        52.300    21405117.71549  21405114.551 6  83998318.403 6        40.400
  24358252.391 5 128003498.899 5        36.600    24358257.750 6  99743004.92445
        19.900    24358256.82445  24358257.801 1  95587037.143 1        30.600
  20920696.961 9 109939018.678 9        52.900    20920702.770 9  85666797.89449
        55.300    20920702.85549  20920698.348 7  82097316.197 7        41.100
  20187783.883 9 106087553.355 9        51.400    20187790.035 9  82665650.63549
        55.300    20187789.47349  20187786.051 7  79221287.051 7        43.600
  21936054.047 8 115274756.160 8        46.000                    89824504.86649
        35.300    21936057.03949
 21  1  4  0 17 30.0000000  0 11G21G23G16G07G15G26G08G18G10G27G20
  22880469.234 7 120237693.126 7        44.300                    93691726.08448
        30.000    22880473.01648
  21917904.047 8 115179380.561 8        47.700    21917907.969 9  89750186.60749
        37.500    21917907.34849  21917908.828 6  86010610.427 6        38.600
  22372464.055 8 117568075.896 8        46.700                    91611518.95549
        36.700    22372467.39549
  24933500.922 1 131026414.62111        29.100    24933504.895 4 102098506.05452
        12.600    24933504.29342
  24779303.563 5 130216130.053 5        36.900    24779308.766 5 101467135.94247
        28.700    24779308.87547
  24646067.492 6 129515954.378 6        38.900    24646073.926 5 100921555.88148
        32.700    24646073.21148  24646069.734 1  96716516.83311        30.100
  21392841.695 9 112420156.611 9        48.400    21392848.641 9  87600160.88549
        52.300    21392847.65249  21392843.980 6  83950167.601 6        40.800
  24376707.570 5 128100479.786 5        36.500    24376712.410 6  99818574.44946
        21.500    24376712.07046  24376711.926 1  95659457.863 1        30.300
  20919934.508 9 109935013.180 9        52.800    20919940.730 9  85663676.73249
        54.900    20919940.64849  20919935.863 7  82094325.076 7        42.000
  20189016.547 9 106094030.686 9        51.200    20189022.793 9  82670697.90149
        55.700    20189022.06649  20189018.566 7  79226124.012 7        43.700
  21948802.219 8 115341748.843 8        46.000                    89876706.95249
        35.600    21948805.34849
 21  1  4  0 18  0.0000000  0 11G21G23G16G07G15G26G08G18G10G27G20
  22867591.125 7 120170017.820 7        44.200                    93638992.09848
        30.000    22867594.56348
  21929687.266 8 115241302.714 8        46.300    21929691.398 9  89798437.63849
        37.700    21929690.99249  21929692.328 6  86056850.976 6        38.600
  22390701.016 8 117663911.388 8        46.600                    91686195.95849
        36.100    22390704.05549
  24941170.875 3 131066716.954 3        33.000    24941173.914 3 102129910.49745
        15.600    24941173.16045
  24787395.156 5 130258644.712 5        37.300    24787399.809 5 101500264.31247
        29.000    24787398.82047
  24667392.844 5 129628027.689 5        36.700    24667400.602 5 101008885.77348
