     2.11           OBSERVATION DATA    G (GPS)             RINEX VERSION / TYPE
teqc  2019Feb12                         20210104 00:30:13UTCPGM / RUN BY / DATE
ZIMM                                                        MARKER NAME
14001M004                                                   MARKER NUMBER
TRIMBLE NETR9       SWISSTOPO                               OBSERVER / AGENCY
5429R49141          TRIMBLE NETR9       5.45                REC # / TYPE / VERS
99390               TRM29659.00     NONE                    ANT # / TYPE
  4331297.3480   567555.6390  4633133.7280                  APPROX POSITION XYZ
        0.0000        0.0000        0.0000                  ANTENNA: DELTA H/E/N
     1     1                                                WAVELENGTH FACT L1/2
    10    C1    L1    S1    C2    L2    S2    P2    C5    L5# / TYPES OF OBSERV
          S5                                                # / TYPES OF OBSERV
    30.0000                                                 INTERVAL
Linux 2.4.21-27.ELsmp|Opteron|gcc -static|Linux 64|=+       COMMENT
     2.11           OBSERVATION DATA    M (MIXED)           COMMENT
NetR9 5.45          Receiver Operator   20210103 000000 UTC COMMENT
L2C CARRIER PHASE MEASUREMENTS: PHASE SHIFTS REMOVED        COMMENT
L2C PHASE MATCHES L2 P PHASE                                COMMENT
GLONASS C/A & P PHASE MATCH: PHASE SHIFTS REMOVED           COMMENT
Forced Modulo Decimation to 30 seconds                      COMMENT
teqc edited: all GLONASS satellites excluded                COMMENT
teqc edited: all Galileo satellites excluded                COMMENT
  2021     1     3     0     0    0.0000000     GPS         TIME OF FIRST OBS
                                                            END OF HEADER
 21  1  3  0  0  0.0000000  0 11G21G23G16G07G15G08G26G18G20G10G27
  23471608.281 7 123344148.239 7        42.500                    96112331.39447
        25.400    23471611.66047
  21500088.508 9 112983736.444 9        48.000    21500092.902 9  88039298.71749
        38.700    21500092.83249  21500093.500 6  84370976.295 6        39.200
  21647300.836 9 113757343.751 9        48.700                    88642092.68249
        39.500    21647304.28149
  24681937.859 6 129704452.614 6        39.700    24681942.094 5 101068404.02446
        21.100    24681941.05546
  24533654.102 6 128925242.176 6        38.300    24533657.949 5 100461226.50948
        30.400    24533658.05148
  21964969.609 8 115426715.736 8        46.400    21964976.727 8  89942910.79849
        49.300    21964975.52749  21964971.574 6  86195300.152 6        38.300
  23735645.289 6 124731658.800 6        39.900    23735653.160 7  97193532.29949
        38.400    23735652.66049  23735648.012 2  93143778.647 2        31.600
  23588174.734 6 123956700.903 6        39.200    23588179.320 7  96589655.45347
        26.400    23588178.35247  23588179.820 4  92565076.818 4        34.100
  21475842.797 8 112856319.788 8        46.700                    87940012.43249
        37.700    21475846.03149
  21052155.227 9 110629835.433 9        53.300    21052161.484 9  86205141.18849
        55.200    21052161.34849  21052156.660 6  82613157.253 6        40.500
  20210590.609 9 106207383.545 9        50.800    20210597.043 9  82759030.36849
        55.100    20210596.27049  20210592.734 7  79310691.488 7        43.400
 21  1  3  0  0 30.0000000  0 11G21G23G16G07G15G08G26G18G20G10G27
  23457079.414 7 123267801.439 7        41.300                    96052840.38047
        25.700    23457083.18447
  21507604.328 8 113023231.757 8        47.700    21507608.840 9  88070074.28649
        38.900    21507608.78549  21507609.039 6  84400469.545 6        39.700
  21662513.242 8 113837284.390 8        47.900                    88704384.07949
        39.000    21662516.27049
  24685930.539 5 129725437.682 5        37.800    24685934.883 5 101084755.99446
        20.900    24685934.48846
  24537118.070 5 128943448.762 5        36.000    24537122.750 5 100475413.50147
        29.900    24537121.86347
  21950683.914 8 115351644.195 8        46.700    21950691.121 8  89884413.50049
        49.400    21950690.00049  21950685.914 6  86139240.217 6        38.400
  23756443.898 6 124840955.298 6        40.100    23756450.793 6  97278698.40349
        37.400    23756450.27049  23756446.582 2  93225396.159 2        31.700
  23606233.023 6 124051599.925 6        38.600    23606238.352 7  96663602.71947
        26.100    23606237.64147  23606238.164 3  92635942.947 3        33.300
  21484874.828 8 112903784.457 8        46.200                    87976997.89449
        36.900    21484878.33249
  21046792.805 9 110601654.405 9        53.000    21046798.883 9  86183181.95449
        55.100    21046798.78549  21046794.074 7  82592113.008 7        41.300
  20208389.742 9 106195816.529 9        50.500    20208395.926 9  82750017.10449
        56.100    20208395.12949  20208391.719 7  79302053.796 7        43.700
 21  1  3  0  1  0.0000000  0 11G21G23G16G07G15G08G26G18G20G10G27
  23442588.555 7 123191649.474 7        42.400                    95993501.20947
        25.300    23442591.84447
  21515226.125 9 113063284.914 9        48.200    21515230.664 9  88101284.54149
        38.800    21515230.18849  21515230.930 6  84430379.390 6        39.400
  21677805.125 9 113917642.916 9        48.000                    88767001.10749
        39.400    21677807.98049
  24690016.516 6 129746903.174 6        39.500    24690019.859 5 101101482.33246
        21.500    24690019.34846
  24540694.391 5 128962234.403 5        37.500    24540697.480 5 100490051.68948
        30.100    24540697.53948
  21936440.125 8 115276792.598 8        47.300    21936447.344 8  89826087.58349
        49.600    21936446.22349  21936442.551 6  86083344.555 6        38.700
  23777264.313 6 124950368.594 6        39.600    23777271.871 7  97363955.53549
        37.300    23777271.93049  23777267.344 2  93307100.884 2        31.900
  23624305.742 6 124146573.095 6        38.800    23624310.621 7  96737607.77247
        26.200    23624309.87547  23624311.418 3  92706864.464 3        33.500
  21494002.992 8 112951752.022 8        46.500                    88014375.21449
        37.100    21494005.95749
  21041537.273 9 110574037.564 9        52.600    21041543.594 9  86161662.34649
        54.900    21041543.33249  21041538.730 7  82571490.057 7        41.600
  20206267.281 9 106184662.619 9        50.800    20206273.207 9  82741325.74749
        55.500    20206272.50849  20206268.961 7  79293724.561 7        43.100
 21  1  3  0  1 30.0000000  0 11G21G23G16G07G15G08G26G18G20G10G27
  23428135.133 7 123115692.872 7        41.400                    95934314.29447
        26.600    23428137.69547
  21522953.930 8 113103894.375 8        47.600    21522958.344 9  88132928.28749
        38.400    21522957.70349  21522958.070 6  84460704.637 6        39.900
  21693175.813 8 113998417.762 8        47.900                    88829942.54849
        39.500    21693179.08649
  24694191.500 5 129768847.753 5        37.900    24694195.891 5 101118581.99946
        21.100    24694195.56646
  24544376.656 5 128981598.931 5        36.700    24544382.008 4 100505140.93447
        28.400    24544381.18047
  21922238.188 8 115202162.230 8        46.600    21922245.387 9  89767934.05549
        49.400    21922244.51249  21922240.563 6  86027614.092 6        38.900
  23798107.461 6 125059896.342 6        40.100    23798114.703 7  97449301.81449
        37.500    23798114.03949  23798109.824 2  93388891.073 2        31.600
  23642392.805 6 124241619.200 6        38.800    23642397.246 7  96811669.66047
        25.800    23642396.14547  23642397.809 3  92777840.457 3        33.800
  21503226.711 8 113000220.712 8        47.000                    88052143.03149
        37.400    21503229.32849
  21036389.563 9 110546985.699 9        53.500    21036395.785 9  86140582.98249
        55.300    21036395.50449  21036391.078 7  82551289.016 7        42.000
  20204223.352 9 106173922.668 9        51.100    20204229.516 9  82732956.94649
        55.900    20204228.78949  20204225.203 7  79285704.458 7        43.700
 21  1  3  0  2  0.0000000  0 11G21G23G16G07G15G08G26G18G20G10G27
  23413717.906 7 123039931.453 7        41.800                    95875279.43847
        26.100    23413721.18047
  21530787.227 8 113145058.181 8        47.500    21530791.535 9  88165003.98049
        38.800    21530790.75049  21530791.559 6  84491443.855 6        38.800
  21708625.227 9 114079606.185 9        48.100                    88893206.24449
        39.400    21708628.85949
  24698458.000 5 129791269.681 5        37.700    24698462.117 5 101136053.62346
        20.100    24698461.52746
  24548173.047 5 129001541.591 5        37.900    24548176.426 4 100520680.66747
        28.300    24548176.26247
  21908079.484 8 115127754.456 8        47.900    21908086.188 8  89709953.97749
        49.600    21908085.18049  21908081.457 6  85972049.891 6        39.000
  23818970.250 6 125169535.646 6        39.200    23818977.672 6  97534735.02149
        36.600    23818977.35249  23818972.703 2  93470764.590 2        31.000
  23660492.875 6 124336736.629 6        38.800    23660497.746 7  96885787.13747
        25.400    23660496.33647  23660497.984 4  92848869.695 4        34.300
  21512544.461 8 113049187.681 8        46.900                    88090299.11849
        37.800    21512547.80549
  21031349.453 9 110520499.209 9        52.100    21031355.402 9  86119944.18049
        54.900    21031355.34849  21031350.605 7  82531510.148 7        41.300
  20202258.531 9 106163597.195 9        51.600    20202264.594 9  82724911.12149
        55.400    20202264.03149  20202260.480 7  79277993.864 7        43.200
 21  1  3  0  2 30.0000000  0 11G21G23G16G07G15G08G26G18G20G10G27
  23399337.922 7 122964366.309 7        41.800                    95816397.52447
        26.000    23399341.15647
  21538725.320 8 113186775.820 8        47.800    21538730.289 9  88197511.23749
        38.400    21538729.36749  21538730.266 6  84522596.653 6        39.400
  21724153.242 8 114161206.921 8        47.300                    88956791.21849
        38.900    21724156.93849
  24702815.719 6 129814168.761 6        38.100    24702820.449 5 101153897.03146
        21.700    24702818.74246
  24552078.164 6 129022063.502 6        38.900    24552081.875 4 100536671.76647
        29.800    24552081.94147
  21893962.695 8 115053572.091 8        47.200    21893969.723 8  89652149.54049
        49.800    21893968.66849  21893964.762 6  85916653.946 6        38.800
  23839855.523 6 125279285.226 6        40.200    23839862.422 6  97620254.17249
        37.100    23839861.97749  23839857.375 2  93552720.478 2        31.100
  23678606.883 6 124431925.284 6        39.000    23678611.617 7  96959960.07647
        26.400    23678611.26247  23678612.176 4  92919952.070 4        34.300
  21521957.227 8 113098653.020 8        46.500                    88128843.53849
        37.300    21521960.73049
  21026417.078 9 110494579.919 9        53.100    21026423.207 9  86099747.33649
        55.100    21026422.95349  21026418.406 7  82512154.846 7        41.300
  20200372.469 9 106153688.134 9        51.000    20200379.176 9  82717189.76949
        55.600    20200378.43049  20200374.734 7  79270594.256 7        43.700
 21  1  3  0  3  0.0000000  0 11G21G23G16G07G15G08G26G18G20G10G27
  23384995.242 7 122888996.679 7        41.400                    95757667.95646
        24.400    23384998.28546
  21546768.766 8 113229043.856 8        47.900    21546773.332 9  88230447.37549
        38.700    21546772.90249  21546773.727 6  84554160.437 6        39.400
  21739759.469 9 114243215.587 9        48.100                    89020694.06849
        39.700    21739762.39149
  24707263.938 5 129837541.775 5        37.600    24707267.996 5 101172109.74246
        20.600    24707266.91846
  24556092.680 5 129043162.081 5        37.100    24556096.938 5 100553112.22548
        30.200    24556097.00448
  21879888.898 8 114979614.869 8        47.300    21879896.090 8  89594520.54249
        50.200    21879895.19949  21879891.516 6  85861426.182 6        38.900
  23860759.852 6 125389140.853 6        39.500    23860767.449 7  97705855.95149
        37.900    23860767.07449  23860762.691 2  93634755.45412        31.500
  23696733.664 6 124527182.061 6        40.800    23696737.793 7  97034186.12447
        25.200    23696737.51247  23696738.855 4  92991085.408 4        34.600
  21531464.430 8 113148613.058 8        46.500                    88167773.43649
        37.500    21531467.67649
  21021592.547 9 110469226.796 9        52.800    21021598.641 9  86079991.66249
        55.100    21021598.46149  21021593.496 7  82493222.323 7        41.100
  20198566.375 9 106144194.514 9        51.200    20198572.488 9  82709792.13649
        55.700    20198571.87149  20198568.395 7  79263504.856 7        43.600
 21  1  3  0  3 30.0000000  0 11G21G23G16G07G15G08G26G18G20G10G27
  23370690.961 7 122813824.378 7        41.000                    95699092.17347
        26.200    23370694.33247
  21554917.109 8 113271862.154 8        47.600    21554921.457 9  88263812.28549
        38.700    21554920.91449  21554921.672 6  84586135.135 6        39.200
  21755442.734 8 114325631.669 8        47.700                    89084914.39349
        39.200    21755445.94149
  24711800.719 5 129861388.911 5        36.900    24711806.082 5 101190691.88346
        20.900    24711805.39146
  24560216.680 5 129064838.488 5        36.200    24560221.586 4 100570002.94247
        28.300    24560221.62547
  21865858.859 8 114905885.806 8        47.200    21865865.984 8  89537069.34549
        49.900    21865864.79749  21865861.129 6  85806368.768 6        38.200
  23881684.797 6 125499101.500 6        39.800    23881692.473 7  97791539.58849
        37.300    23881691.95349  23881687.594 3  93716868.928 3        32.000
  23714873.852 6 124622507.353 6        39.600    23714878.203 7  97108465.54947
        26.400    23714876.74647  23714878.582 4  93062269.847 4        34.000
  21541065.883 8 113199067.546 8        46.200                    88207088.63249
        37.200    21541068.64549
  21016875.930 9 110444441.993 9        52.900    21016882.250 9  86060678.84049
        55.500    21016881.93049  21016877.188 7  82474714.220 7        41.100
  20196839.234 9 106135118.692 9        50.700    20196845.293 9  82702720.06849
        56.100    20196844.67649  20196841.297 7  79256727.439 7        43.300
 21  1  3  0  4  0.0000000  0 11G21G23G16G07G15G08G26G18G20G10G27
  23356423.906 7 122738848.520 7        42.800                    95640669.44747
        27.300    23356426.86747
  21563169.352 8 113315227.735 8        47.100    21563173.656 9  88297603.65949
        38.700    21563173.15249  21563173.891 6  84618518.550 6        39.400
  21771202.641 8 114408451.724 8        47.500                    89149449.48949
        38.400    21771206.25449
  24716429.172 5 129885707.721 5        35.100    24716433.156 5 101209641.52145
        18.600    24716432.71945
  24564451.969 5 129087090.954 5        35.200    24564455.875 5 100587342.57747
        28.100    24564455.78947
  21851872.469 8 114832385.361 8        46.700    21851879.367 8  89479796.26549
        49.900    21851877.98049  21851874.363 6  85751482.065 6        39.200
  23902628.469 6 125609163.404 6        39.100    23902636.816 7  97877302.08849
        36.800    23902636.19949  23902631.383 2  93799057.968 2        31.500
  23733026.125 6 124717898.552 6        39.800    23733030.586 7  97182796.34547
        25.600    23733029.28147  23733030.828 3  93133503.531 3        33.500
  21550760.266 8 113250013.636 8        45.900                    88246786.88949
        36.900    21550763.32849
  21012267.945 9 110420224.849 9        53.000    21012273.855 9  86041808.34149
        55.200    21012273.50049  21012268.902 7  82456629.981 7        42.000
  20195191.672 9 106126460.147 9        50.300    20195197.766 9  82695973.15249
        55.300    20195196.99649  20195193.500 7  79250261.653 7        43.100
 21  1  3  0  4 30.0000000  0 11G21G23G16G07G15G08G26G18G20G10G27
  23342193.734 7 122664069.897 7        41.600                    95582400.39647
        28.700    23342196.62947
  21571525.492 8 113359139.501 8        46.700    21571530.063 9  88331820.62449
        39.200    21571529.55549  21571530.168 6  84651309.786 6        39.200
  21787039.273 8 114491673.661 8        47.500                    89214297.74249
        38.700    21787042.80949
  24721146.523 5 129910496.719 5        37.200    24721151.328 5 101228957.63345
        19.900    24721150.44545
  24568796.703 5 129109919.863 5        36.200    24568800.570 5 100605131.35848
        30.000    24568799.81648
  21837929.273 8 114759115.463 8        47.000    21837936.383 8  89422702.84249
        50.000    21837935.18849  21837931.859 6  85696767.532 6        38.900
  23923591.727 6 125719324.719 6        38.900    23923599.688 7  97963142.05649
        36.700    23923599.12549  23923594.348 1  93881321.302 1        30.900
  23751190.797 6 124813355.070 6        39.400    23751194.855 7  97257178.01847
        26.000    23751194.49647  23751195.348 3  93204785.929 3        33.700
  21560548.156 8 113301449.630 8        46.500                    88286866.88649
        38.300    21560551.30549
  21007767.461 9 110396576.633 9        53.200    21007773.336 9  86023381.17549
        55.000    21007773.51649  21007768.969 6  82438970.616 6        40.900
  20193623.766 9 106118220.314 9        50.800    20193629.711 9  82689552.48949
        56.300    20193628.96949  20193625.504 7  79244108.514 7        42.900
 21  1  3  0  5  0.0000000  0 11G21G23G16G07G15G08G26G18G20G10G27
  23328001.539 7 122589488.949 7        42.900                    95524285.41147
        27.800    23328004.45347
  21579985.047 8 113403595.629 8        47.000    21579989.523 9  88366461.76149
        38.600    21579989.07049  21579989.898 6  84684507.547 6        39.200
  21802952.320 8 114575295.678 8        47.600                    89279457.74249
        39.000    21802955.60949
  24725953.305 5 129935754.481 5        37.800    24725957.137 6 101248638.99046
        21.500    24725956.52046
  24573250.602 5 129133324.546 5        36.800    24573254.492 5 100623368.80448
        30.100    24573253.56348
  21824031.188 8 114686078.157 8        47.100    21824038.020 8  89365790.66549
        50.100    21824036.69949  21824033.352 6  85642226.715 6        38.900
  23944574.000 6 125829582.908 6        39.200    23944581.098 7  98049057.53049
        35.900    23944580.43049  23944576.398 3  93963656.970 3        32.300
  23769367.234 6 124908875.555 6        39.000    23769372.121 7  97331609.54946
        24.800    23769371.07846  23769372.738 3  93276116.163 3        32.400
  21570429.359 8 113353373.876 8        47.200                    88327327.33449
        36.800    21570432.03949
  21003375.719 9 110373497.839 9        53.200    21003382.102 9  86005397.70749
        55.000    21003381.82449  21003376.820 7  82421736.447 7        41.100
  20192135.281 9 106110399.846 9        50.700    20192141.320 9  82683458.61749
        55.400    20192140.87549  20192137.309 7  79238268.572 7        42.600
 21  1  3  0  5 30.0000000  0 11G21G23G16G07G15G08G26G18G20G10G27
  23313846.125 7 122515105.945 7        41.700                    95466324.62547
        26.600    23313849.35247
  21588548.000 8 113448594.404 8        47.100    21588552.535 9  88401525.75349
        38.600    21588551.84849  21588552.777 6  84718110.526 6        39.200
  21818940.508 8 114659315.288 8        47.600                    89344927.57349
        38.800    21818943.82049
  24730848.133 5 129961479.576 5        36.600    24730851.809 5 101268684.50445
        19.000    24730851.73045
  24577813.523 5 129157304.470 5        37.800    24577817.082 5 100642054.45848
        30.300    24577817.38348
  21810177.023 8 114613274.925 8        47.600    21810184.203 9  89309060.88249
        50.100    21810182.86349  21810179.035 6  85587860.679 6        39.000
  23965572.750 6 125939935.518 6        39.400    23965580.934 7  98135046.54349
        36.500    23965580.34449  23965575.688 2  94046063.083 2        31.600
  23787556.695 6 125004458.899 6        39.900    23787560.875 7  97406090.08046
        24.700    23787560.29346  23787562.055 3  93347493.274 3        32.300
  21580402.352 8 113405784.562 8        46.400                    88368166.84249
        36.800    21580405.63749
  20999092.477 9 110350989.096 9        53.400    20999098.828 9  85987858.44149
        55.000    20999098.57449  20999093.473 7  82404928.002 7        41.000
  20190727.117 9 106102999.589 9        50.500    20190733.320 9  82677692.19049
        55.700    20190732.67249  20190729.035 7  79232742.388 7        43.900
 21  1  3  0  6  0.0000000  0 11G21G23G16G07G15G08G26G18G20G10G27
  23299729.836 7 122440920.545 7        41.900                    95408517.85147
        27.900    23299732.78947
  21597213.906 8 113494133.613 8        47.000    21597218.285 9  88437010.86049
        38.400    21597217.48049  21597218.602 6  84752117.117 6        39.200
  21835004.250 8 114743729.579 8        47.500                    89410704.93449
        38.400    21835007.32049
  24735831.750 5 129987670.371 5        36.400    24735835.660 5 101289092.89145
        19.900    24735835.83245
  24582486.055 5 129181858.412 5        37.800    24582489.516 5 100661187.42748
        30.700    24582489.00848
  21796367.781 8 114540706.801 8        46.600    21796374.676 9  89252514.30349
        50.300    21796373.60549  21796370.188 6  85533670.200 6        39.400
  23986589.828 6 126050379.592 6        39.500    23986597.012 7  98221106.86249
        36.900    23986596.46949  23986592.621 2  94128537.575 2        31.500
  23805757.734 6 125100103.396 6        39.700    23805761.805 7  97480618.23747
        25.300    23805761.10547  23805762.477 3  93418916.163 3        32.000
  21590468.352 8 113458678.933 8        46.400                    88409383.23149
        37.300    21590471.41049
  20994917.727 9 110329050.472 9        53.300    20994923.816 9  85970763.42249
        55.600    20994923.81349  20994918.895 7  82388545.258 7        41.000
  20189398.875 9 106096019.859 9        50.300    20189405.191 9  82672253.42949
        55.500    20189404.55149  20189400.910 7  79227530.259 7        43.300
 21  1  3  0  6 30.0000000  0 11G21G23G16G07G15G08G26G18G20G10G27
  23285650.688 7 122366934.695 7        43.200                    95350866.54047
        29.000    23285653.73847
  21605982.266 8 113540212.656 8        47.600    21605987.063 9  88472916.60649
        38.400    21605986.41049  21605987.660 6  84786526.778 6        39.400
  21851142.172 8 114828537.231 8        47.600                    89476788.80749
        38.400    21851145.79349
  24740905.250 6 130014326.224 6        39.300    24740907.934 5 101309863.64746
        21.800    24740908.77746
  24587267.859 5 129206987.030 5        37.500    24587271.301 5 100680768.17247
        29.700    24587272.10247
  21782603.648 8 114468376.329 8        47.300    21782610.629 8  89196152.91049
        50.300    21782609.41049  21782606.094 6  85479657.207 6        39.200
  24007623.594 6 126160913.840 6        40.100    24007631.098 7  98307237.44849
        37.300    24007630.41049  24007626.465 1  94211079.347 1        30.700
  23823968.953 6 125195809.021 6        38.400    23823973.855 7  97555194.02246
        24.500    23823973.14846  23823974.629 3  93490384.628 3        32.900
  21600625.313 8 113512056.653 8        46.000                    88450976.25649
        36.800    21600628.53949
  20990851.703 9 110307683.654 9        53.500    20990857.938 9  85954113.95449
        54.900    20990857.65649  20990852.840 7  82372589.549 7        41.600
  20188151.328 9 106089462.512 9        50.500    20188157.531 9  82667143.80949
        56.000    20188156.83649  20188153.297 7  79222633.542 7        43.700
 21  1  3  0  7  0.0000000  0 11G21G23G16G07G15G08G26G18G20G10G27
  23271609.531 7 122293147.423 7        42.500                    95293369.98747
        26.900    23271611.88347
  21614852.508 8 113586828.559 8        47.800    21614857.594 9  88509240.68949
        37.700    21614856.97749  21614858.109 6  84821337.380 6        38.800
  21867355.023 8 114913734.592 8        47.600                    89543176.35349
        38.000    21867358.48849
  24746064.930 6 130041444.217 6        38.500    24746068.625 5 101330994.56846
        21.800    24746068.94146
  24592158.852 6 129232688.690 6        38.300    24592162.387 5 100700795.44147
        29.400    24592161.63747
  21768885.367 8 114396284.194 8        47.900    21768891.930 8  89139977.22349
        50.500    21768890.63349  21768887.367 6  85425822.163 6        39.500
  24028673.906 6 126271534.637 6        40.100    24028681.473 6  98393435.47149
        37.300    24028681.03149  24028676.820 2  94293685.795 2        31.100
  23842192.578 6 125291573.438 6        39.400    23842197.129 7  97629815.62846
        23.000    23842196.07446  23842197.387 3  93561896.998 3        32.600
  21610874.148 8 113565914.690 8        46.400                    88492943.56349
        37.500    21610877.55949
  20986894.250 9 110286888.051 9        53.300    20986900.625 9  85937909.59449
        55.400    20986900.32449  20986895.570 7  82357060.368 7        41.200
  20186983.664 9 106083327.207 9        50.800    20186989.809 9  82662363.04949
        55.600    20186989.33649  20186985.895 7  79218051.987 7        43.200
 21  1  3  0  7 30.0000000  0 11G21G23G16G07G15G08G26G18G20G10G27
  23257605.711 7 122219558.983 7        41.500                    95236028.36847
        26.800    23257609.10247
  21623825.883 8 113633979.693 8        47.300    21623830.180 9  88545981.83749
        39.000    21623829.73849  21623830.109 6  84856547.610 6        39.500
  21883641.523 8 114999319.534 8        47.500                    89609865.90349
        38.400    21883644.55149
  24751313.039 5 130069023.426 5        36.500    24751317.137 3 101352484.84145
        19.300    24751316.44945
  24597157.594 6 129258962.876 6        38.000    24597162.289 5 100721268.85347
        29.700    24597161.71147
  21755212.008 8 114324431.881 8        47.400    21755218.984 9  89083988.41049
        50.700    21755217.67649  21755213.984 6  85372166.222 6        39.300
  24049740.367 6 126382239.697 6        38.400    24049748.074 6  98479699.15149
        36.300    24049747.25449  24049743.590 2  94376355.152 2        31.800
  23860427.328 7 125387395.594 7        41.600    23860431.461 7  97704482.25447
        26.000    23860431.00047  23860432.023 2  93633452.471 2        31.900
  21621214.227 8 113620251.223 8        47.400                    88535283.72349
        36.300    21621217.15649
  20983046.023 9 110266664.275 9        53.400    20983052.305 9  85922150.82749
        55.000    20983051.96549  20983047.320 7  82341958.215 7        41.500
  20185896.383 9 106077614.853 9        51.200    20185902.859 9  82657911.86849
        55.200    20185902.33649  20185898.648 7  79213786.267 7        43.500
 21  1  3  0  8  0.0000000  0 11G21G23G16G07G15G08G26G18G20G10G27
  23243640.938 7 122146170.172 7        43.100                    95178842.30347
        27.400    23243643.62947
  21632899.555 9 113681664.442 9        48.200    21632904.262 9  88583138.79149
        38.700    21632903.80149  21632904.215 6  84892156.377 6        39.200
  21900000.797 8 115085290.001 8        47.200                    89676855.86649
        38.400    21900004.22349
  24756649.039 6 130097062.189 6        38.200    24756651.918 4 101374333.22845
        19.600    24756652.07845
  24602266.891 5 129285809.330 5        36.800    24602270.590 5 100742188.19247
        29.600    24602270.33647
  21741584.828 9 114252821.615 9        48.200    21741591.984 8  89028188.21349
        50.800    21741590.87549  21741586.793 6  85318691.025 6        39.200
  24070822.656 6 126493026.756 6        38.200    24070830.152 6  98566026.72449
        35.400    24070829.44949  24070824.898 2  94459085.725 2        31.400
  23878672.039 6 125483274.501 6        40.200    23878676.625 7  97779193.07647
        26.200    23878676.53947  23878676.910 3  93705050.293 3        33.100
  21631645.125 8 113675064.431 8        46.600                    88577995.32049
        36.600    21631647.86349
  20979306.344 9 110247013.131 9        53.500    20979312.672 9  85906838.26249
        55.000    20979312.27749  20979307.598 7  82327283.692 7        41.300
  20184890.063 9 106072326.385 9        51.800    20184896.359 9  82653790.97449
        55.600    20184895.95349  20184892.398 7  79209837.073 7        43.100
 21  1  3  0  8 30.0000000  0 11G21G23G16G07G15G08G26G18G20G10G27
  23229712.898 7 122072981.320 7        43.200                    95121812.05047
        28.600    23229716.39147
  21642075.367 8 113729880.856 8        47.400    21642079.680 9  88620710.02649
        38.300    21642079.15249  21642079.324 6  84928162.163 6        39.300
  21916433.664 8 115171643.844 8        47.600                    89744144.57649
        38.600    21916436.68049
  24762071.492 5 130125558.966 5        37.300    24762075.555 4 101396538.53245
        19.900    24762075.12145
  24607483.758 5 129313227.219 5        35.500    24607488.379 5 100763552.79547
        29.500    24607487.98047
  21728004.430 9 114181454.985 9        49.100    21728011.449 8  88972577.86149
        50.900    21728010.30549  21728006.340 6  85265397.792 6        39.000
  24091919.477 6 126603893.233 6        38.800    24091926.656 6  98652416.17549
        35.100    24091926.74649  24091922.645 2  94541875.621 2        31.200
  23896927.813 6 125579208.921 6        40.600    23896932.605 7  97853947.14047
        25.000    23896931.86747  23896932.703 3  93776689.647 3        32.700
  21642165.570 8 113730352.252 8        46.300                    88621076.74449
        37.000    21642168.84049
  20975675.836 9 110227934.708 9        53.000    20975682.340 9  85891971.96149
        55.400    20975681.87949  20975677.168 6  82313036.800 6        40.900
  20183964.695 9 106067462.461 9        51.300    20183970.891 9  82650000.90449
        55.200    20183970.28549  20183966.508 7  79206204.921 7        43.500
 21  1  3  0  9  0.0000000  0 11G21G23G16G07G15G08G26G18G20G10G27
  23215823.609 7 121999992.778 7        42.300                    95064937.86547
        27.900    23215827.48447
  21651351.313 8 113778627.193 8        47.200    21651355.453 9  88658694.18549
        38.600    21651355.23049  21651355.742 6  84964563.635 6        39.500
  21932938.820 9 115258378.483 9        48.000                    89811730.00449
        37.900    21932941.73049
  24767581.281 5 130154512.126 5        37.000    24767585.145 4 101419099.34945
        18.600    24767584.77345
  24612809.805 5 129341215.708 5        35.300    24612814.371 5 100785362.05847
        28.600    24612813.56347
  21714470.180 8 114110333.236 8        47.000    21714477.250 9  88917158.32349
        51.000    21714476.29749  21714472.297 6  85212287.404 6        39.700
  24113031.813 6 126714836.749 6        39.400    24113039.551 7  98738865.63749
        36.400    24113038.75049  24113034.539 2  94624723.040 2        31.800
  23915194.289 7 125675197.784 7        41.500    23915198.484 7  97928743.62747
        25.600    23915197.78547  23915198.293 2  93848369.623 2        31.400
  21652776.609 8 113786113.210 8        46.700                    88664526.83849
        36.600    21652780.10949
  20972154.695 9 110209429.658 9        53.800    20972160.590 9  85877552.45649
        56.100    20972160.57449  20972155.723 7  82299218.115 7        41.200
  20183119.781 9 106063023.889 9        50.900    20183126.121 9  82646542.27249
        55.100    20183125.59849  20183121.949 7  79202890.395 7        43.100
 21  1  3  0  9 30.0000000  0 11G21G23G16G07G15G08G26G18G20G10G27
  23201972.984 7 121927205.034 7        43.000                    95008220.16847
        28.200    23201976.09447
  21660727.578 8 113827901.584 8        47.200    21660732.383 9  88697089.82549
        37.800    21660731.66849  21660732.301 6  85001359.473 6        38.900
  21949515.477 8 115345491.538 8        47.300                    89879610.29649
        37.800    21949518.68049
  24773178.000 5 130183919.808 5        37.400    24773181.625 5 101442014.44645
        19.900    24773180.68445
  24618244.688 5 129369774.137 5        37.100    24618248.906 5 100807615.38147
        29.400    24618248.44147
  21700983.297 9 114039458.583 9        48.900    21700990.102 9  88861931.32049
        50.900    21700989.28549  21700985.484 6  85159361.504 6        39.200
  24134158.195 6 126825854.888 6        39.600    24134165.344 6  98825373.27949
        36.400    24134164.65249  24134160.871 2  94707626.21712        31.400
  23933470.367 6 125771239.892 6        40.400    23933474.836 7  98003581.62646
        23.800    23933474.37946  23933474.926 3  93920089.35813        32.100
  21663477.383 8 113842344.991 8        46.900                    88708343.80949
        36.900    21663480.63749
  20968742.406 9 110191498.397 9        53.700    20968748.488 9  85863580.05249
        55.300    20968748.08649  20968743.469 7  82285827.896 7        41.200
  20182356.555 9 106059011.428 9        50.900    20182362.738 9  82643415.68149
        55.800    20182362.14549  20182358.566 7  79199894.102 7        43.500
 21  1  3  0 10  0.0000000  0 11G21G23G16G07G15G08G26G18G20G10G27
  23188160.016 7 121854617.825 7        43.400                    94951658.73047
        29.100    23188162.98847
  21670204.523 9 113877701.839 9        48.000    21670208.828 9  88735895.21749
        37.800    21670208.21949  21670209.133 6  85038547.979 6        39.400
  21966163.789 8 115432979.913 8        47.000                    89947783.03249
        38.100    21966167.51649
  24778860.461 5 130213780.156 5        35.500    24778863.355 5 101465282.19445
        19.300    24778863.22345
  24623787.609 6 129398901.734 6        38.200    24623791.406 4 100830312.19648
        30.200    24623791.18848
  21687543.523 9 113968831.775 9        48.500    21687550.211 8  88806897.44349
        50.800    21687549.28149  21687545.832 6  85106620.734 6        39.500
  24155297.508 6 126936944.869 6        39.500    24155305.438 6  98911936.89649
        36.200    24155304.46949  24155299.711 2  94790582.96812        31.000
  23951755.945 6 125867333.905 6        39.300    23951761.090 7  98078460.03846
        24.100    23951760.64146  23951761.680 2  93991847.877 2        31.600
  21674267.078 8 113899045.622 8        46.200                    88752526.13249
        36.100    21674270.17249
  20965439.430 9 110174140.986 9        53.800    20965445.680 9  85850054.80649
        55.000    20965445.02049  20965440.727 7  82272866.209 7        41.000
  20181674.375 9 106055425.443 9        50.500    20181680.270 9  82640621.41149
        55.700    20181679.82049  20181676.230 7  79197216.252 7        43.900
 21  1  3  0 10 30.0000000  0 11G21G23G16G07G15G08G26G18G20G10G27
  23174385.414 7 121782231.648 7        43.000                    94895253.92847
        28.300    23174388.31347
  21679781.031 8 113928026.238 8        47.800    21679785.336 9  88775109.03349
        38.400    21679784.56349  21679785.504 6  85076127.867 6        39.200
  21982883.625 8 115520841.445 8        47.300                    90016246.56549
        38.300    21982886.91849
  24784627.547 5 130244092.287 5        35.800    24784631.832 4 101488901.97645
        17.800    24784632.10245
  24629438.172 5 129428597.802 5        37.800    24629442.398 3 100853451.97848
        30.200    24629441.62548
  21674151.000 9 113898454.880 9        48.100    21674158.301 8  88752058.30849
        50.700    21674157.11349  21674153.410 6  85054066.566 6        40.100
  24176450.531 6 127048104.385 6        39.900    24176458.035 6  98998554.69949
        36.700    24176457.68849  24176452.988 2  94873591.707 2        31.200
  23970052.758 6 125963478.741 6        40.300    23970056.984 7  98153378.05446
        24.500    23970056.30946  23970057.910 2  94063644.357 2        31.800
  21685145.719 8 113956213.050 8        46.300                    88797072.17149
        36.400    21685148.58649
  20962245.570 9 110157357.954 9        54.500    20962251.910 9  85836977.12449
        55.000    20962251.49649  20962246.871 7  82260333.426 7        41.100
  20181072.953 9 106052266.817 9        50.600    20181079.227 9  82638160.13949
        55.500    20181078.92249  20181075.152 7  79194857.537 7        43.600
 21  1  3  0 11  0.0000000  0 11G21G23G16G07G15G08G26G18G20G10G27
  23160649.133 7 121710046.845 7        43.200                    94839006.05647
        29.600    23160652.14147
  21689456.703 8 113978872.759 8        47.800    21689461.105 9  88814729.70449
        38.300    21689460.21149  21689461.359 6  85114097.689 6        39.500
  21999673.766 8 115609074.383 8        46.800                    90084999.49649
        37.800    21999677.12949
  24790482.109 5 130274853.658 5        37.900    24790484.930 3 101512871.93545
        17.800    24790484.97745
  24635198.063 5 129458861.392 5        37.600    24635202.113 5 100877034.00847
        29.300    24635201.37547
  21660807.188 9 113828329.082 9        48.000    21660813.621 9  88697414.84349
        51.000    21660812.64849  21660808.605 6  85001699.918 6        39.200
  24197615.133 6 127159330.945 6        39.000    24197624.117 6  99085224.75249
        35.500    24197623.54349  24197618.980 1  94956650.49311        29.900
  23988357.344 6 126059673.211 6        39.600    23988361.359 6  98228334.77446
        24.000    23988360.98046  23988362.707 3  94135477.741 3        32.700
  21696112.477 8 114013845.252 8        47.200                    88841980.38949
        37.100    21696115.63349
  20959161.484 9 110141149.548 9        53.900    20959167.496 9  85824347.21649
        55.300    20959167.27749  20959162.426 7  82248229.753 7        41.400
  20180553.336 9 106049536.180 9        50.400    20180559.727 9  82636032.36549
        55.400    20180559.14549  20180555.387 7  79192818.423 7        43.500
 21  1  3  0 11 30.0000000  0 11G21G23G16G07G15G08G26G18G20G10G27
  23146951.297 7 121638063.778 7        43.400                    94782915.36648
        30.200    23146954.19948
  21699231.383 8 114030239.423 8        46.800    21699235.926 9  88854755.67449
        37.900    21699235.32049  21699235.871 6  85152455.888 6        39.200
  22016533.867 8 115697675.564 8        47.700                    90154039.35849
        38.000    22016537.22749
  24796420.750 5 130306062.858 5        37.500    24796425.262 5 101537190.72145
        17.800    24796423.20345
  24641064.609 5 129489691.557 5        36.700    24641068.188 5 100901057.49747
        29.300    24641068.24247
  21647510.508 8 113758456.782 8        47.800    21647517.367 9  88642968.89449
        51.300    21647516.46549  21647512.121 6  84949522.539 6        39.100
  24218794.742 6 127270622.045 6        40.300    24218801.840 6  99171945.05249
        35.500    24218801.08249  24218797.379 1  95039757.49411        30.900
  24006671.672 6 126155916.129 6        39.000    24006676.297 6  98303329.28446
        22.800    24006675.74246  24006676.766 2  94207347.490 2        31.500
  21707167.750 8 114071940.417 8        46.600                    88887249.35549
        36.700    21707170.96549
  20956186.547 9 110125516.048 9        54.300    20956192.480 9  85812165.27749
        55.200    20956192.16049  20956187.477 6  82236555.394 6        40.900
  20180115.375 9 106047234.179 9        51.500    20180121.641 9  82634238.60249
        55.400    20180121.10249  20180117.352 7  79191099.390 7        43.000
 21  1  3  0 12  0.0000000  0 11G21G23G16G07G15G08G26G18G20G10G27
  23133291.805 7 121566282.794 7        43.200                    94726982.14547
        28.900    23133294.45347
  21709104.633 8 114082124.317 8        47.300    21709109.359 9  88895185.46749
        38.600    21709108.65249  21709109.363 6  85191201.113 6        39.300
  22033463.570 8 115786642.408 8        47.000                    90223364.17649
        37.300    22033466.68849
  24802444.211 5 130337718.219 5        35.400    24802448.102 5 101561857.18045
        18.300    24802447.30145
  24647039.117 4 129521087.638 4        34.500    24647043.020 5 100925522.00347
        27.700    24647041.94547
  21634262.563 9 113688839.169 9        48.600    21634269.492 9  88588721.40149
        51.300    21634268.51249  21634264.445 6  84897535.351 6        39.600
  24239983.766 6 127381975.228 6        38.600    24239991.926 6  99258713.74749
        35.400    24239991.32049  24239986.215 1  95122910.828 1        30.500
  24024994.594 5 126252206.489 5        37.400    24025000.328 7  98378360.66546
        21.800    24024999.44946  24025001.016 3  94279252.648 3        32.600
  21718310.555 8 114130496.237 8        46.400                    88932877.26349
        36.600    21718313.77349
  20953320.852 9 110110457.782 9        53.900    20953326.969 9  85800431.57249
        55.000    20953326.55949  20953321.578 7  82225310.627 7        41.300
  20179759.203 9 106045361.539 9        51.100    20179765.207 9  82632779.39849
        55.700    20179764.65249  20179761.035 7  79189700.969 7        43.400
 21  1  3  0 12 30.0000000  0 11G21G23G16G07G15G08G26G18G20G10G27
  23119670.539 7 121494704.050 7        42.400                    94671206.52147
        28.300    23119673.08647
  21719076.203 8 114134525.703 8        47.100    21719080.918 9  88936017.71749
        38.000    21719080.17249  21719080.969 6  85230332.032 6        39.200
  22050463.141 8 115875973.263 8        47.500                    90292972.62049
        37.900    22050466.12549
  24808552.211 5 130369817.647 5        37.000    24808556.492 5 101586869.68645
        18.300    24808556.22745
  24653120.578 5 129553048.878 5        35.000    24653124.848 4 100950426.94147
        27.300    24653124.04347
  21621063.734 8 113619478.456 8        47.900    21621070.695 9  88534674.09049
        51.300    21621069.52349  21621065.934 6  84845740.027 6        39.800
  24261185.063 6 127493388.290 6        38.600    24261192.582 7  99345529.11249
        35.400    24261191.89549  24261187.434 1  95206108.806 1        29.800
  24043327.648 6 126348543.255 6        39.200    24043331.551 7  98453428.28646
        22.800    24043331.81346  24043333.078 3  94351192.429 3        32.600
  21729540.859 8 114189510.886 8        47.000                    88978862.70649
        37.300    21729543.88349
  20950565.055 9 110095975.174 9        53.700    20950570.824 9  85789146.43249
        55.600    20950570.53149  20950565.906 7  82214495.680 7        41.100
  20179484.125 9 106043919.076 9        51.500    20179490.738 9  82631655.40049
        55.700    20179490.24249  20179486.688 7  79188623.820 7        43.400
 21  1  3  0 13  0.0000000  0 11G21G23G16G07G15G08G26G18G20G10G27
  23106088.336 7 121423327.848 7        43.200                    94615588.69947
        28.400    23106091.10947
  21729146.055 8 114187441.319 8        46.800    21729150.258 9  88977250.66749
        37.800    21729149.62149  21729150.531 6  85269846.958 6        38.600
  22067530.789 8 115965664.954 8        47.800                    90362862.25949
        37.900    22067533.98449
  24814745.156 5 130402359.694 5        35.800    24814749.402 5 101612227.04445
        17.400    24814748.53945
  24659309.336 5 129585574.423 5        35.800    24659313.969 4 100975771.54347
        28.500    24659313.77047
  21607913.969 9 113550376.024 9        48.400    21607921.176 9  88480828.04849
        51.200    21607919.61349  21607916.539 6  84794137.537 6        39.900
  24282396.953 6 127604858.464 6        38.600    24282404.273 6  99432388.97449
        35.200    24282404.40249  24282400.039 1  95289349.55011        29.900
  24061667.500 6 126444925.128 6        38.900    24061672.801 7  98528531.03646
        22.500    24061672.59446  24061673.727 3  94423165.898 3        32.700
  21740857.938 8 114248982.467 8        47.000                    89025204.19549
        36.700    21740861.12549
  20947918.570 9 110082068.221 9        54.300    20947924.609 9  85778309.85249
        55.500    20947924.44949  20947919.695 6  82204110.637 6        40.800
  20179291.617 9 106042907.227 9        51.100    20179298.258 9  82630866.93849
        56.100    20179297.68849  20179293.875 7  79187868.216 7        43.700
 21  1  3  0 13 30.0000000  0 11G21G23G16G07G15G08G26G18G20G10G27
  23092543.961 7 121352154.282 7        43.200                    94560128.79047
        29.300    23092547.52047
  21739313.141 8 114240869.153 8        47.000    21739317.273 8  89018882.75249
        38.100    21739316.57049  21739317.750 6  85309744.342 6        39.500
  22084666.438 8 116055714.936 8        47.500                    90433031.07049
        37.400    22084670.34849
  24821022.219 5 130435342.594 5        37.800    24821026.227 5 101637927.98545
        19.000    24821025.58245
  24665606.391 6 129618663.044 6        38.700    24665610.875 4 101001554.89347
        29.800    24665609.67647
  21594813.633 8 113481532.795 8        47.300    21594820.609 9  88427183.97949
        51.400    21594819.14149  21594816.125 6  84742728.674 6        40.100
  24303620.211 6 127716383.294 6        40.200    24303627.828 6  99519291.43649
        36.700    24303627.28949  24303622.855 1  95372631.06611        30.100
  24080017.578 6 126541350.924 6        39.200    24080021.945 6  98603668.01846
        22.800    24080021.23846  24080022.527 3  94495172.052 3        32.600
  21752261.141 8 114308908.682 8        46.300                    89071899.96049
        36.600    21752264.35249
  20945381.852 9 110068737.105 9        53.000    20945387.781 9  85767921.98649
        54.900    20945387.54749  20945383.090 7  82194155.607 7        41.500
  20179181.773 9 106042326.636 9        50.900    20179187.695 9  82630414.52749
        56.100    20179187.19149  20179183.445 7  79187434.670 7        43.600
 21  1  3  0 14  0.0000000  0 11G21G23G16G07G15G08G26G18G20G10G27
  23079039.234 7 121281183.795 7        44.100                    94504827.12647
        29.300    23079041.70747
  21749576.789 8 114294806.991 8        46.700    21749581.406 9  89060912.23549
        37.600    21749580.74249  21749581.402 6  85350022.606 6        38.900
  22101870.328 8 116146120.966 8        47.400                    90503477.31149
        37.000    22101873.91449
  24827381.766 5 130468763.951 5        37.800    24827386.410 4 101663970.63245
        19.000    24827385.37545
  24672010.563 6 129652313.557 6        39.100    24672014.406 5 101027776.08048
        31.800    24672014.36748
  21581762.859 8 113412950.522 8        47.500    21581769.512 9  88373743.25849
        51.500    21581768.55149  21581765.270 6  84691514.641 6        39.600
  24324853.023 6 127827960.118 6        38.600    24324859.387 6  99606234.41849
        34.900    24324858.92649  24324854.719 1  95455951.421 1        29.800
  24098374.531 6 126637819.396 6        39.600    24098379.793 7  98678838.25046
        22.800    24098378.93046  24098379.348 3  94567210.264 3        32.500
  21763751.125 8 114369287.403 8        45.800                    89118948.30949
        35.900    21763754.16849
  20942954.484 9 110055981.848 9        53.200    20942960.406 9  85757982.83049
        55.100    20942960.28949  20942955.535 7  82184630.586 7        41.100
  20179152.875 9 106042177.721 9        51.600    20179159.281 9  82630298.48649
        55.200    20179158.77749  20179155.141 7  79187323.451 7        43.800
 21  1  3  0 14 30.0000000  0 11G21G23G16G07G15G08G26G18G20G10G27
  23065572.445 7 121210416.642 7        43.800                    94449683.90547
        29.600    23065575.31347
  21759937.570 8 114349253.174 8        46.600    21759942.277 8  89103337.84049
        37.900    21759941.49249  21759942.516 6  85390680.498 6        38.300
  22119140.961 8 116236880.250 8        47.300                    90574198.81849
        37.700    22119144.42649
  24833825.633 5 130502622.622 5        37.100    24833828.777 4 101690353.96645
        18.600    24833828.27045
  24678521.391 6 129686525.364 6        39.300    24678524.973 5 101054434.67948
        32.100    24678524.37948
  21568761.930 8 113344631.476 8        47.800    21568768.988 9  88320507.64149
        51.700    21568767.80149  21568764.215 6  84640497.199 6        40.000
  24346094.461 6 127939586.979 6        38.900    24346101.543 6  99693216.36949
        34.700    24346101.15249  24346096.195 1  95539309.15311        29.800
  24116740.125 6 126734329.791 6        40.600    24116745.168 7  98754041.13146
        24.500    24116744.93046  24116745.105 3  94639279.702 3        32.900
  21775326.453 8 114430116.656 8        46.900                    89166347.73449
        36.700    21775329.42249
  20940636.844 9 110043802.962 9        53.100    20940642.930 9  85748492.79949
        55.000    20940642.77749  20940637.945 7  82175535.975 7        41.700
  20179207.031 9 106042461.499 9        50.900    20179213.344 9  82630519.61249
        55.000    20179212.96149  20179209.039 7  79187535.354 7        43.400
 21  1  3  0 15  0.0000000  0 11G21G23G16G07G15G08G26G18G20G10G27
  23052144.227 7 121139852.903 7        43.800                    94394699.18347
        29.700    23052147.62147
  21770394.508 8 114404205.539 8        46.500    21770399.023 9  89146157.87249
        38.400    21770398.66449  21770399.832 6  85431716.352 6        38.900
  22136479.133 8 116327990.380 8        47.200                    90645193.72849
        37.000    22136481.94949
  24840350.391 4 130536916.551 4        34.800    24840354.863 3 101717076.48945
        16.300    24840354.71145
  24685136.477 5 129721297.569 5        37.300    24685141.027 5 101081529.92948
        30.500    24685140.68448
  21555811.711 8 113276577.222 8        47.900    21555818.699 9  88267478.35349
        51.800    21555817.41849  21555813.617 6  84589677.469 6        40.100
  24367346.297 6 128051261.171 6        39.200    24367352.961 6  99780235.20249
        35.700    24367352.46549  24367348.125 1  95622702.15911        30.600
  24135113.430 6 126830880.909 6        39.800    24135118.684 7  98829275.75246
        24.500    24135117.52046  24135119.234 3  94711379.550 3        32.800
  21786987.469 8 114491394.241 8        46.300                    89214096.50749
        36.100    21786990.14849
  20938428.867 9 110032200.450 9        53.000    20938434.887 9  85739451.89149
        54.900    20938434.64849  20938430.035 7  82166871.779 7        41.600
  20179343.539 9 106043178.475 9        51.600    20179349.852 9  82631078.28949
        55.900    20179349.32049  20179345.641 7  79188070.758 7        43.200
 21  1  3  0 15 30.0000000  0 11G21G23G16G07G15G08G26G18G20G10G27
  23038755.781 7 121069492.912 7        44.500                    94339873.21948
        31.000    23038758.73048
  21780947.742 8 114459661.767 8        46.800    21780952.531 9  89189370.51349
        37.900    21780951.68849  21780952.500 6  85473128.461 6        39.200
  22153883.102 8 116419448.963 8        47.300                    90716460.15949
        37.700    22153886.11349
  24846960.594 5 130571643.525 5        35.600    24846963.531 4 101744136.43645
        17.800    24846962.94945
  24691860.109 5 129756628.662 5        36.600    24691864.633 5 101109060.71147
        29.000    24691863.93847
  21542911.938 8 113208789.002 8        47.800    21542919.121 9  88214656.36549
        51.800    21542917.68849  21542914.301 6  84539056.388 6        39.700
  24388603.148 5 128162980.002 5        35.500    24388611.164 6  99867288.81748
        31.800    24388610.84848  24388606.926 1  95706128.517 1        30.300
  24153493.688 6 126927471.367 6        38.800    24153498.746 6  98904541.03446
        22.000    24153497.21546  24153499.313 3  94783508.760 3        32.600
  21798732.805 8 114553118.114 8        46.400                    89262193.03249
        36.200    21798736.14849
  20936330.672 9 110021174.169 9        53.100    20936336.578 9  85730859.99249
        55.100    20936336.56349  20936331.832 7  82158637.866 7        41.700
  20179562.305 9 106044328.949 9        51.300    20179568.816 9  82631974.75749
        55.800    20179568.11749  20179564.625 7  79188929.876 7        43.300
 21  1  3  0 16  0.0000000  0 11G21G23G16G07G15G08G26G18G20G10G27
  23025405.875 8 120999337.342 8        45.300                    94285206.53548
        30.400    23025409.37548
  21791596.344 8 114515620.182 8        47.500    21791600.777 8  89232974.47549
        37.900    21791600.14549  21791600.621 6  85514915.616 6        38.600
  22171353.000 8 116511253.982 8        47.300                    90787996.53249
        36.900    22171356.10249
  24853650.148 5 130606802.154 5        35.200    24853654.129 5 101771532.77545
        17.800    24853653.39545
  24698690.992 5 129792518.258 5        37.700    24698693.875 5 101137026.69647
        28.900    24698694.06647
  21530063.414 9 113141269.043 9        48.100    21530070.594 9  88162043.41449
        51.900    21530069.28949  21530065.531 6  84488635.631 6        39.700
  24409871.852 5 128274741.488 5        37.600    24409879.559 6  99954375.68349
        34.300    24409878.63749  24409874.223 1  95789586.79111        29.400
  24171882.031 6 127024100.556 6        38.400    24171886.313 6  98979836.47646
        22.500    24171885.39546  24171887.160 3  94855666.883 3        32.600
  21810563.172 8 114615286.511 8        46.900                    89310635.92849
        35.700    21810566.11349
  20934342.148 9 110010724.656 9        52.800    20934348.242 9  85722717.51649
        55.100    20934348.25449  20934343.063 7  82150834.660 7        41.200
  20179864.000 9 106045913.983 9        51.400    20179870.602 9  82633209.83949
        55.800    20179869.60249  20179866.148 7  79190113.494 7        43.700
 21  1  3  0 16 30.0000000  0 11G21G23G16G07G15G08G26G18G20G10G27
  23012093.930 7 120929385.941 7        44.300                    94230698.96948
        30.200    23012097.71148
  21802340.078 8 114572078.439 8        46.700    21802344.137 9  89276967.92849
        37.500    21802343.76249  21802344.199 6  85557075.985 6        39.000
  22188888.148 8 116603402.397 8        47.100                    90859800.48149
        37.200    22188891.77749
  24860420.789 3 130642390.227 3        33.800    24860426.152 5 101799263.72045
        17.800    24860426.27745
  24705626.461 6 129828964.781 6        38.000    24705630.059 4 101165426.67447
        28.900    24705628.51647
  21517266.375 9 113074018.538 9        48.100    21517272.887 9  88109640.42249
        51.800    21517272.09849  21517268.480 6  84438416.119 6        40.300
  24431148.164 6 128386542.866 6        39.200    24431154.813 6 100041493.59849
        35.800    24431154.64149  24431149.992 2  95873074.86012        31.800
  24190277.422 6 127120767.076 6        38.600    24190281.789 7  99055161.05646
        23.000    24190280.77046  24190282.445 3  94927852.952 3        32.400
  21822477.805 8 114677897.023 8        46.800                    89359423.35049
        35.800    21822480.25849
  20932463.180 9 110000851.696 9        53.000    20932469.492 9  85715024.32049
        55.100    20932469.58649  20932464.879 7  82143462.015 7        41.600
  20180248.680 9 106047933.890 9        51.600    20180254.781 9  82634783.78949
        55.300    20180254.00449  20180250.445 7  79191621.875 7        43.000
 21  1  3  0 17  0.0000000  0 11G21G23G16G07G15G08G26G18G20G10G27
  22998821.023 7 120859639.058 7        42.400                    94176350.78047
        29.700    22998825.00447
  21813178.180 8 114629034.579 8        46.900    21813182.742 8  89321349.34249
        37.500    21813181.95749  21813182.672 6  85599608.161 6        38.600
  22206488.953 8 116695891.435 8        47.800                    90931869.83849
        37.100    22206491.43449
  24867274.484 3 130678406.040 3        33.700    24867279.781 3 101827327.92745
        16.300    24867278.76645
  24712667.414 6 129865967.669 6        38.300    24712670.613 3 101194260.03747
        27.900    24712669.20747
  21504520.633 9 113007039.468 9        48.100    21504527.184 9  88057448.94049
        51.900    21504526.53549  21504522.520 6  84388399.286 6        40.400
  24452429.102 5 128498381.844 5        37.500    24452436.625 6 100128640.83248
        33.600    24452436.30548  24452431.941 1  95956590.88011        30.400
  24208678.867 6 127217470.018 6        38.100    24208683.809 7  99130513.94446
        23.000    24208683.77046  24208684.047 2  95000066.14212        31.800
  21834475.805 8 114740947.365 8        46.200                    89408553.50149
        35.800    21834478.63349
  20930694.242 9 109991555.441 9        52.700    20930700.496 9  85707780.49549
        56.100    20930700.50049  20930695.891 7  82136520.022 7        41.300
  20180715.586 9 106050389.400 9        51.400    20180722.215 9  82636697.17449
        55.600    20180721.36749  20180717.902 7  79193455.535 7        43.900
 21  1  3  0 17 30.0000000  0 11G21G23G16G07G15G08G26G18G20G10G27
  22985587.898 7 120790096.991 7        43.000                    94122162.17448
        30.300    22985590.93448
  21824111.219 8 114686486.620 8        47.200    21824115.555 8  89366117.16949
        37.500    21824114.71949  21824115.574 6  85642510.698 6        38.700
  22224152.836 8 116788719.085 8        47.900                    91004203.07949
        36.300    22224156.14149
  24874210.617 5 130714847.771 5        36.300    24874213.570 3 101855724.12045
        16.300    24874212.53145
  24719813.945 5 129903525.276 5        37.900    24719817.313 3 101223525.71347
        27.500    24719816.87547
  21491826.320 8 112940333.288 8        47.600    21491833.605 9  88005470.10349
        51.900    21491832.55149  21491828.750 6  84338586.224 6        40.100
  24473717.813 6 128610256.095 6        39.400    24473725.586 6 100215815.58249
        34.300    24473724.50049  24473720.473 1  96040133.39011        30.100
  24227086.938 5 127314208.411 5        36.800    24227092.906 7  99205894.47346
        22.300    24227092.04346  24227092.797 3  95072305.844 3        32.600
  21846557.094 8 114804436.142 8        45.700                    89458025.27849
        35.700    21846560.40249
  20929035.109 9 109982836.105 9        52.200    20929041.305 9  85700986.21149
        55.200    20929041.03549  20929036.488 7  82130008.837 7        41.200
  20181266.203 9 106053281.197 9        51.300    20181272.309 9  82638950.51349
        56.000    20181271.67649  20181268.219 7  79195614.978 7        44.000
 21  1  3  0 18  0.0000000  0 11G21G23G16G07G15G08G26G18G20G10G27
  22972393.352 7 120720759.980 7        43.500                    94068133.35747
        29.600    22972396.94947
  21835137.875 8 114744432.155 8        47.900    21835142.324 9  89411269.54249
        38.000    21835141.73049  21835142.297 6  85685781.704 6        38.900
  22241881.172 8 116881881.856 8        47.000                    91076797.44449
        36.700    22241884.14149
  24881225.188 5 130751713.226 5        37.100    24881229.313 3 101884450.42245
        19.600    24881228.70345
  24727065.859 5 129941636.901 5        36.400    24727069.715 4 101253223.05547
        28.600    24727069.72747
  21479185.117 8 112873901.565 8        47.600    21479192.066 9  87953705.13349
