     2.11           OBSERVATION DATA    G (GPS)             RINEX VERSION / TYPE
teqc  2015Jun23                         20150825 00:11:18UTCPGM / RUN BY / DATE
ZIMM                                                        MARKER NAME
14001M004                                                   MARKER NUMBER
TRIMBLE NETR9       SWISSTOPO                               OBSERVER / AGENCY
5429R49141          TRIMBLE NETR9       5.03                REC # / TYPE / VERS
99390               TRM29659.00     NONE                    ANT # / TYPE
  4331297.3384   567555.6379  4633133.7172                  APPROX POSITION XYZ
        0.0000        0.0000        0.0000                  ANTENNA: DELTA H/E/N
     1     1                                                WAVELENGTH FACT L1/2
    10    C1    L1    S1    C2    L2    S2    P2    C5    L5# / TYPES OF OBSERV
          S5                                                # / TYPES OF OBSERV
    30.0000                                                 INTERVAL
Linux2.6.32-279.el6.x86_64|x86_64|gcc|Win64-MinGW64|=       COMMENT
     2.11           OBSERVATION DATA    M (MIXED)           COMMENT
NetR9 5.03          Receiver Operator   24-AUG-15 00:00:00  COMMENT
L2C CARRIER PHASE MEASUREMENTS: PHASE SHIFTS REMOVED        COMMENT
L2C PHASE MATCHES L2 P PHASE                                COMMENT
GLONASS C/A & P PHASE MATCH: PHASE SHIFTS REMOVED           COMMENT
GIOVE-A if present is mapped to satellite ID 51             COMMENT
GIOVE-B if present is mapped to satellite ID 52             COMMENT
Forced Modulo Decimation to 30 seconds                      COMMENT
teqc edited: all GLONASS satellites excluded                COMMENT
teqc edited: all Galileo satellites excluded                COMMENT
  2015     8    24     0     0    0.0000000     GPS         TIME OF FIRST OBS
                                                            END OF HEADER
 15  8 24  0  0  0.0000000  0  9G05G07G02G20G28G06G30G09G13
  21193504.039 9 111372613.928 9        51.700    21193507.895 9  86783909.91249
        44.300    21193507.36349
  20686589.570 9 108708797.637 9        51.400    20686593.781 9  84708184.85949
        45.600    20686593.14149
  22710247.281 8 119343171.133 8        45.200                    92994692.37048
        33.900    22710249.47748
  24963671.789 6 131184983.815 6        39.000                   102222076.58345
        19.600    24963674.85945
  24241954.852 7 127392333.433 7        41.800                    99266777.58846
        22.500    24241958.88746
  24488823.141 6 128689579.665 6        40.000    24488831.723 6 100277684.66946
        22.900    24488830.63346  24488828.027 1  96099450.095 1        28.600
  20429022.680 9 107355273.446 9        55.100    20429029.633 9  83653501.34049
        48.000    20429029.09849  20429026.371 7  80167927.957 7        43.000
  22567336.852 8 118592202.571 8        46.600    22567343.676 8  92409565.11049
        34.800    22567343.46949  22567341.449 5  88559164.337 5        36.800
  23397760.461 7 122956066.841 7        44.000                    95809947.78047
        28.100    23397764.09847
 15  8 24  0  0 30.0000000  0  9G05G07G02G20G28G06G30G09G13
  21183670.172 9 111320937.143 9        51.200    21183674.906 9  86743642.29049
        44.300    21183674.08249
  20693253.344 9 108743815.901 9        51.900    20693257.219 9  84735471.82749
        45.600    20693256.56349
  22723194.875 7 119411209.988 7        44.600                    93047709.66148
        33.800    22723196.35948
  24943165.422 6 131077221.167 6        38.900                   102138105.65045
        18.600    24943169.09445
  24223070.648 6 127293098.962 6        40.600                    99189452.06945
        19.600    24223074.59845
  24509099.125 6 128796134.367 6        39.500    24509108.039 7 100360714.29747
        25.000    24509107.04747  24509105.090 1  96179020.120 1        29.900
  20423132.320 9 107324318.956 9        54.500    20423139.352 9  83629380.97549
        48.100    20423138.37949  20423135.707 7  80144812.603 7        43.100
  22582336.273 8 118671022.931 8        47.000    22582342.078 8  92470983.55749
        36.200    22582341.94549  22582339.219 5  88618023.686 5        36.900
  23380904.219 7 122867485.809 7        44.000                    95740923.60647
        29.000    23380907.70347
 15  8 24  0  1  0.0000000  0  9G05G07G02G20G28G06G30G09G13
  21173921.992 9 111269709.430 9        50.700    21173926.105 9  86703724.59849
        44.600    21173925.72749
  20700002.258 9 108779282.811 9        50.800    20700006.547 9  84763108.38449
        45.600    20700005.91849
  22736212.078 7 119479617.531 7        43.500                    93101014.23848
        33.600    22736214.51248
  24922676.352 6 130969551.947 6        38.100                   102054207.55345
        19.300    24922680.42245
  24204197.422 6 127193919.922 6        40.600                    99112169.74746
        22.500    24204202.02746
  24529379.453 6 128902706.632 6        40.100    24529387.922 6 100443757.59446
        21.800    24529386.69146  24529384.906 1  96258603.245 1        27.800
  20417340.547 9 107293883.910 9        55.000    20417347.797 9  83605665.37149
        48.200    20417347.11349  20417344.445 7  80122085.153 7        43.400
  22597367.156 8 118750011.305 8        47.300    22597373.262 8  92532532.92349
        35.900    22597373.02049  22597370.527 5  88677008.487 5        36.400
  23364070.219 7 122779023.071 7        43.300                    95671991.60147
        28.600    23364073.91447
 15  8 24  0  1 30.0000000  0  9G05G07G02G20G28G06G30G09G13
  21164259.344 9 111218932.612 9        51.300    21164263.691 9  86664158.25049
        44.300    21164263.44149
  20706836.570 9 108815197.047 9        51.400    20706840.598 9  84791093.50349
        45.300    20706839.98849
  22749299.445 7 119548391.373 7        44.600                    93154604.24048
        33.700    22749301.35548
  24902205.234 5 130861978.079 5        37.700                   101970383.73145
        16.300    24902208.56645
  24185335.742 7 127094799.165 7        41.400                    99034932.88146
        23.600    24185340.28146
  24549662.289 6 129009293.463 6        39.100    24549671.547 6 100526812.24846
        22.800    24549670.49646  24549668.125 1  96338197.319 1        29.600
  20411647.984 9 107263968.504 9        55.500    20411655.234 9  83582354.67949
        48.500    20411654.24649  20411651.691 7  80099745.753 7        42.700
  22612429.797 8 118829166.991 8        47.500    22612436.438 8  92594212.66349
        36.600    22612436.50449  22612433.605 5  88736118.236 5        36.600
  23347258.141 7 122690679.116 7        44.300                    95603152.17447
        28.700    23347262.33647
 15  8 24  0  2  0.0000000  0  9G05G07G02G20G28G06G30G09G13
  21154683.078 9 111168608.941 9        52.000    21154687.348 9  86624945.00049
        44.500    21154686.97749
  20713755.766 9 108851557.000 9        52.500    20713760.129 9  84819425.94549
        45.200    20713759.68049
  22762456.242 8 119617528.704 8        45.500                    93208477.49248
        33.900    22762457.80548
  24881752.844 5 130754501.738 5        37.500                   101886635.97045
        18.300    24881756.79345
  24166484.031 6 126995739.696 6        40.700                    98957743.73646
        21.300    24166488.50846
  24569947.313 6 129115892.296 6        39.000    24569956.344 6 100609876.19246
        21.300    24569955.59446  24569953.520 2  96417800.277 2        31.100
  20406054.320 9 107234573.174 9        55.400    20406061.234 9  83559449.24649
        48.300    20406060.48049  20406057.750 7  80077794.707 7        43.000
  22627524.711 8 118908489.429 8        47.600    22627531.023 8  92656022.33149
        35.800    22627530.56649  22627528.660 5  88795352.496 5        36.800
  23330469.641 7 122602454.761 7        43.900                    95534405.91747
        28.900    23330473.75447
 15  8 24  0  2 30.0000000  0  9G05G07G02G20G28G06G30G09G13
  21145193.313 9 111118739.822 9        51.200    21145197.777 9  86586085.94949
        44.700    21145196.93449
  20720759.063 9 108888361.066 9        51.500    20720763.262 9  84848104.44349
        45.400    20720762.85949
  22775681.023 7 119687026.706 7        44.100                    93262631.78048
        33.500    22775682.60548
  24861320.625 5 130647125.096 5        37.200                   101802965.85445
        18.300    24861322.97745
  24147647.211 7 126896744.231 7        41.800                    98880604.46846
        22.600    24147650.52746
  24590234.641 6 129222499.994 6        40.600    24590243.340 6 100692947.11946
        23.000    24590241.90246  24590240.410 1  96497409.860 1        30.200
  20400559.477 9 107205697.990 9        55.800    20400566.898 9  83536949.11649
        48.400    20400566.14849  20400563.418 7  80056232.091 7        43.200
  22642650.297 8 118987977.777 8        47.500    22642656.582 8  92717961.28949
        35.800    22642656.48049  22642654.164 5  88854710.659 5        36.600
  23313704.664 7 122514350.791 7        44.500                    95465753.49247
        29.100    23313708.78547
 15  8 24  0  3  0.0000000  0  9G05G07G02G20G28G06G30G09G13
  21135790.469 9 111069327.369 9        51.000    21135794.445 9  86547582.74049
        44.700    21135793.90249
  20727847.141 9 108925607.635 9        52.200    20727851.051 9  84877127.74049
        45.400    20727850.66449
  22788974.063 8 119756882.481 8        45.200                    93317064.84548
        33.700    22788975.69948
  24840906.086 5 130539850.479 5        36.700                   101719375.27445
        19.900    24840909.31345
  24128820.789 7 126797815.611 7        42.100                    98803517.27346
        21.800    24128825.44946
  24610521.867 6 129329113.667 6        38.500    24610531.652 7 100776022.71946
        24.300    24610530.12546  24610527.578 1  96577023.961 1        28.500
  20395163.609 9 107177343.163 9        55.200    20395170.828 9  83514854.45649
        48.200    20395169.94149  20395167.211 7  80035058.042 7        42.500
  22657808.141 8 119067631.305 8        47.500    22657814.773 8  92780028.96649
        35.700    22657814.14549  22657812.063 5  88914192.178 5        36.300
  23296961.641 8 122426367.895 8        46.400                    95397195.40047
        29.000    23296965.77747
 15  8 24  0  3 30.0000000  0  9G05G07G02G20G28G06G30G09G13
  21126474.766 9 111020373.641 9        50.400    21126479.336 9  86509436.98349
        44.800    21126478.69949
  20735018.555 9 108963295.076 9        52.100    20735022.914 9  84906494.58749
        45.200    20735022.23849
  22802335.188 8 119827093.576 8        45.000                    93371774.78648
        33.300    22802336.35248
  24820512.969 5 130432679.877 5        35.800                   101635865.74945
        18.300    24820515.50045
  24110009.102 7 126698956.621 7        41.100                    98726484.36746
        24.200    24110013.58246
  24630810.797 7 129435730.534 7        41.200    24630819.547 7 100859100.69247
        25.900    24630818.73847  24630815.781 1  96656640.431 1        29.000
  20389867.063 9 107149509.016 9        55.200    20389874.027 9  83493165.52849
        48.200    20389873.29349  20389870.801 7  80014272.823 7        42.900
  22672996.805 8 119147449.483 8        46.600    22673003.695 8  92842224.92649
        35.600    22673003.35949  22673000.867 5  88973796.638 5        36.900
  23280242.281 8 122338506.783 8        45.800                    95328732.18747
        28.900    23280246.62147
 15  8 24  0  4  0.0000000  0  9G05G07G02G20G28G06G30G09G13
  21117246.727 9 110971880.328 9        51.000    21117251.297 9  86471649.99049
        44.800    21117250.71549
  20742274.242 9 109001421.851 9        51.000    20742278.078 9  84936203.76649
        45.500    20742277.66449
  22815762.664 7 119897657.012 7        44.400                    93426759.27248
        32.700    22815764.66448
  24800138.938 5 130325615.725 5        37.000                   101552439.11945
        17.800    24800142.14845
  24091210.867 7 126600170.096 7        42.600                    98649507.94346
        22.000    24091214.77346
  24651099.945 6 129542347.865 6        40.100    24651108.418 6 100942179.14446
        24.700    24651106.96946  24651105.652 1  96736257.247 1        30.700
  20384669.438 9 107122195.850 9        54.900    20384676.535 9  83471882.55449
        48.400    20384675.59449  20384673.039 7  79993876.643 7        43.100
  22688217.328 8 119227431.714 8        46.700    22688223.590 8  92904548.71649
        34.900    22688223.05949  22688221.152 5  89033523.607 5        36.500
  23263545.781 8 122250768.260 8        45.200                    95260364.52147
        28.900    23263550.46147
 15  8 24  0  4 30.0000000  0  9G05G07G02G20G28G06G30G09G13
  21108106.781 9 110923848.992 9        51.400    21108111.520 9  86434222.98249
        45.000    21108110.80149
  20749612.875 9 109039986.384 9        51.600    20749616.684 9  84966254.05449
        45.200    20749615.78549
  22829256.891 8 119968570.108 8        45.100                    93482016.22148
        32.600    22829258.49648
  24779785.305 5 130218660.30615        36.800                   101469097.25455
        18.600    24779788.96545
  24072425.727 7 126501458.899 7        41.400                    98572590.11846
        22.500    24072430.48446
  24671387.641 6 129648962.657 6        38.700    24671396.586 6 101025255.58746
        23.200    24671395.54746  24671393.820 1  96815872.106 1        30.400
  20379571.023 9 107095403.657 9        54.800    20379577.863 9  83451005.53849
        48.300    20379577.15249  20379574.656 7  79973869.504 7        43.100
  22703468.664 8 119307577.084 8        47.300    22703474.484 8  92966999.63549
        35.000    22703473.96549  22703471.824 5  89093372.401 5        36.400
  23246873.297 7 122163152.666 7        43.500                    95192092.64047
        29.800    23246877.34847
 15  8 24  0  5  0.0000000  0  9G05G07G02G20G28G06G30G09G13
  21099055.211 9 110876282.426 9        51.300    21099059.488 9  86397158.12549
        44.200    21099058.96949
  20757034.102 9 109078987.216 9        50.800    20757038.984 9  84996644.31749
        44.900    20757038.28149
  22842817.086 7 120039830.302 7        43.700                    93537543.62448
        33.200    22842819.06348
  24759453.867 5 130111815.171 5        35.400                   101385841.34745
        17.400    24759457.93045
  24053657.172 7 126402826.267 7        41.400                    98495733.60546
        24.500    24053661.60546
  24691674.633 5 129755572.201 5        37.300    24691683.652 7 101108327.88246
        22.600    24691682.76646  24691679.984 1  96895483.095 1        28.300
  20374572.008 9 107069132.722 9        55.000    20374578.816 9  83430534.69049
        48.800    20374578.25449  20374575.523 7  79954251.616 7        43.000
  22718750.328 8 119387885.113 8        47.200    22718756.574 8  93029577.31249
        34.600    22718756.19149  22718754.051 5  89153342.668 5        36.100
  23230223.953 7 122075661.215 7        44.100                    95123917.48047
        28.900    23230227.60547
 15  8 24  0  5 30.0000000  0  9G05G07G02G20G28G06G30G09G13
  21090092.258 9 110829181.491 9        50.800    21090096.789 9  86360456.09749
        45.000    21090096.00849
  20764538.641 9 109118422.744 9        50.900    20764542.984 9  85027373.29949
        45.000    20764542.28549
  22856443.156 7 120111434.325 7        43.800                    93593338.95448
        33.600    22856445.21948
  24739143.281 5 130005083.244 5        37.500                   101302673.62046
        20.900    24739147.71546
  24034903.156 7 126304274.408 7        42.200                    98418940.04247
        25.300    24034908.63747
  24711960.406 6 129862173.523 6        38.400    24711969.207 6 101191393.85046
        22.200    24711967.66446  24711966.113 1  96975087.988 1        30.000
  20369671.820 9 107043383.074 9        55.000    20369679.066 9  83410470.04049
        48.500    20369678.31349  20369675.586 7  79935022.998 7        43.400
  22734062.922 8 119468355.005 8        46.300    22734069.488 8  93092281.10749
        34.700    22734069.18449  22734067.160 5  89213433.801 5        36.300
  23213599.586 7 121988294.270 7        44.000                    95055839.34047
        29.300    23213602.24647
 15  8 24  0  6  0.0000000  0  9G05G07G02G20G28G06G30G09G13
  21081218.258 9 110782548.449 9        52.000    21081222.617 9  86324118.66849
        44.600    21081222.03949
  20772125.336 9 109158291.200 9        51.500    20772129.703 9  85058439.63249
        45.400    20772129.09049
  22870134.320 7 120183379.665 7        43.600                    93649400.25748
        32.100    22870135.13748
  24718855.172 5 129898466.688 5        37.900                   101219595.78945
        19.900    24718859.08245
  24016165.070 7 126205806.194 7        41.900                    98342211.56246
        22.200    24016168.86346
  24732243.625 5 129968763.875 5        36.500    24732252.613 5 101274451.26746
        20.600    24732251.02746  24732249.535 1  97054684.654 1        29.600
  20364871.219 9 107018154.964 9        54.700    20364878.223 9  83390811.78849
        48.700    20364877.35249  20364874.625 7  79916183.838 7        43.400
  22749406.773 8 119548986.174 8        45.900    22749413.461 8  93155110.57549
        34.200    22749412.68049  22749410.949 5  89273645.366 5        35.200
  23196997.898 7 121901052.716 7        44.000                    94987858.90347
        29.800    23197001.47747
 15  8 24  0  6 30.0000000  0  9G05G07G02G20G28G06G30G09G13
  21072433.711 9 110736385.296 9        51.900    21072438.453 9  86288147.37849
        44.800    21072437.64149
  20779794.203 9 109198591.112 9        51.500    20779798.441 9  85089842.16649
        44.800    20779797.80549
  22883888.922 7 120255663.614 7        43.900                    93705725.39348
        33.600    22883890.86748
  24698589.289 5 129791967.303 5        36.700                   101136609.26045
        19.300    24698592.65645
  23997443.992 7 126107424.758 7        41.800                    98265550.75946
        22.500    23997448.24246
  24752525.211 6 130075340.416 6        39.200    24752533.215 6 101357497.85346
        20.900    24752532.85946  24752530.605 1  97134270.953 1        29.000
  20360169.641 9 106993448.420 9        55.200    20360176.617 9  83371559.94349
        48.500    20360175.87549  20360173.145 7  79897734.159 7        42.900
  22764780.977 8 119629777.933 8        46.400    22764787.090 8  93218065.18249
        34.400    22764786.65649  22764784.398 5  89333976.866 5        35.900
  23180420.500 7 121813937.359 7        44.200                    94919976.83748
        30.800    23180424.72748
 15  8 24  0  7  0.0000000  0  9G05G07G02G20G28G06G30G09G13
  21063738.992 9 110690693.811 9        52.400    21063743.449 9  86252543.63049
        44.700    21063742.85949
  20787544.719 9 109239320.908 9        51.500    20787548.762 9  85121579.67749
        45.500    20787548.16449
  22897708.016 7 120328283.549 7        43.000                    93762312.35748
        33.100    22897709.62548
  24678345.477 6 129685587.568 6        38.200                   101053715.91645
        19.000    24678349.57045
  23978739.883 7 126009133.068 7        42.100                    98188959.89147
        25.700    23978744.84047
  24772803.047 5 130181900.392 5        37.200    24772811.320 6 101440531.64446
        22.000    24772810.75846  24772808.621 1  97213844.967 1        28.000
  20355567.430 9 106969263.625 9        55.000    20355574.316 9  83352714.66149
        48.500    20355573.50849  20355571.012 7  79879674.098 7        42.800
  22780185.445 8 119710729.596 8        46.100    22780192.027 8  93281144.39149
        34.700    22780192.06349  22780189.512 5  89394427.775 5        35.700
  23163866.664 7 121726948.810 7        44.000                    94852193.57347
        29.500    23163870.56647
 15  8 24  0  7 30.0000000  0  9G05G07G02G20G28G06G30G09G13
  21055134.070 9 110645475.376 9        50.900    21055138.723 9  86217308.48349
        44.800    21055138.01249
  20795376.555 9 109280478.299 9        50.200    20795380.777 9  85153650.37549
        44.900    20795380.05149
  22911590.305 7 120401235.992 7        43.400                    93819158.38948
        33.000    22911592.39848
  24658125.773 5 129579329.953 5        37.400                   100970917.74145
        19.000    24658129.03545
  23960052.055 7 125910933.879 7        42.100                    98112441.05746
        24.100    23960056.55146
  24793076.539 5 130288440.706 5        36.000    24793085.648 6 101523550.00546
        21.800    24793084.56346  24793082.660 1  97293404.279 1        30.500
  20351064.461 9 106945600.356 9        55.000    20351071.484 9  83334275.76749
        48.500    20351070.58249  20351067.969 7  79862003.492 7        42.900
  22795620.961 8 119791840.325 8        46.800    22795627.316 8  93344347.54149
        34.600    22795627.27049  22795625.191 5  89454997.456 5        36.600
  23147338.195 8 121640087.581 8        45.200                    94784509.50247
        29.800    23147341.32847
 15  8 24  0  8  0.0000000  0  9G05G07G02G20G28G06G30G09G13
  21046619.742 9 110600732.206 9        51.500    21046624.219 9  86182443.67349
        44.800    21046623.71949
  20803290.070 9 109322062.437 9        50.300    20803293.988 9  85186053.59749
        44.600    20803293.46949
  22925535.703 7 120474518.701 7        43.200                    93876261.79648
        32.300    22925537.59848
  24637928.297 4 129473196.627 4        34.700                   100888216.47845
        18.300    24637932.78945
  23941384.141 6 125812829.921 6        40.800                    98035996.44346
        20.900    23941387.78946
  24813346.156 5 130394958.905 5        37.900    24813354.461 6 101606551.18646
        21.700    24813354.23446  24813352.391 1  97372947.034 1        30.700
  20346660.695 9 106922459.022 9        54.500    20346667.938 9  83316243.56449
        48.700    20346667.19149  20346664.578 7  79844722.635 7        42.800
  22811085.250 8 119873109.736 8        46.400    22811091.828 8  93407674.33649
        34.500    22811091.69149  22811090.254 5  89515685.626 5        36.500
  23130833.141 8 121553354.701 8        45.500                    94716925.43648
        30.600    23130836.68048
 15  8 24  0  8 30.0000000  0  9G05G07G02G20G28G06G30G09G13
  21038196.141 9 110556465.703 9        51.900    21038200.539 9  86147950.29949
        45.000    21038200.16049
  20811283.914 9 109364071.367 9        51.500    20811288.391 9  85218787.83649
        45.300    20811287.70749
  22939543.266 7 120548128.246 7        42.600                    93933619.86748
        32.600    22939545.11348
  24617755.758 4 129367189.729 4        34.100                   100805613.74145
        19.300    24617760.76645
  23922734.133 7 125714824.148 7        42.000                    97959628.36747
        25.500    23922738.87147
  24833611.102 6 130501451.791 6        38.000    24833620.152 6 101689532.64846
        22.800    24833619.30146  24833617.813 1  97452470.891 1        29.200
  20342356.477 9 106899839.466 9        54.800    20342363.301 9  83298617.94749
        48.600    20342362.37949  20342359.766 7  79827831.423 7        43.400
  22826580.719 8 119954536.990 8        46.100    22826587.160 8  93471124.12049
        34.700    22826586.90249  22826584.707 5  89576491.662 5        36.100
  23114352.758 8 121466750.818 8        45.500                    94649441.91148
        30.000    23114356.54348
 15  8 24  0  9  0.0000000  0  9G05G07G02G20G28G06G30G09G13
  21029863.719 9 110512678.044 9        52.100    21029868.000 9  86113830.04849
        44.900    21029867.43049
  20819358.484 9 109406503.412 9        50.300    20819362.496 9  85251851.76849
        45.300    20819361.81649
  22953612.156 7 120622062.209 7        43.000                    93991230.74248
        31.300    22953614.86748
  24597608.883 5 129261311.672 5        35.700                   100723111.43245
        18.600    24597612.07045
  23904103.789 7 125616919.560 7        41.700                    97883339.12446
        24.700    23904108.75046
  24853870.898 5 130607916.931 5        36.900    24853879.996 7 101772492.45646
        22.500    24853879.06646  24853876.348 1  97531974.097 1        29.200
  20338151.273 9 106877741.754 9        55.500    20338158.207 9  83281398.96649
        48.700    20338157.24249  20338154.570 7  79811329.899 7        43.400
  22842105.375 8 120036121.433 8        46.100    22842111.953 8  93534696.39349
        34.700    22842111.94149  22842109.449 5  89637415.089 5        35.200
  23097897.148 8 121380276.414 8        46.900                    94582059.27648
        30.400    23097901.16448
 15  8 24  0  9 30.0000000  0  9G05G07G02G20G28G06G30G09G13
  21021622.625 9 110469371.177 9        51.900    21021626.879 9  86080084.43149
        45.200    21021626.39149
  20827513.273 9 109449356.949 9        50.800    20827517.176 9  85285244.14049
        44.900    20827516.66849
  22967743.086 7 120696317.804 7        43.400                    94049092.23248
        33.200    22967745.44548
  24577486.047 5 129155564.702 5        36.800                   100640711.08945
        17.800    24577488.31345
  23885492.375 7 125519118.472 7        42.000                    97807130.55546
        22.800    23885497.22346
  24874125.016 5 130714351.544 5        37.200    24874133.121 6 101855428.45146
        22.200    24874132.44546  24874130.484 1  97611454.433 1        29.600
  20334045.539 9 106856165.944 9        55.200    20334052.535 9  83264586.66449
        48.500    20334051.92249  20334049.074 7  79795218.110 7        43.000
  22857660.727 8 120117862.507 8        46.400    22857667.008 8  93598390.71149
        34.200    22857666.74649  22857664.254 5  89698455.479 5        35.800
  23081466.148 8 121293932.736 8        47.000                    94514778.50548
        30.200    23081470.19948
 15  8 24  0 10  0.0000000  0  9G05G07G02G20G28G06G30G09G13
  21013473.094 9 110426546.419 9        52.200    21013477.859 9  86046714.48849
        45.200    21013477.19549
  20835747.914 9 109492630.128 9        51.900    20835751.879 9  85318963.50249
        44.500    20835751.32449
  22981933.961 7 120770891.995 7        43.100                    94107201.97748
        32.200    22981936.13348
  24557388.328 5 129049950.984 5        36.900                   100558414.70945
        19.900    24557391.46945
  23866901.789 7 125421424.234 7        42.800                    97731005.17646
        22.200    23866905.04746
  24894372.656 6 130820752.624 6        38.500    24894380.637 6 101938338.42346
        21.700    24894380.02346  24894377.887 2  97690909.792 2        31.500
  20330039.172 9 106835111.939 9        55.000    20330046.020 9  83248180.96249
        48.800    20330045.36349  20330042.691 7  79779495.974 7        43.400
  22873244.719 8 120199759.438 8        45.900    22873251.117 8  93662206.47749
        34.000    22873250.73849  22873248.598 5  89759612.254 5        36.200
  23065060.820 8 121207720.233 8        47.000                    94447599.94448
        30.200    23065064.34448
 15  8 24  0 10 30.0000000  0  9G05G07G02G20G28G06G30G09G13
  21005416.211 9 110384205.463 9        51.900    21005420.695 9  86013721.54249
        44.600    21005420.15649
  20844061.875 9 109536321.566 9        51.000    20844066.363 9  85353008.77949
        44.600    20844065.91049
  22996185.344 7 120845781.744 7        43.200                    94165557.62648
        31.200    22996186.36748
  24537315.125 3 128944473.007 3        33.800                   100476224.11745
        19.900    24537320.17245
  23848331.945 7 125323839.641 7        41.800                    97654965.26846
        22.800    23848336.43446
  24914612.859 4 130927117.470 4        34.600    24914621.520 7 102021220.14146
        21.700    24914620.44946  24914618.371 1  97770338.051 1        29.500
  20326132.039 9 106814579.684 9        54.900    20326138.945 9  83232181.80749
        48.600    20326138.03149  20326135.418 7  79764163.459 7        43.000
  22888859.086 8 120281811.556 8        46.400    22888865.391 8  93726143.19648
        33.600    22888864.81348  22888862.789 5  89820884.919 5        35.000
  23048679.977 8 121121639.573 8        47.700                    94380524.12948
        30.900    23048684.25048
 15  8 24  0 11  0.0000000  0  9G05G07G02G20G28G06G30G09G13
  20997451.383 9 110342350.558 9        52.000    20997456.082 9  85981107.32649
        44.600    20997455.35949
  20852455.391 9 109580429.548 9        50.100    20852459.750 9  85387378.63849
        43.900    20852459.00049
  23010495.227 7 120920984.583 7        43.500                    94224157.22848
        31.800    23010497.79348
  24517270.992 6 128839132.78116        38.100                   100394140.90656
        22.000    24517274.57446
  23829784.367 7 125226367.526 7        42.300                    97579013.04547
        26.300    23829788.83247
  24934845.797 5 131033443.461 5        36.700    24934854.406 6 102104071.47846
        22.900    24934853.79746  24934851.426 1  97849737.300 1        28.900
  20322324.148 9 106794569.322 9        54.600    20322331.395 9  83216589.33049
        48.900    20322330.75449  20322327.965 7  79749220.672 7        43.300
  22904502.570 7 120364018.391 7        44.700    22904509.086 8  93790200.44548
        33.000    22904508.43048  22904505.645 5  89882273.129 5        35.100
  23032324.945 8 121035691.797 8        47.300                    94313551.84648
        30.400    23032328.08248
 15  8 24  0 11 30.0000000  0  9G05G07G02G20G28G06G30G09G13
  20989579.477 9 110300982.673 9        52.500    20989583.621 9  85948872.60949
        44.900    20989583.17649
  20860927.820 9 109624951.823 9        50.600    20860932.105 9  85422071.32349
        44.900    20860931.62149
  23024865.164 7 120996497.166 7        42.900                    94282998.19448
        30.700    23024867.11748
  24497252.508 6 128733932.727 6        40.000                   100312166.80846
        20.600    24497254.17246
  23811258.430 7 125129010.930 7        42.300                    97503150.80846
        24.000    23811261.94146
  24955071.648 5 131139727.513 5        37.900    24955080.316 7 102186890.22446
        23.800    24955079.10246  24955077.258 1  97929105.309 1        29.000
  20318615.281 9 106775080.439 9        54.700    20318622.227 9  83201403.20149
        48.600    20318621.37949  20318618.824 7  79734667.298 7        43.600
  22920175.047 7 120446378.906 7        44.600    22920181.887 8  93854377.45149
        34.300    22920181.55549  22920178.535 4  89943776.092 4        34.700
  23015994.242 8 120949877.163 8        47.000                    94246683.29248
        30.000    23015998.23848
 15  8 24  0 12  0.0000000  0  9G05G07G02G20G28G06G30G09G13
  20981800.219 9 110260104.062 9        52.700    20981804.645 9  85917019.14649
        45.300    20981804.02349
  20869478.656 9 109669887.445 9        51.300    20869482.875 9  85457086.09749
        44.300    20869482.56349
  23039293.133 7 121072317.056 7        43.100                    94342078.61048
        31.200    23039294.55948
  24477259.227 5 128628875.552 5        36.400                   100230303.99645
        17.400    24477261.65645
  23792753.938 7 125031772.325 7        41.600                    97427380.47546
        22.200    23792757.28946
  24975287.023 4 131245967.227 4        34.200    24975296.266 6 102269674.40845
        19.000    24975295.50845  24975294.719 3  98008440.119 3        32.000
  20315006.117 9 106756113.304 9        54.900    20315013.180 9  83186623.62349
        48.700    20315012.40249  20315009.789 7  79720503.545 7        43.700
  22935876.469 8 120528892.860 8        45.000    22935883.746 8  93918674.01848
        33.600    22935883.27748  22935881.313 5  90005393.631 5        36.200
  22999690.633 8 120864197.014 8        47.500                    94179919.56648
        31.100    22999695.07848
 15  8 24  0 12 30.0000000  0  9G05G07G02G20G28G06G30G09G13
  20974114.766 9 110219716.409 9        52.300    20974119.176 9  85885548.24549
        45.200    20974118.82449
  20878107.875 9 109715234.293 9        49.700    20878112.145 9  85492421.30449
        44.500    20878111.74649
  23053779.063 7 121148441.340 7        43.200                    94401396.26048
        31.900    23053781.12548
  24457295.367 5 128523963.189 5        36.000                   100148554.19246
        20.600    24457299.50446
  23774272.078 6 124934654.732 6        40.400                    97351704.45747
        25.600    23774276.93447
  24995496.945 6 131352159.766 6        38.400    24995504.594 6 102352421.75846
        24.500    24995503.34046  24995501.555 3  98087739.616 3        32.100
  20311496.086 9 106737667.769 9        54.000    20311503.188 9  83172250.48849
        48.800    20311502.32449  20311499.598 7  79706729.294 7        43.300
  22951608.141 7 120611559.521 7        43.300    22951614.301 7  93983089.57349
        34.000    22951614.21149  22951612.484 5  90067125.189 5        35.700
  22983411.578 8 120778652.038 8        47.600                    94113261.14948
        31.700    22983415.99248
 15  8 24  0 13  0.0000000  0  9G05G07G02G20G28G06G30G09G13
  20966522.914 9 110179821.193 9        51.800    20966527.516 9  85854461.06349
        45.100    20966526.86749
  20886814.992 9 109760990.445 9        50.700    20886819.246 9  85528075.45149
        44.500    20886818.55549
  23068322.273 7 121224866.620 7        42.300                    94460948.41048
        31.000    23068324.42248
  24437360.070 6 128419197.920 6        38.800                   100066918.99546
        22.500    24437363.47746
  23755814.992 6 124837660.854 6        40.100                    97276124.88547
        25.200    23755819.99247
  25015694.102 6 131458302.100 6        39.300    25015703.250 7 102435130.08847
        25.600    25015701.89847  25015698.828 1  98167001.733 1        26.800
  20308085.063 9 106719743.473 9        54.800    20308092.746 9  83158283.51749
        48.700    20308091.74649  20308089.250 7  79693344.282 7        43.300
  22967367.969 7 120694377.978 7        44.000    22967374.297 8  94047623.42648
        33.500    22967374.00448  22967371.574 5  90128970.110 5        35.000
  22967158.656 8 120693242.599 8        47.000                    94046708.36848
        30.400    22967162.84448
 15  8 24  0 13 30.0000000  0  9G05G07G02G20G28G06G30G09G13
  20959025.141 9 110140420.296 9        52.000    20959029.645 9  85823759.06749
        44.900    20959029.19949
  20895599.820 9 109807154.786 9        49.900    20895604.066 9  85564047.67149
        44.100    20895603.49649
  23082922.703 7 121301590.298 7        42.600                    94520733.08348
        30.300    23082924.53148
  24417452.633 5 128314582.192 5        37.500                    99985400.23745
        19.600    24417454.62145
  23737382.125 6 124740793.569 6        39.900                    97200643.91546
        23.200    23737386.27746
  25035881.031 4 131564391.797 4        34.200    25035890.438 6 102517797.33346
        20.600    25035890.18446  25035886.816 1  98246224.647 1        26.400
  20304773.578 9 106702340.459 9        54.400    20304780.383 9  83144722.74349
        48.900    20304779.57449  20304777.020 7  79680348.535 7        43.000
  22983157.047 7 120777347.791 7        43.900    22983162.934 8  94112275.20649
        34.000    22983162.71149  22983160.105 5  90190928.071 5        35.000
  22950931.984 8 120607969.651 8        47.300                    93980261.91448
        31.100    22950935.56348
 15  8 24  0 14  0.0000000  0  9G05G07G02G20G28G06G30G09G13
  20951622.234 9 110101515.163 9        52.700    20951626.535 9  85793443.38949
        45.400    20951626.02349
  20904462.031 9 109853725.306 9        50.500    20904466.262 9  85600336.38249
        44.500    20904465.44149
  23097578.758 7 121378609.650 7        42.500                    94580748.14848
        30.500    23097580.50448
  24397571.820 4                        34.300

  23718972.492 6 124644056.184 6        39.200                    97125264.17946
        22.900    23718977.17646
  25056059.969 5 131670426.27815        36.100    25056067.691 4 102600421.51455
        17.400    25056066.59045  25056066.035 1  98325406.13211        30.700
  20301560.969 9 106685458.603 9        54.700    20301567.895 9  83131568.05349
        48.700    20301567.02049  20301564.289 7  79667741.962 7        42.900
  22998973.852 7 120860468.306 7        44.100    22998980.352 8  94177044.40049
        34.000    22998980.24249  22998978.219 4  90252998.547 4        34.900
  22934730.945 8 120522834.064 8        47.500                    93913922.50648
        31.500    22934734.98048
 15  8 24  0 14 30.0000000  0  9G05G07G02G20G28G06G30G09G13
  20944313.461 9 110063107.883 9        53.200    20944318.199 9  85763515.63749
        45.300    20944317.42649
  20913400.961 9 109900700.269 9        49.600    20913405.492 9  85636940.26249
        43.800    20913404.57049
  23112290.930 7 121455921.521 7        42.000                    94640991.16847
        29.900    23112292.21947
  24377723.555 5 128105808.562 5        37.300                    99822719.44556
        21.100    24377726.53146
  23700590.570 7 124547451.284 7        41.300                    97049987.68647
        25.000    23700594.14847
  25076227.547 6 131776402.597 6        38.700    25076235.531 6 102683000.54446
        22.000    25076233.77046  25076232.926 2  98404544.194 2        31.600
  20298447.477 9 106669097.747 9        53.600    20298454.434 9  83118819.35049
        48.700    20298453.66449  20298450.934 7  79655524.453 7        42.700
  23014819.914 7 120943738.864 7        44.700    23014826.113 8  94241930.52948
        33.600    23014825.93048  23014824.141 5  90315181.094 5        35.900
  22918556.633 8 120437836.365 8        47.500                    93847690.54448
        31.500    22918560.87148
 15  8 24  0 15  0.0000000  0  9G05G07G02G20G28G06G30G09G13
  20937099.438 9 110025199.391 9        53.000    20937104.180 9  85733976.54049
        45.300    20937103.43449
  20922416.570 9 109948077.661 9        50.800    20922420.867 9  85673857.70849
        44.100    20922420.23449
  23127057.039 7 121533522.753 7        41.400                    94701459.64347
        29.700    23127059.21947
  24357903.227 6 128001655.420 6        39.200                    99741561.20046
        22.300    24357907.30946
  23682231.805 7 124450981.566 7        41.000                    96974816.50546
        24.600    23682237.32046
  25096381.242 4 131882317.75514        34.300    25096390.594 7 102765531.75856
        22.500    25096389.49246  25096387.535 1  98483636.61111        27.400
  20295433.258 9 106653257.322 9        54.200    20295440.141 9  83106476.16949
        48.700    20295439.35249  20295436.742 7  79643695.576 7        43.700
  23030693.945 7 121027158.531 7        44.000    23030700.105 7  94306932.85548
        32.600    23030699.59448  23030698.273 5  90377474.981 5        35.100
  22902408.633 8 120352977.237 8        47.100                    93781566.55748
        30.500    22902412.22748
 15  8 24  0 15 30.0000000  0  9G05G07G02G20G28G06G30G09G13
  20929980.813 9 109987791.836 9        53.000    20929985.621 9  85704827.80249
        45.300    20929984.85949
  20931508.336 9 109995856.098 9        50.300    20931512.699 9  85711087.66549
        44.100    20931512.26249
  23141878.992 7 121611410.551 7        41.700                    94762151.43948
        30.200    23141880.60948
  24338114.313 5 127897661.282 5        36.300                    99660526.78145
        19.900    24338118.01245
  23663901.422 7 124354650.140 7        41.200                    96899753.11746
        24.600    23663905.32846
  25116524.867 5 131988169.52615        35.500    25116533.559 6 102848013.40855
        19.600    25116532.82045  25116528.223 1  98562681.81011        24.700
  20292518.102 9 106637937.504 9        54.600    20292524.977 9  83094538.65949
        48.900    20292524.29749  20292521.449 7  79632255.465 7        43.700
  23046596.172 7 121110726.950 7        44.300    23046602.809 8  94372051.07848
        32.700    23046602.19548  23046600.465 5  90439879.933 5        35.300
  22886286.625 8 120268257.691 8        47.600                    93715551.32348
        31.400    22886290.87948
 15  8 24  0 16  0.0000000  0  9G05G07G02G20G28G06G30G09G13
  20922958.328 9 109950886.964 9        52.400    20922962.918 9  85676070.76049
        45.100    20922962.28949
  20940676.414 9 110044034.021 9        50.100    20940680.641 9  85748628.90249
        43.800    20940680.37949
  23156754.492 7 121689582.691 7        42.800                    94823064.80048
        30.500    23156755.94548
  24318355.883 5 127793828.62815        37.400                    99579618.24555
        17.800    24318358.04745
  23645597.047 7 124258460.210 7        43.400                    96824799.94147
        25.100    23645601.07047
  25136655.016 6 132093955.179 6        39.200    25136661.410 3 102930443.89245
        16.300    25136661.21545  25136661.012 2  98641677.466 2        31.300
  20289701.836 9 106623138.489 9        53.900    20289708.656 9  83083006.97049
        48.700    20289707.78949  20289705.176 7  79621204.260 7        42.900
  23062527.633 8 121194443.881 8        45.400    23062534.230 8  94437285.01848
        33.100    23062533.87148  23062531.383 4  90502395.789 4        34.600
  22870191.867 9 120183678.940 9        48.000                    93649645.82148
        32.300    22870195.75848
 15  8 24  0 16 30.0000000  0  9G05G07G02G20G28G06G30G09G13
  20916031.125 9 109914485.385 9        52.700    20916035.785 9  85647705.89149
        45.300    20916035.16449
  20949919.844 9 110092608.723 9        49.300    20949924.148 9  85786479.31849
        44.100    20949923.72749
  23171684.516 7 121768034.908 7        42.400                    94884196.38848
        30.400    23171685.79748
  24298628.813 6 127690159.404 6        40.000                    99498836.99546
        22.300    24298631.39846
  23627318.953 7 124162413.539 7        41.500                    96749958.43647
        25.300    23627324.06647
  25156772.336 3 132199671.393 3        33.500    25156781.391 6 103012820.20246
        20.400    25156780.17646  25156777.980 1  98720621.299 1        30.200
  20286984.539 9 106608858.934 9        53.500    20286991.441 9  83071880.05449
        48.800    20286990.51249  20286987.840 7  79610540.974 7        43.100
  23078486.273 8 121278307.638 8        45.200    23078492.566 7  94502633.36948
        33.100    23078492.17248  23078490.031 4  90565021.294 4        34.700
  22854124.453 8 120099240.831 8        47.700                    93583849.90148
        32.000    22854127.84848
 15  8 24  0 17  0.0000000  0  9G05G07G02G20G28G06G30G09G13
  20909200.484 9 109878589.548 9        53.400    20909205.066 9  85619735.10549
        45.700    20909204.42249
  20959238.648 9 110141579.202 9        50.000    20959243.027 9  85824638.13649
        44.100    20959242.57049
  23186665.695 6 121846765.183 6        40.900                    94945544.64147
        29.800    23186667.28947
  24278932.734 6 127586656.193 6        38.100                    99418185.15146
        22.600    24278935.48046
  23609070.406 7 124066513.857 7        42.600                    96675231.46347
        26.000    23609075.11747
  25176877.039 5 132305320.32215        35.900    25176884.070 7 103095151.72517
        41.400                    25176882.391 1  98799513.69211        27.400
  20284365.852 9 106595099.210 9        53.700    20284373.105 9  83061158.20149
        48.700    20284372.30949  20284369.582 7  79600265.869 7        43.200
  23094473.148 8 121362318.197 8        45.200    23094479.504 7  94568096.11248
        32.100    23094478.98048  23094476.898 5  90627756.423 5        35.200
  22838083.109 9 120014944.669 9        48.800                    93518164.58648
        32.800    22838086.74648
 15  8 24  0 17 30.0000000  0  9G05G07G02G20G28G06G30G09G13
  20902466.461 9 109843200.725 9        53.000    20902470.867 9  85592159.39749
        45.600    20902470.37949
  20968632.438 9 110190943.424 9        49.500    20968636.563 9  85863103.76449
        43.900    20968636.09049
  23201700.031 7 121925770.270 7        41.400                    95007107.02348
        30.500    23201701.88348
  24259267.242 5 127483321.329 5        37.300                    99337664.54946
        20.400    24259271.27746
  23590849.711 7 123970763.357 7        42.900                    96600620.70546
        21.700    23590852.97346
  25196966.289 6 132410890.733 6        40.800    25196974.504 6 103177391.25056
        23.800    25196973.52746
  20281846.484 9 106581859.017 9        52.500    20281853.547 9  83050841.18149
        48.700    20281852.70749  20281850.035 7  79590378.725 7        43.400
  23110487.641 8 121446474.864 8        45.400    23110493.996 7  94633672.71748
        32.300    23110492.71148  23110491.273 5  90690600.650 5        35.000
  22822069.227 9 119930790.960 9        48.900                    93452590.28448
        31.600    22822073.02348
 15  8 24  0 18  0.0000000  0  9G05G07G02G20G28G06G30G09G13
  20895828.828 9 109808320.759 9        53.500    20895833.414 9  85564980.20149
        46.300    20895832.85249
  20978100.813 9 110240699.819 9        49.500    20978105.004 9  85901874.98449
        44.500    20978104.35949
  23216786.305 6 122005047.420 6        40.300                    95068881.41947
        28.600    23216787.00447
  24239636.883 6 127380157.428 6        40.200                    99257277.08546
        22.200    24239639.72346
  23572657.789 7 123875165.518 7        41.100                    96526128.89047
        26.000    23572661.83647
  25217039.773 3 132516384.222 3        33.200    25217047.316 3 103259594.17344
        14.800    25217046.66444  25217046.168 1  98957100.61611        30.900
  20279425.820 9 106569138.179 9        52.900    20279432.953 9  83040928.85249
        48.700    20279432.05549  20279429.328 7  79580879.409 7        43.400
  23126529.352 7 121530777.068 7        44.400    23126535.914 7  94699362.72848
        32.500    23126535.14548  23126533.301 5  90753553.559 5        35.000
  22806082.727 9 119846781.059 9        48.100                    93387128.04148
        33.100    22806087.09048
 15  8 24  0 18 30.0000000  0  8G05G07G02G20G28G30G09G13
  20889288.406 9 109773951.017 9        53.000    20889292.879 9  85538198.58149
        45.600    20889292.53549
  20987643.414 9 110290846.631 9        49.800    20987647.816 9  85940950.42449
        43.700    20987646.88349
  23231922.984 7 122084593.472 7        41.300                    95130865.34347
        29.200    23231925.15247
  24220037.844 6 127277166.592 6        38.600                    99177024.48346
        21.500    24220040.71146
  23554496.258 7 123779723.044 7        41.400                    96451758.21447
        25.000    23554500.69947
  20277103.781 9 106556936.379 9        53.300    20277110.867 9  83031420.96149
        48.800    20277110.07049  20277107.281 7  79571767.682 7        43.400
  23142599.242 7 121615224.192 7        43.800    23142606.074 7  94765165.64448
        33.000    23142605.84848  23142603.242 4  90816614.693 4        34.400
  22790123.180 8 119762915.351 8        47.500                    93321778.15048
        32.000    22790126.65248
 15  8 24  0 19  0.0000000  0  8G05G07G02G20G28G30G09G13
  20882845.602 9 109740093.769 9        52.000    20882850.195 9  85511816.30449
        45.300    20882849.62149
  20997260.117 9 110341382.228 9        49.600    20997264.145 9  85980328.81749
        43.800    20997263.57449
  23247111.297 7 122164405.767 7        42.100                    95193056.73047
        29.300    23247112.07447
  24200473.242 6 127174351.518 6        39.400                    99096908.84446
        22.500    24200476.68046
  23536363.664 7 123684438.819 7        41.100                    96377510.78347
        25.300    23536367.50447
  20274880.648 9 106545253.271 9        52.200    20274887.746 9  83022317.25549
        48.800    20274887.09449  20274884.484 7  79563043.300 7        43.200
  23158696.688 7 121699815.595 7        42.400    23158703.199 7  94831080.98648
        32.000    23158703.04748  23158700.320 4  90879783.573 4        34.100
  22774192.063 9 119679194.842 9        48.500                    93256541.40148
        31.700    22774194.96148
 15  8 24  0 19 30.0000000  0  8G05G07G02G20G28G30G09G13
  20876499.984 9 109706749.488 9        51.900    20876505.012 9  85485833.75249
        45.800    20876504.41449
  21006950.055 9 110392304.460 9        50.000    21006954.223 9  86020008.47649
        44.000    21006953.94949
  23262348.766 7 122244480.791 7        41.800                    95255452.85747
        28.000    23262349.58247
  24180941.938 5 127071714.559 5        37.000                    99016932.06246
        22.200    24180946.34446
  23518262.852 6 123589315.563 6        40.200                    96303388.81947
        25.300    23518266.78547
  20272755.953 9 106534088.338 9        53.900    20272763.504 9  83013617.32049
        49.000    20272762.19149  20272759.871 7  79554705.860 7        43.300
  23174821.047 7 121784550.418 7        43.300    23174827.797 7  94897108.09848
        31.800    23174826.87548  23174825.379 4  90943059.544 4        34.400
  22758287.945 9 119595619.757 9        48.000                    93191417.97848
        33.400    22758292.19948
 15  8 24  0 20  0.0000000  0  8G05G07G02G20G28G30G09G13
  20870253.070 9 109673919.375 9        52.100    20870257.453 9  85460251.84549
        45.800    20870256.88349
  21016713.648 9 110443611.366 9        50.400    21016717.742 9  86059987.88449
        43.100    21016717.14149
  23277635.547 7 122324815.686 7        41.100                    95318051.45547
        28.700    23277638.07447
  24161445.047 6 126969257.660 6        39.100                    98937095.56046
        23.000    24161449.14146
  23500192.414 6 123494356.208 6        39.900                    96229394.53547
        25.400    23500197.55547
  20270729.859 9 106523441.051 9        54.500    20270737.160 9  83005320.73749
        48.700    20270736.44949  20270733.602 7  79546754.974 7        43.000
  23190973.172 7 121869427.873 7        43.100    23190978.852 7  94963246.35448
        32.100    23190978.33648  23190977.074 5  91006442.014 5        35.500
  22742412.125 9 119512191.473 9        48.500                    93126408.93548
        32.300    22742416.05948
 15  8 24  0 20 30.0000000  0  8G05G07G02G20G28G30G09G13
  20864104.086 9 109641605.508 9        52.700    20864108.406 9  85435072.20749
        45.700    20864107.70349
  21026549.891 9 110495301.614 9        50.800    21026553.898 9  86100265.99849
        44.100    21026553.46949
  23292971.664 7 122405407.840 7        42.000                    95380850.53747
        28.300    23292973.34847
  24141981.828 5 126866983.493 5        37.000                    98857401.34446
        20.600    24141985.53146
  23482154.344 6 123399563.473 6        40.600                    96155530.11047
        25.300    23482157.82447
  20268802.320 9 106513311.382 9        54.900    20268809.684 9  82997427.50049
        48.800    20268808.87949  20268806.148 7  79539190.618 7        43.200
  23207151.133 7 121954447.640 7        42.100    23207157.902 7  95029495.50348
        31.600    23207157.27048  23207155.773 5  91069930.769 5        35.100
  22726564.227 9 119428910.582 9        48.400                    93061514.74948
        32.400    22726568.31648
 15  8 24  0 21  0.0000000  0  8G05G07G02G20G28G30G09G13
  20858053.430 9 109609809.563 9        53.100    20858057.742 9  85410296.14449
        45.900    20858056.87549
  21036458.617 9 110547373.043 9        51.200    21036462.805 9  86140841.14249
        44.100    21036462.27749
  23308356.180 7 122486253.839 7        41.500                    95443847.39547
        29.100    23308357.95747
  24122556.125 6 126764894.471 6        38.000                    98777851.48946
        21.800    24122558.93846
  23464147.906 7 123304940.596 7        41.500                    96081798.04747
        25.200    23464151.48047
  20266973.258 9 106503698.890 9        54.700    20266980.188 9  82989937.24949
        48.800    20266979.53149  20266976.742 7  79532012.468 7        43.900
  23223356.688 7 122039609.057 7        42.900    23223364.039 8  95095855.02648
        32.100    23223363.68848  23223360.613 3  91133525.317 3        33.200
  22710744.555 9 119345778.012 9        48.100                    92996736.14148
        32.300    22710747.83648
 15  8 24  0 21 30.0000000  0  8G05G07G02G20G28G30G09G13
  20852101.516 9 109578532.654 9        52.500    20852106.129 9  85385924.51549
        46.000    20852105.60249
  21046439.766 9 110599824.063 9        50.700    21046444.105 9  86181712.07549
        43.800    21046443.47349
  23323788.414 7 122567350.784 7        43.500                    95507039.81947
        29.400    23323791.02747
  24103165.125 6 126662993.156 6        39.600                    98698447.92246
        23.000    24103169.02746
  23446174.320 6 123210490.007 6        39.900                    96008200.19446
        24.800    23446178.14546
  20265242.195 9 106494603.167 9        54.800    20265249.105 9  82982849.68349
        48.900    20265248.41449  20265245.684 7  79525220.214 7        43.200
  23239589.898 7 122124911.475 7        42.200    23239596.508 7  95162324.42148
        32.000    23239596.05548  23239593.914 4  91197225.151 4        34.500
  22694952.852 9 119262794.436 9        48.800                    92932073.62548
        33.100    22694957.21948
 15  8 24  0 22  0.0000000  0  8G05G07G02G20G28G30G09G13
  20846248.703 9 109547776.304 9        51.600    20846253.504 9  85361958.52949
        46.000    20846253.00849
  21056492.805 9 110652652.829 9        49.500    21056497.047 9  86222877.34049
        43.900    21056496.48049
  23339268.016 7 122648695.747 7        42.700                    95570425.49547
        28.300    23339270.12947
  24083810.336 6 126561281.859 6        39.400                    98619192.38146
        22.000    24083813.42246
  23428234.883 6 123116214.726 6        40.900                    95934738.96547
        26.900    23428238.83647
  20263609.563 9 106486023.720 9        52.700    20263616.582 9  82976164.40649
        48.800    20263615.99249  20263613.262 7  79518813.500 7        43.600
  23255849.039 7 122210354.161 7        41.600    23255855.816 7  95228903.10448
        31.600    23255855.41048  23255853.918 4  91261029.728 4        34.600
  22679190.797 8 119179960.509 8        47.400                    92867527.72848
        32.700    22679194.26648
 15  8 24  0 22 30.0000000  0  8G05G07G02G20G28G30G09G13
  20840495.617 9 109517542.381 9        53.000    20840500.281 9  85338399.62849
        45.500    20840499.61349
  21066617.297 9 110705857.542 9        49.400    21066621.656 9  86264335.56049
        43.900    21066621.12149
  23354794.063 7 122730286.170 7        42.700                    95634002.42647
        29.300    23354796.39547
  24064491.898 6 126459762.999 6        40.600                    98540086.73046
        20.100    24064492.87546
  23410328.383 6 123022117.428 6        40.900                    95861416.44347
        27.400    23410332.82847
  20262075.070 9 106477960.226 9        53.800    20262081.898 9  82969881.17749
        48.800    20262081.29749  20262078.570 7  79512792.065 7        43.400
  23272134.445 7 122295936.640 7        42.400    23272141.527 7  95295590.73348
        31.400    23272140.83648  23272139.340 4  91324938.684 4        34.500
  22663456.672 9 119097277.535 9        48.500                    92803099.46648
        33.700    22663460.52348
 15  8 24  0 23  0.0000000  0  8G05G07G02G20G28G30G09G13
  20834841.898 9 109487831.925 9        53.400    20834846.242 9  85315248.61949
        46.700    20834846.07049
  21076812.969 9 110759436.473 9        50.300    21076817.414 9  86306085.37749
        43.700    21076816.82849
  23370366.633 7 122812118.222 7        41.600                    95697767.67747
        27.100    23370368.52047
  24045209.813 6 126358439.039 6        39.900                    98461132.99746
        22.800    24045213.27346
  23392456.461 6 122928201.321 6        40.800                    95788235.08847
        26.600    23392460.47747
  20260638.703 9 106470412.136 9        55.100    20260645.645 9  82963999.56149
        48.700    20260644.53149  20260642.035 7  79507155.518 7        43.900
  23288447.336 7 122381658.175 7        42.200    23288453.793 7  95362386.70348
        31.800    23288453.49648  23288451.414 4  91388951.487 4        34.400
  22647751.063 9 119014746.125 9        49.000                    92738789.28248
        33.100    22647755.15648
 15  8 24  0 23 30.0000000  0  8G05G07G02G20G28G30G09G13
  20829287.992 9 109458645.869 9        53.500    20829292.676 9  85292506.23549
        45.900    20829292.29749
  21087079.570 9 110813387.503 9        49.700    21087083.758 9  86348125.14449
        43.600    21087082.79749
  23385983.336 6 122894189.218 6        40.200                    95761719.10347
        27.300    23385985.12947
  24025966.086 7 126257312.121 7        41.500                    98382332.83146
        24.500    24025970.18846
  23374619.766 6 122834469.306 6        40.500                    95715197.16047
        26.900    23374623.67647
  20259300.305 9 106463378.970 9        54.400    20259307.492 9  82958519.17649
        48.800    20259306.53949  20259303.750 7  79501903.483 7        43.500
  23304785.078 7 122467518.046 7        41.700    23304791.773 7  95429290.45748
        30.700    23304791.35248  23304789.098 4  91453067.590 4        34.000
  22632074.695 9 118932366.924 9        48.500                    92674597.70848
        33.500    22632079.13348
 15  8 24  0 24  0.0000000  0  8G05G07G02G20G28G30G09G13
  20823834.172 9 109429986.162 9        52.600    20823838.809 9  85270173.99549
        46.100    20823838.20749
  21097416.586 9 110867709.047 9        51.100    21097420.770 9  86390453.62649
        43.600    21097420.30149
  23401646.117 7 122976496.515 7        41.000                    95825854.64647
        27.500    23401648.71947
  24006759.992 7 126156385.118 7        41.400                    98303688.43446
        24.100    24006763.98046
  23356818.492 6 122740923.557 6        40.600                    95642304.41647
        26.700    23356822.57047
  20258059.953 9 106456860.342 9        55.000    20258066.844 9  82953439.73549
        48.900    20258066.05949  20258063.273 7  79497035.686 7        44.100
  23321150.633 7 122553515.815 7        41.600    23321157.270 7  95496301.68748
        31.500    23321156.37948  23321154.707 3  91517286.673 3        33.700
  22616427.789 9 118850140.773 9        48.600                    92610525.40748
        33.500    22616431.47348
 15  8 24  0 24 30.0000000  0  8G05G07G02G20G28G30G09G13
  20818480.969 9 109401854.051 9        53.300    20818485.867 9  85248252.86349
        46.500    20818485.32449
