     2.11           OBSERVATION DATA    G (GPS)             RINEX VERSION / TYPE
teqc  2019Feb12                         20210102 00:28:39UTCPGM / RUN BY / DATE
ZIMM                                                        MARKER NAME
14001M004                                                   MARKER NUMBER
TRIMBLE NETR9       SWISSTOPO                               OBSERVER / AGENCY
5429R49141          TRIMBLE NETR9       5.45                REC # / TYPE / VERS
99390               TRM29659.00     NONE                    ANT # / TYPE
  4331297.3480   567555.6390  4633133.7280                  APPROX POSITION XYZ
        0.0000        0.0000        0.0000                  ANTENNA: DELTA H/E/N
     1     1                                                WAVELENGTH FACT L1/2
    10    C1    L1    S1    C2    L2    S2    P2    C5    L5# / TYPES OF OBSERV
          S5                                                # / TYPES OF OBSERV
    30.0000                                                 INTERVAL
Linux 2.4.21-27.ELsmp|Opteron|gcc -static|Linux 64|=+       COMMENT
     2.11           OBSERVATION DATA    M (MIXED)           COMMENT
NetR9 5.45          Receiver Operator   20210101 000001 UTC COMMENT
L2C CARRIER PHASE MEASUREMENTS: PHASE SHIFTS REMOVED        COMMENT
L2C PHASE MATCHES L2 P PHASE                                COMMENT
GLONASS C/A & P PHASE MATCH: PHASE SHIFTS REMOVED           COMMENT
Forced Modulo Decimation to 30 seconds                      COMMENT
teqc edited: all GLONASS satellites excluded                COMMENT
teqc edited: all Galileo satellites excluded                COMMENT
  2021     1     1     0     0    0.0000000     GPS         TIME OF FIRST OBS
                                                            END OF HEADER
 21  1  1  0  0  0.0000000  0 11G21G23G16G07G15G08G26G18G20G27G10
  23710570.930 6 124599890.588 6        39.100                    97090841.00847
        25.100    23710574.90647
  21391295.109 9 112412028.458 9        48.900    21391299.391 9  87593808.48049
        39.500    21391298.73449  21391299.504 6  83944058.214 6        39.700
  21408144.172 9 112500651.218 9        49.000                    87662777.44149
        39.900    21408147.37549
  24631506.336 5 129439447.117 5        36.900    24631511.348 6 100861908.00946
        20.600    24631510.33646
  24496602.156 2 128730530.09612        31.300    24496607.488 5 100309513.67557
        28.100    24496607.32047
  22197246.906 7 116647327.595 7        44.300    22197254.410 8  90894049.69649
        46.700    22197253.33249  22197249.406 5  87106809.289 5        37.700
  23403019.961 7 122983710.851 7        41.800    23403026.996 7  95831485.74449
        38.500    23403026.39149  23403022.613 3  91838555.040 3        32.700
  23297316.336 6 122428227.643 6        40.300    23297321.629 7  95398657.33847
        28.100    23297320.78947  23297322.727 4  91423685.325 4        34.200
  21341415.984 8 112149920.723 8        47.000                    87389553.80649
        37.900    21341419.29749
  20257190.867 9 106452277.756 9        52.300    20257197.047 9  82949855.02549
        55.300    20257196.38749  20257193.066 7  79493628.302 7        43.800
  21154200.328 9 111166077.270 9        53.400    21154206.363 9  86622950.27249
        55.000    21154206.24249  21154201.758 7  83013631.652 7        41.400
 21  1  1  0  0 30.0000000  0 11G21G23G16G07G15G08G26G18G20G27G10
  23695455.352 6 124520458.881 6        39.000                    97028946.17146
        22.600    23695458.65646
  21397024.156 9 112442136.455 9        48.800    21397028.742 9  87617269.26449
        38.900    21397028.03149  21397028.594 6  83966541.448 6        39.300
  21421982.133 9 112573370.613 9        48.500                    87719441.89649
        40.500    21421985.57049
  24633952.656 6 129452295.517 6        38.900    24633956.770 5 100871919.76646
        22.600    24633956.08246
  24498292.484 1 128739412.89611        30.100    24498298.129 5 100316435.33357
        25.500    24498297.50447
  22182338.375 8 116568981.097 8        45.100    22182345.113 8  90833000.47549
        47.200    22182344.39849  22182340.578 5  87048303.809 5        37.900
  23423394.602 6 123090781.698 6        40.700    23423401.582 7  95914917.56649
        38.400    23423401.40249  23423397.746 3  91918510.585 3        32.400
  23315112.570 7 122521744.903 7        41.300    23315117.262 7  95471527.87747
        27.800    23315116.83647  23315117.328 3  91493519.595 3        33.300
  21348835.961 8 112188912.804 8        46.800                    87419937.25149
        37.700    21348839.11749
  20253727.539 9 106434078.700 9        51.900    20253733.785 9  82935673.93849
        55.300    20253733.28949  20253729.555 7  79480038.106 7        43.500
  21147105.586 9 111128793.817 9        52.900    21147111.570 9  86593898.23649
        54.900    21147111.38749  21147107.000 7  82985790.107 7        41.200
 21  1  1  0  1  0.0000000  0 11G21G23G16G07G15G08G26G18G20G27G10
  23680375.109 6 124441214.669 6        39.700                    96967197.41746
        22.300    23680379.68446
  21402864.094 8 112472825.947 8        47.500    21402868.406 9  87641183.15349
        39.400    21402868.24249  21402868.922 6  83989458.933 6        39.200
  21435906.906 9 112646544.189 9        48.100                    87776460.26349
        39.900    21435909.89849
  24636492.594 6 129465643.577 6        38.800    24636496.082 5 100882320.82446
        22.800    24636495.84046
  24500091.625 1                        26.400    24500098.797 6 100323815.38816
        24.300    24500098.33646
  22167466.734 8 116490829.867 8        45.700    22167473.598 8  90772103.41549
        47.100    22167472.44949  22167468.918 5  86989944.124 5        37.600
  23443799.336 7 123198009.712 7        41.100    23443806.629 7  95998471.84549
        38.000    23443806.35949  23443802.195 3  91998583.428 3        32.700
  23332926.477 6 122615357.960 6        40.400    23332930.355 7  95544473.10147
        26.500    23332929.87147  23332931.020 3  91563425.441 3        32.400
  21356356.680 8 112228434.892 8        47.000                    87450733.68049
        38.600    21356359.95349
  20250340.453 9 106416278.394 9        51.200    20250346.590 9  82921803.56749
        55.600    20250346.02749  20250342.461 7  79466745.658 7        43.400
  21140114.883 9 111092059.028 9        52.200    21140121.164 9  86565273.73549
        54.900    21140121.08649  21140116.797 7  82958358.286 7        41.600
 21  1  1  0  1 30.0000000  0 10G21G23G16G07G08G26G18G20G27G10
  23665332.016 6 124362158.781 6        40.300                    96905595.43547
        25.300    23665335.79747
  21408814.633 9 112504096.026 9        48.500    21408819.199 9  87665549.45449
        38.800    21408818.68449  21408819.473 6  84012809.998 6        40.000
  21449917.305 9 112720169.803 9        48.300                    87833830.85649
        40.400    21449920.37949
  24639127.141 5 129479490.661 5        37.900    24639131.043 5 100893110.75246
        20.900    24639130.72746
  22152632.594 8 116412876.158 8        45.200    22152639.395 8  90711360.26549
        47.200    22152638.06649  22152634.844 5  86931731.911 5        37.700
  23464233.391 7 123305392.720 7        41.100    23464241.523 7  96082146.91649
        38.600    23464240.91849  23464236.254 3  92078771.993 3        32.600
  23350758.500 6 122709065.918 6        40.900    23350762.902 7  95617492.29247
        26.800    23350762.03547  23350764.359 3  91633402.128 3        33.700
  21363978.313 8 112268485.311 8        47.000                    87481941.80149
        38.200    21363981.02349
  20247028.977 9 106398878.180 9        51.400    20247035.453 9  82908244.95049
        55.300    20247034.79349  20247031.465 7  79453751.975 7        43.400
  21133229.352 9 111055874.779 9        52.600    21133235.563 9  86537078.22849
        54.900    21133235.44549  21133231.074 6  82931337.589 6        40.700
 21  1  1  0  2  0.0000000  0 10G21G23G16G07G08G26G18G20G27G10
  23650324.047 6 124283291.445 6        40.400                    96844140.43146
        24.700    23650327.18446
  21414875.547 9 112535945.035 9        48.700    21414879.953 9  87690366.86649
        38.800    21414878.96549  21414880.121 6  84036593.315 6        40.200
  21464013.305 9 112794245.292 9        48.500                    87891552.00649
        39.900    21464016.54749
  24641857.328 5 129493835.521 5        37.600    24641860.883 5 100904288.58646
        22.500    24641860.72746
  22137835.734 8 116335120.690 8        45.200    22137843.238 8  90650771.57949
        47.300    22137841.91049  22137838.816 6  86873667.787 6        38.400
  23484697.094 6 123412927.894 6        39.900    23484704.219 7  96165940.53649
        38.400    23484704.05949  23484699.598 3  92159074.254 3        32.600
  23368607.922 6 122802867.001 6        39.900    23368613.098 7  95690584.02047
        26.500    23368612.47747  23368613.855 4  91703448.380 4        34.400
  21371699.133 8 112309062.248 8        46.700                    87513560.19849
        38.200    21371702.44549
  20243794.195 9 106381878.589 9        51.200    20243800.602 9  82894998.52049
        56.000    20243799.96149  20243796.410 7  79441057.492 7        43.200
  21126448.688 9 111020241.589 9        53.200    21126454.922 9  86509312.11349
        55.000    21126454.69549  21126450.020 7  82904728.401 7        41.200
 21  1  1  0  2 30.0000000  0 11G21G23G16G07G15G08G26G18G20G27G10
  23635351.969 6 124204614.367 6        39.800                    96782833.65246
        24.200    23635355.33246
  21421046.125 8 112568372.544 8        47.800    21421050.816 9  87715635.05849
        39.200    21421049.94549  21421051.176 6  84060808.676 6        39.600
  21478194.703 9 112868769.105 9        48.500                    87949622.49749
        40.200    21478197.85549
  24644681.563 5 129508677.898 5        37.700    24644684.887 5 100915854.05046
        21.300    24644684.48846
  24506160.375 3 128780765.10313        32.000    24506164.840 5 100348644.68157
        26.800    24506164.47747
  22123077.797 8 116257566.122 8        45.200    22123084.941 8  90590339.45649
        47.500    22123084.07449  22123080.301 5  86815753.658 5        37.900
  23505188.508 6 123520613.678 6        39.800    23505195.898 6  96249851.53049
        37.900    23505195.29349  23505191.547 2  92239488.941 2        31.400
  23386475.016 6 122896760.682 6        40.900    23386480.211 7  95763747.88347
        27.800    23386479.77347  23386480.699 3  91773563.727 3        33.600
  21379521.328 8 112350164.953 8        47.000                    87545588.27849
        37.900    21379524.39149
  20240635.938 9 106365281.411 9        51.800    20240642.164 9  82882065.65349
        55.400    20240641.62949  20240638.055 7  79428663.489 7        43.400
  21119773.023 9 110985161.434 9        52.500    21119779.355 9  86481976.92749
        55.100    21119779.15649  21119774.566 6  82878532.188 6        40.800
 21  1  1  0  3  0.0000000  0 11G21G23G16G07G15G08G26G18G20G27G10
  23620416.180 6 124126126.162 6        39.200                    96721674.01947
        26.400    23620420.37547
  21427326.500 9 112601375.694 9        48.300    21427330.742 9  87741351.79749
        38.800    21427330.14149  21427331.500 6  84085453.889 6        39.200
  21492460.961 9 112943737.853 9        48.400                    88008039.70049
        40.200    21492464.01249
  24647599.828 5 129524015.197 5        37.000    24647604.324 5 100927805.19246
        21.500    24647603.59046
  24508400.953 2 128792552.44812        31.300    24508407.980 5 100357829.64057
        25.600    24508407.35947
  22108358.148 8 116180212.272 8        45.200    22108365.102 8  90530063.73349
        47.400    22108364.07449  22108360.551 5  86757989.423 5        37.800
  23525708.141 6 123628446.061 6        39.400    23525716.348 7  96333876.75549
        37.500    23525715.55549  23525711.563 3  92320013.100 3        32.600
  23404360.625 7 122990744.070 7        41.100    23404364.395 7  95836981.68947
        25.300    23404364.01647  23404365.027 3  91843746.169 3        32.800
  21387442.438 8 112391790.405 8        46.800                    87578023.68749
        38.100    21387445.51249
  20237554.219 9 106349086.073 9        51.800    20237560.273 9  82869445.90749
        54.900    20237559.93049  20237556.289 7  79416569.573 7        43.000
  21113202.664 9 110950633.835 9        52.700    21113209.043 9  86455072.31449
        55.000    21113208.73449  21113204.313 6  82852748.612 6        40.900
 21  1  1  0  3 30.0000000  0 11G21G23G16G07G15G08G26G18G20G27G10
  23605516.609 6 124047828.907 6        38.900                    96660663.17946
        23.500    23605520.16446
  21433715.852 9 112634954.695 9        48.400    21433720.781 9  87767517.26049
        38.900    21433720.00449  21433721.512 6  84110529.132 6        39.700
  21506811.555 9 113019151.201 9        48.000                    88066803.33749
        39.700    21506814.77349
  24650613.172 5 129539847.750 5        37.400    24650616.523 5 100940142.20145
        19.300    24650616.03945
  24510756.203 3 128804921.74413        32.900    24510761.258 5 100367468.04257
        26.400    24510761.40647
  22093676.734 8 116103062.062 8        45.200    22093683.945 8  90469946.68649
        47.600    22093682.62949  22093679.492 6  86700377.276 6        38.000
  23546255.945 6 123736424.095 6        39.400    23546263.652 7  96418015.47349
        37.800    23546263.27749  23546258.727 2  92400646.032 2        31.900
  23422261.227 6 123084817.423 6        40.400    23422266.215 7  95910285.59147
        25.300    23422264.42647  23422267.078 3  91913995.743 3        33.700
  21395462.953 8 112433938.213 8        47.000                    87610866.14249
        38.100    21395465.85249
  20234549.313 9 106333295.022 9        51.700    20234555.227 9  82857141.19549
        55.000    20234554.79349  20234551.227 7  79404777.566 7        43.600
  21106737.828 9 110916661.393 9        52.700    21106744.133 9  86428600.29149
        55.000    21106743.98849  21106739.418 7  82827379.588 7        41.100
 21  1  1  0  4  0.0000000  0 11G21G23G16G07G15G08G26G18G20G27G10
  23590653.320 6 123969721.827 6        39.200                    96599800.54246
        24.300    23590656.64546
  21440215.047 9 112669106.898 9        48.200    21440219.734 9  87794129.35949
        38.700    21440219.25449  21440219.977 6  84136032.385 6        39.400
  21521246.289 9 113095005.574 9        48.100                    88125910.63149
        39.900    21521249.19949
  24653719.898 5 129556173.493 5        37.100    24653723.352 5 100952863.53946
        20.400    24653722.62146
  24513219.422 3 128817871.56313        32.600    24513226.707 5 100377558.77757
        25.800    24513225.96547
  22079034.398 8 116026115.971 8        45.100    22079041.547 8  90409988.68849
        47.600    22079040.32449  22079036.813 6  86642917.469 6        38.100
  23566830.570 6 123844544.039 6        39.900    23566838.359 7  96502264.75649
        37.500    23566837.90649  23566833.004 2  92481384.972 2        31.300
  23440179.945 6 123178978.111 6        39.500    23440184.727 7  95983657.53347
        26.500    23440183.79747  23440186.004 5  91984310.461 5        35.100
  21403582.344 8 112476606.163 8        47.000                    87644113.89949
        37.800    21403585.22749
  20231621.141 9 106317907.834 9        51.200    20231627.215 9  82845151.17749
        55.000    20231626.77749  20231623.258 7  79393287.132 7        43.100
  21100378.703 9 110883243.833 9        52.500    21100384.809 9  86402560.64449
        55.000    21100384.73849  21100380.359 6  82802424.942 6        40.900
 21  1  1  0  4 30.0000000  0 11G21G23G16G07G15G08G26G18G20G27G10
  23575826.344 6 123891805.563 6        39.700                    96539086.60746
        22.800    23575829.22346
  21446823.188 9 112703831.099 9        48.400    21446827.336 9  87821187.18649
        38.600    21446826.88749  21446827.711 6  84161962.808 6        39.200
  21535764.281 9 113171299.254 9        48.100                    88185360.24249
        39.700    21535767.50449
  24656920.094 6 129572991.450 6        38.100    24656923.438 5 100965968.47646
        20.900    24656924.03546
  24515793.414 2 128831400.34412        31.600    24515800.207 5 100388100.20457
        25.600    24515800.48047
  22064431.289 8 115949375.784 8        45.200    22064438.676 8  90350191.13649
        47.800    22064437.39849  22064433.734 6  86585611.523 6        38.600
  23587432.133 6 123952803.648 6        39.600    23587439.277 7  96586622.88849
        37.100    23587438.23849  23587434.426 2  92562228.155 2        31.200
  23458113.938 6 123273224.977 6        40.400    23458119.434 7  96057096.60147
        25.200    23458118.68847  23458119.777 4  92054689.587 4        34.200
  21411800.320 8 112519792.718 8        46.900                    87677765.76249
        37.800    21411803.38349
  20228770.039 9 106302925.694 9        52.000    20228776.441 9  82833476.77149
        55.200    20228775.59449  20228772.145 7  79382099.166 7        43.400
  21094125.477 9 110850382.331 9        52.600    21094131.641 9  86376954.28749
        54.900    21094131.45349  21094126.824 7  82777885.503 7        41.000
 21  1  1  0  5  0.0000000  0 11G21G23G16G07G15G08G26G18G20G27G10
  23561036.133 6 123814080.467 6        40.100                    96478521.58346
        24.100    23561039.12946
  21453539.359 9 112739126.060 9        48.800    21453543.887 9  87848689.75349
        38.900    21453543.51649  21453544.219 6  84188319.433 6        39.500
  21550365.914 8 113248029.875 8        47.700                    88245150.32549
        39.600    21550368.91449
  24660213.883 5 129590300.485 5        36.400    24660217.211 5 100979455.99945
        19.300    24660216.42245
  24518480.156 3 128845511.49213        32.000    24518486.023 5 100399095.91657
        26.500    24518485.33647
  22049867.727 8 115872843.257 8        45.200    22049874.836 8  90290555.40849
        48.000    22049873.90249  22049869.820 5  86528460.604 5        37.700
  23608059.383 6 124061200.552 6        39.500    23608065.930 6  96671088.01049
        37.100    23608065.93449  23608062.152 3  92643173.871 3        32.400
  23476065.234 6 123367556.809 6        40.100    23476069.957 7  96130601.88547
        25.000    23476069.00047  23476070.109 3  92125132.167 3        33.900
  21420116.648 8 112563496.314 8        46.500                    87711820.50249
        37.700    21420119.73449
  20225996.227 9 106288349.592 9        51.800    20226002.582 9  82822118.77349
        55.000    20226001.93449  20225998.551 7  79371214.413 7        43.200
  21087977.922 9 110818077.995 9        53.000    21087984.172 9  86351782.08649
        55.100    21087984.13749  21087979.469 7  82753762.150 7        41.200
 21  1  1  0  5 30.0000000  0 11G21G23G16G07G15G08G26G18G20G27G10
  23546281.617 6 123736547.153 6        40.300                    96418106.04347
        25.300    23546285.25847
  21460363.922 8 112774990.324 8        47.500    21460368.613 9  87876635.93949
        38.700    21460368.32849  21460368.590 6  84215101.192 6        39.700
  21565050.031 8 113325195.406 8        47.700                    88305279.30249
        39.600    21565053.15649
  24663600.289 5 129608099.556 5        37.300    24663604.715 5 100993325.41245
        19.000    24663603.76245
  24521275.273 2 128860203.37012        31.300    24521281.563 5 100410544.16157
        26.100    24521281.45347
  22035343.984 8 115796519.732 8        45.400    22035351.141 8  90231082.53549
        48.000    22035350.00849  22035345.770 6  86471465.796 6        38.400
  23628712.000 6 124169732.228 6        39.700    23628719.570 7  96755658.13549
        37.300    23628719.45749  23628714.711 2  92724220.278 2        31.800
  23494031.352 6 123461972.351 6        39.600    23494036.215 7  96204172.45447
        26.400    23494035.21947  23494037.023 3  92195637.253 3        33.700
  21428531.703 8 112607715.197 8        47.200                    87746276.78149
        37.900    21428534.52349
  20223300.109 9 106274180.449 9        51.500    20223306.344 9  82811077.87449
        55.200    20223305.73449  20223302.086 7  79360633.543 7        43.200
  21081937.008 9 110786331.792 9        53.300    21081943.434 9  86327044.79449
        55.200    21081942.99649  21081938.320 7  82730055.573 7        41.200
 21  1  1  0  6  0.0000000  0 11G21G23G16G07G15G08G26G18G20G27G10
  23531563.438 6 123659205.650 6        39.600                    96357839.97247
        25.400    23531566.74247
  21467297.000 9 112811421.859 9        48.000    21467301.531 9  87905024.15049
        38.600    21467300.80549  21467301.719 6  84242306.580 6        39.200
  21579816.211 8 113402793.418 8        47.800                    88365745.27049
        39.400    21579819.73849
  24667081.219 5 129626386.856 5        37.500    24667084.594 5 101007575.22046
        20.600    24667084.27346
  24524182.773 3 128875476.33813        33.300    24524187.719 5 100422445.38157
        27.900    24524187.07447
  22020859.688 8 115720405.844 8        45.400    22020866.703 8  90171773.01549
        48.200    22020865.76249  22020862.258 6  86414627.482 6        38.000
  23649390.094 6 124278395.708 6        39.700    23649397.309 6  96840330.95449
        36.800    23649396.91449  23649392.180 2  92805365.090 2        31.200
  23512013.930 6 123556469.628 6        39.000    23512019.066 7  96277806.68946
        24.900    23512018.02046  23512019.953 4  92266203.311 4        34.000
  21437043.594 8 112652446.930 8        46.700                    87781132.68149
        37.500    21437046.58249
  20220681.195 9 106260418.547 9        51.800    20220687.387 9  82800354.31549
        55.100    20220686.91049  20220683.406 7  79350356.805 7        43.200
  21076002.305 9 110755144.074 9        53.000    21076008.641 9  86302742.69149
        54.900    21076008.17249  21076003.773 7  82706766.075 7        41.500
 21  1  1  0  6 30.0000000  0 11G21G23G16G07G15G08G26G18G20G27G10
  23516882.578 6 123582057.856 6        39.900                    96297724.82146
        24.400    23516886.93046
  21474337.445 9 112848420.733 9        48.600    21474342.270 9  87933854.44449
        39.200    21474341.49649  21474342.117 6  84269935.589 6        39.400
  21594665.102 8 113480823.004 8        47.700                    88426547.54649
        39.300    21594668.24649
  24670654.047 6 129645162.555 6        38.700    24670657.242 5 101022205.63346
        20.600    24670657.21546
  24527199.664 4 128891329.43214        34.600    24527203.965 5 100434798.47957
        28.800    24527203.63347
  22006416.508 8 115644505.202 8        45.400    22006423.152 8  90112629.66349
        47.900    22006422.08649  22006418.563 6  86357948.438 6        38.400
  23670092.797 6 124387190.082 6        38.900    23670099.895 6  96925105.79049
        35.600    23670099.04749  23670096.344 3  92886607.608 3        32.100
  23530011.789 6 123651048.928 6        38.600    23530016.926 7  96351504.79347
        26.200    23530016.63347  23530017.848 3  92336830.716 3        33.900
  21445653.633 8 112697692.001 8        47.100                    87816388.57749
        37.700    21445656.39549
  20218140.461 9 106247066.329 9        51.400    20218146.727 9  82789949.98449
        55.900    20218145.89549  20218142.633 7  79340385.990 7        43.500
  21070174.063 9 110724517.285 9        52.800    21070180.336 9  86278877.66449
        55.400    21070179.89549  21070175.645 7  82683895.408 7        41.400
 21  1  1  0  7  0.0000000  0 11G21G23G16G07G15G08G26G18G20G27G10
  23502238.438 6 123505102.793 6        39.100                    96237759.85646
        23.000    23502242.52046
  21481484.977 9 112885984.164 9        48.200    21481490.004 9  87963124.64749
        38.700    21481489.30549  21481490.094 6  84297986.219 6        39.300
  21609595.078 8 113559280.526 8        47.900                    88487683.26349
        39.200    21609597.95749
  24674319.195 5 129664424.209 5        36.800    24674322.398 4 101037214.68245
        18.300    24674322.23045
  24530326.930 4 128907762.201 4        34.600    24530330.793 5 100447603.29048
        30.100    24530330.72748
  21992013.203 8 115568817.935 8        45.800    21992020.531 8  90053652.57049
        48.100    21992019.23849  21992015.918 6  86301428.713 6        38.300
  23690820.273 6 124496111.454 6        39.600    23690827.801 7  97009979.58049
        36.600    23690827.22749  23690823.918 3  92967944.994 3        33.400
  23548024.563 6 123745707.659 6        38.700    23548029.531 7  96425264.80746
        22.500    23548028.96146  23548029.965 3  92407517.389 3        33.700
  21454360.273 8 112743447.188 8        46.700                    87852041.97349
        37.400    21454363.49249
  20215677.539 9 106234123.322 9        51.600    20215683.555 9  82779864.52649
        56.000    20215683.02349  20215679.508 7  79330720.751 7        43.300
  21064452.492 9 110694450.971 9        52.600    21064458.781 9  86255449.37749
        55.000    21064458.48849  21064454.230 6  82661443.311 6        40.800
 21  1  1  0  7 30.0000000  0 11G21G23G16G07G15G08G26G18G20G27G10
  23487632.008 6 123428341.119 6        40.100                    96177945.62147
        26.100    23487634.88347
  21488740.766 8 112924110.650 8        47.500    21488745.500 9  87992833.59549
        39.000    21488744.70349  21488745.387 6  84326457.280 6        39.200
  21624605.820 9 113638163.908 9        48.000                    88549150.82249
        39.000    21624609.20749
  24678076.039 5 129684170.539 5        37.100    24678080.320 5 101052601.42645
        19.600    24678079.76645
  24533565.039 5 128924774.653 5        37.600    24533568.223 6 100460859.74648
        31.500    24533568.29748
  21977651.797 8 115493345.373 8        45.800    21977658.535 8  89994842.78349
        48.300    21977657.38749  21977653.973 6  86245069.374 6        38.100
  23711570.789 6 124605157.469 6        39.200    23711579.031 7  97094950.46049
        37.400    23711578.19149  23711574.063 2  93049375.381 2        31.700
  23566052.234 6 123840444.448 6        38.800    23566057.383 7  96499085.63746
        24.900    23566056.13746  23566057.535 3  92478262.360 3        32.800
  21463163.875 8 112789710.600 8        46.700                    87888091.37849
        37.100    21463167.09849
  20213292.438 9 106221590.430 9        51.300    20213298.820 9  82770098.63149
        55.300    20213298.16049  20213294.727 7  79321361.784 7        43.700
  21058837.992 9 110664946.028 9        53.300    21058844.273 9  86232458.52549
        55.200    21058843.99249  21058839.348 7  82639410.412 7        41.100
 21  1  1  0  8  0.0000000  0 11G21G23G16G07G15G08G26G18G20G27G10
  23473062.305 7 123351773.058 7        41.500                    96118282.22246
        24.600    23473065.02046
  21496103.039 9 112962798.661 9        48.300    21496107.246 9  88022980.10049
        39.000    21496106.99649  21496107.781 6  84355347.708 6        39.500
  21639697.656 9 113717471.152 9        48.100                    88610948.66649
        38.900    21639700.66849
  24681926.109 5 129704400.530 5        37.500    24681930.270 4 101068365.07645
        19.900    24681929.79345
  24536911.461 5 128942366.45015        36.000    24536916.246 5 100474567.65258
        30.200    24536915.78548
  21963330.914 8 115418089.281 8        45.700    21963338.039 8  89936201.67749
        48.500    21963336.71149  21963332.953 6  86188871.666 6        38.800
  23732344.617 6 124714325.552 6        39.700    23732352.270 6  97180016.49549
        35.800    23732351.56349  23732346.949 2  93130897.028 2        31.800
  23584094.828 6 123935258.115 6        38.000    23584100.336 7  96572966.41647
        25.200    23584099.45347  23584100.879 3  92549064.775 3        33.400
  21472064.102 8 112836480.898 8        46.700                    87924535.76849
        37.600    21472067.16049
  20210985.930 9 106209468.524 9        51.500    20210991.781 9  82760652.98349
        55.300    20210991.44549  20210987.969 7  79312309.698 7        43.700
  21053330.094 9 110636003.267 9        53.000    21053336.590 9  86209905.73749
        55.000    21053336.40649  21053331.895 6  82617797.320 6        40.700
 21  1  1  0  8 30.0000000  0 11G21G23G16G07G15G08G26G18G20G27G10
  23458527.961 7 123275399.302 7        41.100                    96058770.21546
        24.500    23458531.16446
  21503571.563 8 113002046.935 8        47.700    21503576.156 9  88053563.18049
        38.300    21503575.47749  21503576.406 6  84384656.480 6        39.600
  21654869.453 8 113797200.336 8        47.400                    88673075.29649
        38.600    21654872.64849
  24685868.078 5 129725112.974 5        37.300    24685871.277 5 101084504.65746
        20.400    24685870.85546
  24540369.984 5 128960537.456 5        37.500    24540374.316 5 100488726.88747
        29.800    24540374.25047
  21949051.641 8 115343051.515 8        45.700    21949058.770 8  89877730.69349
        48.700    21949057.60949  21949054.066 6  86132836.945 6        38.300
  23753141.789 6 124823613.631 6        39.400    23753149.172 6  97265176.03049
        35.400    23753147.98849  23753144.871 3  93212508.268 3        32.300
  23602151.406 5 124030147.595 5        37.800    23602157.289 7  96646906.23246
        23.900    23602156.53946  23602157.660 3  92619923.758 3        33.900
  21481060.227 8 112883756.470 8        46.300                    87961373.87549
        37.100    21481063.41849
  20208757.359 9 106197758.720 9        51.200    20208763.609 9  82751528.45749
        55.600    20208763.02749  20208759.598 7  79303565.361 7        43.500
  21047929.867 9 110607623.823 9        53.300    21047936.156 9  86187791.89349
        55.300    21047935.80949  21047931.457 6  82596604.899 6        40.600
 21  1  1  0  9  0.0000000  0 11G21G23G16G07G15G08G26G18G20G27G10
  23444031.492 7 123199220.199 7        41.300                    95999409.87446
        24.200    23444034.11746
  21511146.820 8 113041853.810 8        47.300    21511150.941 9  88084581.52949
        38.900    21511150.60249  21511151.414 6  84414382.389 6        39.200
  21670121.086 8 113877349.036 8        47.300                    88735528.81249
        39.800    21670124.34049
  24689900.797 5 129746306.587 5        37.600    24689904.836 5 101101019.09545
        19.000    24689904.44545
  24543936.602 5 128979287.457 5        36.000    24543942.215 4 100503337.28547
        27.900    24543940.89147
  21934814.617 8 115268233.777 8        46.200    21934821.246 8  89819431.16649
        48.800    21934820.21949  21934817.063 6  86076966.571 6        38.700
  23773961.156 6 124933019.019 6        39.600    23773968.879 7  97350426.99649
        36.900    23773968.25849  23773963.801 3  93294207.034 3        32.800
  23620223.773 6 124125111.512 6        39.100    23620228.063 7  96720904.04947
        26.200    23620227.15247  23620228.355 4  92690838.354 4        34.100
  21490152.453 8 112931535.482 8        46.500                    87998604.27849
        37.200    21490155.19549
  20206607.898 9 106186461.777 9        51.800    20206614.008 9  82742725.63949
        55.700    20206613.34849  20206609.609 7  79295129.330 7        43.600
  21042636.758 9 110579808.361 9        52.800    21042643.012 9  86166117.51449
        55.200    21042642.89549  21042638.410 7  82575833.602 7        41.300
 21  1  1  0  9 30.0000000  0 11G21G23G16G07G15G08G26G18G20G27G10
  23429572.188 7 123123235.867 7        41.200                    95940201.32846
        24.800    23429575.83246
  21518827.625 9 113082217.481 9        48.100    21518832.063 9  88116033.74549
        38.700    21518831.47749  21518832.480 6  84444524.109 6        39.500
  21685452.516 8 113957914.563 8        47.600                    88798307.14249
        38.800    21685455.75049
  24694024.906 6 129767979.659 6        38.600    24694028.609 5 101117907.19045
        19.900    24694028.57445
  24547616.430 5 128998616.395 5        36.700    24547619.234 3 100518398.83047
        27.500    24547619.02347
  21920619.063 8 115193637.167 8        45.900    21920625.984 8  89761303.93849
        48.800    21920624.95349  21920621.258 6  86021261.291 6        38.400
  23794801.805 6 125042539.115 6        39.100    23794809.227 7  97435767.27949
        35.900    23794808.86349  23794803.922 2  93375991.53712        31.200
  23638308.094 6 124220148.423 6        38.400    23638312.383 6  96794958.79446
        24.800    23638311.51246  23638313.086 3  92761807.428 3        33.400
  21499339.609 8 112979815.906 8        46.600                    88036225.40049
        37.100    21499342.90649
  20204536.727 9 106175578.302 9        51.200    20204543.008 9  82734245.00449
        55.600    20204542.24249  20204538.809 7  79287002.052 7        43.600
  21037451.219 9 110552557.436 9        53.000    21037457.316 9  86144883.03749
        55.000    21037457.00049  21037452.547 7  82555483.903 7        41.300
 21  1  1  0 10  0.0000000  0 11G21G23G16G07G15G08G26G18G20G27G10
  23415150.133 7 123047446.950 7        41.200                    95881145.06347
        26.000    23415154.00847
  21526614.227 8 113123136.450 8        47.700    21526618.680 9  88147918.66049
        38.000    21526617.93449  21526618.773 6  84475080.483 6        39.400
  21700862.445 8 114038895.140 8        47.900                    88861408.88449
        38.800    21700865.86349
  24698239.469 4 129790131.057 4        34.800    24698243.809 5 101135168.03045
        19.000    24698243.74645
  24551403.281 5 129018523.475 5        37.700    24551406.813 3 100533910.85847
        27.800    24551407.28147
  21906465.992 8 115119263.498 8        46.600    21906473.254 8  89703350.43749
        48.800    21906471.98449  21906468.410 6  85965722.533 6        38.300
  23815664.352 6 125152171.504 6        39.800    23815670.969 6  97521195.11449
        35.000    23815670.25449  23815665.855 1  93457859.853 1        30.100
  23656406.469 5 124315257.158 5        37.900    23656411.449 7  96869069.47046
        24.200    23656410.56346  23656412.043 3  92832830.217 3        33.400
  21508622.211 8 113028596.065 8        46.400                    88074235.90649
        37.100    21508625.29749
  20202544.555 9 106165109.265 9        52.100    20202550.840 9  82726087.30649
        55.500    20202550.10249  20202546.738 7  79279184.256 7        43.100
  21032372.711 9 110525871.942 9        52.900    21032379.207 9  86124089.15649
        55.000    21032379.00849  21032374.398 7  82535556.451 7        41.300
 21  1  1  0 10 30.0000000  0 11G21G23G16G07G15G08G26G18G20G27G10
  23400765.234 7 122971854.145 7        41.300                    95822241.57346
        23.000    23400767.69546
  21534506.109 8 113164609.234 8        47.600    21534510.762 9  88180235.11849
        38.300    21534509.95749  21534510.871 6  84506050.426 6        39.200
  21716350.891 8 114120288.298 8        47.300                    88924832.11049
        38.500    21716354.45749
  24702546.734 5 129812759.784 5        36.700    24702550.531 5 101152800.74145
        19.300    24702549.54345
  24555301.516 6 129039008.333 6        38.400    24555305.301 3 100549873.10847
        28.800    24555305.47347
  21892356.117 8 115045114.502 8        46.400    21892362.879 8  89645571.99849
        48.900    21892361.82449  21892358.043 6  85910351.554 6        38.600
  23836547.672 6 125261913.937 6        39.500    23836554.348 6  97606708.70549
        36.200    23836554.11749  23836549.883 2  93539810.31112        31.600
  23674519.102 5 124410436.672 5        37.900    23674524.168 7  96943235.29547
        25.200    23674523.04747  23674525.117 3  92903905.752 3        33.300
  21517999.906 8 113077874.619 8        46.500                    88112634.77549
        36.600    21518002.95749
  20200631.320 9 106155055.597 9        52.000    20200637.664 9  82718253.28249
        55.400    20200637.02749  20200633.465 7  79271676.661 7        43.900
  21027402.578 9 110499752.699 9        52.800    21027408.875 9  86103736.51249
        55.300    21027408.66849  21027404.184 7  82516051.831 7        41.600
 21  1  1  0 11  0.0000000  0 11G21G23G16G07G15G08G26G18G20G27G10
  23386417.281 6 122896457.500 6        40.500                    95763490.95346
        24.800    23386419.65246
  21542503.398 8 113206633.859 8        47.700    21542507.633 9  88212981.58649
        38.400    21542507.07049  21542507.840 6  84537432.471 6        39.700
  21731917.914 8 114202091.438 8        47.000                    88988574.80249
        37.700    21731920.93049
  24706942.586 5 129835863.827 5        36.300    24706947.527 5 101170803.84345
        19.900    24706946.64145
  24559310.297 6 129060070.703 6        38.400    24559313.254 4 100566285.35347
        28.600    24559313.20747
  21878289.000 8 114971191.348 8        46.700    21878295.617 8  89587969.54749
        49.100    21878294.82049  21878291.211 6  85855149.218 6        38.300
  23857451.023 6 125371763.422 6        39.600    23857458.559 7  97692305.69149
        36.100    23857458.39149  23857454.043 2  93621840.811 2        31.800
  23692643.758 6 124505685.230 6        39.800    23692649.066 7  97017454.91047
        25.600    23692648.45347  23692649.961 4  92975032.918 4        34.000
  21527471.930 8 113127649.405 8        46.500                    88151420.31949
        36.800    21527474.77349
  20198797.406 9 106145417.822 9        51.900    20198803.566 9  82710743.32549
        55.300    20198802.98449  20198799.238 7  79264479.605 7        43.600
  21022540.039 9 110474200.117 9        52.900    21022546.355 9  86083825.40849
        55.200    21022546.06649  21022541.270 7  82496970.359 7        41.400
 21  1  1  0 11 30.0000000  0 11G21G23G16G07G15G08G26G18G20G27G10
  23372106.586 6 122821257.311 6        39.400                    95704893.44747
        25.500    23372111.02747
  21550605.000 8 113249208.738 8        47.500    21550609.422 9  88246156.82249
        38.200    21550608.80149  21550609.535 6  84569225.383 6        39.600
  21747562.141 8 114284302.801 8        47.200                    89052635.60449
        37.900    21747565.15649
  24711429.555 5 129859442.084 5        36.400    24711433.988 5 101189176.46845
        19.600    24711434.09845
  24563428.570 5 129081710.096 5        37.500    24563431.652 4 100583147.26047
        28.100    24563431.29347
  21864265.336 8 114897495.665 8        46.800    21864272.344 8  89530544.34849
        49.200    21864271.04749  21864267.367 6  85800116.713 6        38.700
  23878374.398 6 125481717.777 6        38.800    23878382.027 6  97777984.38549
        35.100    23878381.62549  23878377.379 1  93703949.553 1        30.700
  23710782.539 6 124601001.828 6        39.500    23710786.438 6  97091727.55646
        22.500    23710786.15246  23710787.207 3  93046210.829 3        32.900
  21537037.289 8 113177918.587 8        46.800                    88190591.12149
        37.100    21537040.46149
  20197042.734 9 106136196.807 9        52.000    20197048.867 9  82703558.11249
        55.200    20197048.35249  20197044.789 7  79257593.782 7        43.200
  21017785.734 9 110449214.911 9        52.900    21017791.871 9  86064356.42849
        55.200    21017791.56349  21017786.977 7  82478312.592 7        41.600
 21  1  1  0 12  0.0000000  0 11G21G23G16G07G15G08G26G18G20G27G10
  23357834.586 6 122746253.867 6        40.300                    95646449.22346
        24.500    23357838.78146
  21558811.070 8 113292332.135 8        47.000    21558815.387 9  88279759.47549
        38.200    21558814.90649  21558815.582 6  84601427.938 6        39.200
  21763283.609 8 114366919.868 8        47.300                    89117012.52149
        38.600    21763286.90649
  24716007.461 5 129883493.155 5        37.400    24716010.039 5 101207917.52045
        19.600    24716010.21545
  24567656.078 5 129103925.803 5        36.900    24567659.145 5 100600458.24447
        27.000    24567658.82847
  21850284.992 8 114824028.744 8        46.400    21850291.820 8  89473297.40849
        49.300    21850290.73849  21850287.102 6  85745255.070 6        39.200
  23899317.766 6 125591774.292 6        38.900    23899325.270 6  97863742.70549
        36.400    23899324.51649  23899320.227 2  93786134.61912        31.200
  23728932.344 6 124696385.090 6        38.400    23728937.438 6  97166052.15346
        22.800    23728936.16046  23728938.422 3  93117438.557 3        32.400
  21546697.242 8 113228680.200 8        45.900                    88230145.62549
        37.100    21546700.28149
  20195367.375 9 106127393.291 9        51.200    20195373.691 9  82696698.21949
        55.600    20195373.03549  20195369.438 7  79251019.718 7        43.400
  21013139.242 9 110424797.715 9        53.800    21013145.285 9  86045330.05049
        55.100    21013145.02749  21013140.551 7  82460078.985 7        41.600
 21  1  1  0 12 30.0000000  0 11G21G23G16G07G15G08G26G18G20G27G10
  23343599.836 6 122671447.763 6        40.500                    95588158.77747
        27.500    23343603.07447
  21567121.508 9 113336002.568 9        48.000    21567125.793 9  88313788.38549
        38.700    21567125.08649  21567125.777 6  84634038.971 6        39.200
  21779082.063 8 114449940.437 8        47.000                    89181703.87549
        38.500    21779085.39149
  24720672.438 5 129908015.447 5        35.600    24720676.367 5 101227025.77745
        17.400    24720676.25045
  24571992.078 5 129126717.793 5        35.900    24571995.449 4 100618218.29747
        28.600    24571995.25447
  21836348.617 8 114750792.695 8        47.200    21836355.457 8  89416230.36449
        49.500    21836354.34449  21836350.715 6  85690565.815 6        38.800
  23920279.344 6 125701930.826 6        38.000    23920287.586 6  97949578.95549
        34.400    23920286.95749  23920283.063 2  93868394.36912        31.400
  23747096.164 6 124791834.009 6        39.000    23747101.676 7  97240427.94347
        25.300    23747100.66047  23747101.953 2  93188715.372 2        31.900
  21556450.414 8 113279932.751 8        46.300                    88270082.67149
        37.300    21556453.29349
  20193771.547 9 106119008.321 9        51.700    20193778.043 9  82690164.47549
        56.300    20193777.34449  20193773.828 7  79244758.200 7        43.700
  21008601.000 9 110400949.361 9        54.100    21008607.160 9  86026746.92549
        55.500    21008606.96549  21008602.387 7  82442270.158 7        41.700
 21  1  1  0 13  0.0000000  0 11G21G23G16G07G15G08G26G18G20G27G10
  23329402.250 7 122596839.455 7        41.600                    95530022.47747
        27.000    23329405.24247
  21575535.313 8 113380218.210 8        46.700    21575539.492 9  88348242.13049
        38.400    21575539.31349  21575540.141 6  84667057.151 6        39.700
  21794956.219 8 114533361.748 8        47.100                    89246707.47749
        37.700    21794959.77749
  24725429.195 5 129933007.434 5        37.700    24725433.402 5 101246500.04546
        21.100    24725432.64146
  24576438.539 5 129150085.50815        35.700    24576442.133 4 100636426.92657
        27.700    24576442.49647
  21822456.188 8 114677788.940 8        47.500    21822463.383 8  89359344.32749
        49.300    21822462.21149  21822458.758 6  85636050.058 6        38.900
  23941260.984 6 125812184.775 6        38.500    23941268.137 6  98035491.10449
        36.100    23941267.63749  23941263.395 2  93950726.873 2        31.200
  23765272.109 6 124887347.242 6        39.000    23765277.074 7  97314853.82846
        23.600    23765276.46146  23765277.742 3  93260040.16113        32.100
  21566296.164 8 113331674.226 8        46.900                    88310400.70649
        36.400    21566298.92249
  20192256.000 9 106111042.526 9        51.400    20192262.219 9  82683957.36649
        56.600    20192261.49649  20192258.102 7  79238809.727 7        43.400
  21004171.016 9 110377670.323 9        53.000    21004177.480 9  86008607.41749
        55.300    21004177.12149  21004172.531 6  82424886.450 6        40.900
 21  1  1  0 13 30.0000000  0 11G21G23G16G07G15G08G26G18G20G27G10
  23315242.109 7 122522428.861 7        42.400                    95472040.22547
        25.500    23315245.32847
  21584052.633 8 113424977.315 8        47.600    21584057.082 9  88383119.35849
        38.300    21584056.53149  21584057.395 6  84700481.153 6        39.400
  21810906.922 8 114617181.822 8        47.500                    89312021.80949
        38.200    21810910.00049
  24730273.547 5 129958467.614 5        37.500    24730277.742 5 101266339.11646
        20.400    24730276.98846
  24580995.359 5 129174028.225 5        36.900    24580998.766 4 100655083.60947
        27.200    24580998.59047
  21808608.594 8 114605018.998 8        47.500    21808615.719 9  89302640.48549
        49.700    21808614.52349  21808611.012 6  85581708.833 6        38.900
  23962259.578 6 125922533.629 6        38.900    23962266.617 6  98121477.20049
        35.500    23962266.59849  23962262.375 2  94033130.136 2        31.100
  23783459.273 6 124982923.581 6        38.300    23783464.801 7  97389328.89446
        22.900    23783464.00046  23783465.395 3  93331412.068 3        33.000
  21576234.883 8 113383902.950 8        46.700                    88351098.42149
        37.000    21576238.14549
  20190820.172 9 106103496.702 9        51.500    20190826.332 9  82678077.49749
        55.000    20190825.66449  20190822.234 7  79233174.872 7        43.500
  20999849.602 9 110354961.203 9        52.100    20999856.047 9  85990912.01149
        55.000    20999855.78549  20999850.828 7  82407928.376 7        41.400
 21  1  1  0 14  0.0000000  0 11G21G23G16G07G15G08G26G18G20G27G10
  23301119.602 7 122448216.391 7        42.300                    95414212.35647
        26.000    23301124.03147
  21592673.086 8 113470277.881 8        46.800    21592677.332 8  88418418.50849
        37.700    21592677.00049  21592677.742 6  84734309.511 6        39.400
  21826932.539 8 114701398.026 8        47.200                    89377644.82049
        38.000    21826935.99649
  24735208.438 5 129984394.470 5        37.800    24735211.449 5 101286541.83945
        18.300    24735211.37945
  24585659.516 4 129198545.318 4        34.700    24585664.465 5 100674187.85947
        28.300    24585664.91447
  21794805.719 8 114532484.357 8        46.300    21794812.504 8  89246119.99449
        49.400    21794811.57049  21794808.340 6  85527543.377 6        38.900
  23983276.125 6 126032974.690 6        39.500    23983282.680 6  98207535.17649
        35.300    23983281.91849  23983278.164 1  94115602.368 1        30.500
  23801658.773 6 125078561.560 6        38.200    23801663.555 7  97463851.93746
        23.900    23801663.46546  23801664.598 3  93402829.990 3        32.100
  21586266.133 8 113436616.608 8        46.900                    88392173.99849
        36.700    21586269.32049
  20189464.016 9 106096371.393 9        52.300    20189470.441 9  82672525.30749
        56.100    20189469.74649  20189466.223 7  79227854.011 7        43.700
  20995636.883 9 110332822.336 9        53.300    20995643.004 9  85973660.95949
        55.000    20995642.82449  20995637.918 7  82391396.103 7        41.300
 21  1  1  0 14 30.0000000  0 11G21G23G16G07G15G08G26G18G20G27G10
  23287035.375 6 122374202.639 6        40.500                    95356539.29947
        27.200    23287038.95347
  21601396.398 9 113516118.410 9        48.200    21601400.574 9  88454138.39949
        37.800    21601399.81649  21601401.188 6  84768541.074 6        39.400
  21843033.430 8 114786008.245 8        47.100                    89443574.86149
        38.200    21843036.76249
  24740229.570 6 130010786.587 6        38.000    24740233.527 5 101307107.08545
        19.300    24740233.50445
  24590435.227 5 129223636.190 5        36.600    24590438.898 4 100693739.21747
        28.500    24590438.78147
  21781047.922 8 114460186.993 8        46.600    21781055.215 8  89189784.38849
        49.600    21781053.84849  21781050.176 6  85473555.112 6        39.200
  24004309.281 6 126143505.699 6        39.600    24004316.027 6  98293663.24149
        36.000    24004315.84049  24004311.352 2  94198141.827 2        31.000
  23819868.914 6 125174260.225 6        38.800    23819874.516 7  97538422.31846
        23.000    23819874.00046  23819875.438 3  93474293.33113        32.200
  21596389.219 8 113489813.480 8        46.400                    88433626.10249
        36.500    21596392.35549
  20188188.680 9 106089667.589 9        51.800    20188194.754 9  82667301.55349
        55.300    20188194.03549  20188190.555 7  79222847.917 7        43.800
  20991532.820 9 110311254.468 9        53.900    20991538.773 9  85956854.84149
        55.500    20991538.48849  20991534.043 7  82375290.245 7        41.100
 21  1  1  0 15  0.0000000  0 11G21G23G16G07G15G08G26G18G20G27G10
  23272989.211 7 122300387.833 7        42.500                    95299021.32246
        24.700    23272991.83646
  21610221.891 8 113562496.958 8        47.900    21610225.934 9  88490277.53149
        38.300    21610225.38749  21610226.523 6  84803174.421 6        39.400
  21859208.805 8 114871009.736 8        47.000                    89509809.77449
        38.600    21859212.17249
  24745340.672 6 130037642.296 6        38.500    24745344.547 5 101328033.63346
        20.100    24745343.65646
  24595318.711 5 129249300.080 5        35.400    24595322.836 5 100713737.05947
        27.900    24595323.37547
  21767335.836 8 114388128.058 8        47.000    21767342.477 8  89133634.57249
        49.800    21767341.42249  21767338.117 6  85419744.850 6        38.600
  24025359.055 6 126254124.073 6        39.000    24025366.313 6  98379859.35349
        35.500    24025365.86749  24025361.906 2  94280746.363 2        31.600
  23838092.016 6 125270018.279 6        38.600    23838097.125 7  97613038.96146
        22.900    23838096.34446  23838097.441 2  93545800.905 2        31.900
  21606603.875 8 113543491.719 8        46.500                    88475453.29649
        36.500    21606606.97349
  20186993.055 9 106083385.913 9        51.600    20186999.430 9  82662406.73949
        55.800    20186998.75449  20186995.406 7  79218157.070 7        43.800
  20987537.180 9 110290258.061 9        52.200    20987543.348 9  85940494.00449
        55.700    20987542.97349  20987538.383 7  82359611.116 7        41.400
 21  1  1  0 15 30.0000000  0 11G21G23G16G07G15G08G26G18G20G27G10
  23258980.086 7 122226772.309 7        41.100                    95241658.59647
        25.900    23258984.00447
  21619149.289 8 113609411.650 8        47.600    21619153.750 9  88526834.44149
        38.100    21619153.00049  21619153.840 6  84838208.125 6        38.600
  21875458.164 8 114956400.752 8        46.700                    89576348.21349
        38.100    21875461.45349
  24750538.953 5 130064959.871 5        36.600    24750543.086 5 101349320.02845
        19.600    24750542.04345
  24600312.008 5 129275536.711 5        37.000    24600315.613 5 100734181.20447
        29.000    24600315.43447
  21753669.156 8 114316309.516 8        47.400    21753675.902 9  89077672.07549
        49.900    21753674.74249  21753671.512 6  85366114.157 6        39.000
  24046424.836 6 126364827.290 6        38.100    24046432.414 6  98466121.59549
        34.800    24046431.59449  24046427.910 1  94363414.372 1        29.800
  23856325.320 6 125365834.382 6        40.200    23856330.141 7  97687700.81846
        22.900    23856329.58646  23856330.680 3  93617351.883 3        33.100
  21616910.008 8 113597649.314 8        47.100                    88517654.03249
        36.700    21616912.63349
  20185878.016 9 106077527.022 9        51.900    20185884.391 9  82657841.36949
        56.100    20185883.98849  20185880.367 7  79213781.918 7        43.200
  20983650.398 9 110269833.420 9        53.400    20983656.781 9  85924578.71549
        55.300    20983656.27749  20983651.523 7  82344358.975 7        41.000
 21  1  1  0 16  0.0000000  0 11G21G23G16G07G15G08G26G18G20G27G10
  23245009.992 6 122153356.322 6        40.600                    95184451.37047
        25.300    23245013.48447
  21628178.461 8 113656860.686 8        47.200    21628182.957 8  88563807.71349
        38.600    21628182.35549  21628183.027 6  84873640.830 6        39.200
  21891781.180 8 115042178.470 8        46.900                    89643187.99149
        38.300    21891784.49249
  24755824.781 5 130092737.741 5        37.700    24755828.145 4 101370965.05045
        17.800    24755828.14145
  24605413.320 5 129302345.444 5        37.300    24605417.348 5 100755071.13147
        29.300    24605417.07447
  21740048.664 8 114244732.649 8        47.200    21740055.477 9  89021897.89249
        50.000    21740054.40649  21740050.957 6  85312663.868 6        39.300
  24067505.648 5 126475612.869 5        36.900    24067514.102 6  98552448.02748
        32.600    24067513.14848  24067508.910 1  94446143.829 1        29.500
  23874568.906 6 125461707.443 6        39.500    23874573.965 7  97762407.08446
        23.300    23874573.82846  23874574.762 3  93688945.366 3        32.700
  21627305.820 8 113652284.439 8        46.000                    88560226.86049
        36.600    21627309.22749
  20184844.078 9 106072091.723 9        51.700    20184850.188 9  82653606.07549
        55.200    20184849.59449  20184845.902 7  79209723.091 7        43.500
  20979872.625 9 110249981.117 9        54.100    20979878.621 9  85909109.40149
        55.000    20979878.69149  20979873.918 7  82329534.217 7        41.400
 21  1  1  0 16 30.0000000  0 11G21G23G16G07G15G08G26G18G20G27G10
  23231077.297 7 122080140.317 7        41.900                    95127399.97547
        26.300    23231080.25447
  21637308.984 8 113704842.316 8        47.900    21637313.398 9  88601195.99949
        38.500    21637313.38349  21637313.586 6  84909471.261 6        38.600
  21908177.055 8 115128340.441 8        46.800                    89710327.18549
        37.700    21908180.39149
  24761198.344 5 130120974.613 5        36.500    24761201.414 3 101392967.84845
        16.900    24761200.77045
  24610623.609 5 129329725.337 5        37.500    24610627.730 5 100776406.13048
        30.200    24610627.60948
  21726474.195 8 114173399.355 8        47.300    21726481.402 9  88966313.52149
        50.200    21726480.23049  21726476.566 6  85259395.525 6        39.300
  24088603.344 6 126586478.471 6        38.300    24088611.746 6  98638836.76849
        34.800    24088610.84849  24088607.074 2  94528933.039 2        31.400
  23892823.578 6 125557636.331 6        40.300    23892828.598 6  97837156.83546
        22.600    23892828.09446  23892829.191 3  93760580.489 3        32.200
  21637793.570 8 113707395.225 8        46.600                    88603170.32749
        36.000    21637796.75049
  20183890.547 9 106067080.811 9        52.300    20183896.539 9  82649701.47149
        55.800    20183896.12949  20183892.570 7  79205981.170 7        43.400
  20976203.820 9 110230701.667 9        53.100    20976209.902 9  85894086.45749
        55.700    20976209.78949  20976204.918 7  82315137.224 7        41.300
 21  1  1  0 17  0.0000000  0 11G21G23G16G07G15G08G26G18G20G27G10
  23217182.570 7 122007124.349 7        41.100                    95070504.43647
        26.100    23217186.25847
  21646540.703 8 113753354.405 8        47.600    21646544.855 9  88638997.62549
        38.100    21646544.47749  21646545.473 6  84945697.838 6        38.900
  21924646.016 8 115214884.301 8        47.200                    89777763.94949
        37.700    21924649.18449
  24766658.406 5 130149668.916 5        35.400    24766662.762 4 101415327.01045
        17.800    24766661.76645
  24615941.883 5 129357675.397 5        37.700    24615946.617 5 100798185.42348
        31.500    24615946.33248
  21712946.625 8 114102310.807 8        47.000    21712953.691 9  88910919.85649
        50.200    21712952.43449  21712948.523 6  85206309.912 6        39.000
  24109715.047 6 126697421.305 6        38.100    24109723.086 6  98725285.72249
        34.000    24109722.77349  24109718.789 2  94611779.957 2        31.700
  23911088.602 6 125653619.633 6        39.900    23911093.320 6  97911949.00946
        22.800    23911093.21146  23911093.328 2  93832256.374 2        31.000
  21648370.875 8 113762979.417 8        46.800                    88646482.69049
        36.800    21648374.25449
  20183017.703 9 106062494.721 9        52.100    20183023.844 9  82646127.89149
        55.200    20183023.32049  20183019.633 7  79202556.493 7        43.700
  20972643.953 9 110211995.210 9        53.300    20972650.242 9  85879510.01449
        55.200    20972650.20349  20972645.172 7  82301168.112 7        42.000
 21  1  1  0 17 30.0000000  0 11G21G23G16G07G15G08G26G18G20G27G10
  23203326.102 7 121934309.237 7        41.600                    95013765.42247
        26.900    23203330.38747
  21655872.680 8 113802395.583 8        47.800    21655877.391 9  88677211.53549
        37.700    21655876.42649  21655877.500 6  84982319.498 6        38.900
  21941186.727 8 115301807.956 8        46.700                    89845496.66249
        37.200    21941190.15249
  24772206.781 5 130178818.879 5        37.200    24772209.344 3 101438041.25745
        17.400    24772208.82845
  24621369.531 6 129386195.667 6        38.100    24621374.285 5 100820409.03948
        30.500    24621373.39548
  21699465.531 8 114031469.157 8        47.900    21699472.852 9  88855718.56949
        50.200    21699471.68049  21699468.098 6  85153408.674 6        39.300
  24130842.125 6 126808439.414 6        39.200    24130848.895 6  98811793.31749
        35.000    24130848.34049  24130843.684 1  94694683.085 1        29.500
  23929363.836 6 125749656.596 6        39.200    23929369.199 6  97986782.99346
        22.300    23929368.38746  23929369.188 2  93903972.25012        31.300
  21659038.008 8 113819035.547 8        46.300                    88690162.78349
        35.800    21659041.41049
  20182225.922 9 106058334.669 9        51.500    20182232.430 9  82642886.29749
        55.900    20182231.59849  20182228.293 7  79199449.974 7        43.800
  20969193.711 9 110193862.646 9        53.700    20969199.547 9  85865380.74849
        55.200    20969199.43449  20969194.766 7  82287627.603 7        41.100
 21  1  1  0 18  0.0000000  0 11G21G23G16G07G15G08G26G18G20G27G10
  23189508.711 7 121861694.710 7        41.500                    94957182.70747
        27.000    23189512.25447
  21665305.563 8 113851963.568 8        47.500    21665309.813 9  88715835.94249
        38.200    21665309.36349  21665309.676 6  85019334.549 6        38.400
  21957799.523 8 115389108.382 8        46.600                    89913522.95749
        37.200    21957802.97749
  24777839.117 5 130208422.535 5        35.200    24777842.727 5 101461109.05545
        16.900    24777842.52345
  24626905.922 6 129415285.017 6        38.200    24626908.516 5 100843076.06647
        29.800    24626908.78947
  21686032.297 9 113960875.992 9        48.200    21686039.289 8  88800710.90849
        50.300    21686038.12149  21686034.566 6  85100693.028 6        39.400
  24151981.320 6 126919529.899 6        38.400    24151988.543 6  98898357.34449
        35.300    24151988.38349  24151983.691 1  94777640.22711        30.100
