     2.11           OBSERVATION DATA    G (GPS)             RINEX VERSION / TYPE
teqc  2016Nov7                          20170408 00:12:23UTCPGM / RUN BY / DATE
ZIMM                                                        MARKER NAME
14001M004                                                   MARKER NUMBER
TRIMBLE NETR9       SWISSTOPO                               OBSERVER / AGENCY
5429R49141          TRIMBLE NETR9       5.10                REC # / TYPE / VERS
99390               TRM29659.00     NONE                    ANT # / TYPE
  4331297.3480   567555.6400  4633133.7280                  APPROX POSITION XYZ
        0.0000        0.0000        0.0000                  ANTENNA: DELTA H/E/N
     1     1                                                WAVELENGTH FACT L1/2
    10    C1    L1    S1    C2    L2    S2    P2    C5    L5# / TYPES OF OBSERV
          S5                                                # / TYPES OF OBSERV
    30.0000                                                 INTERVAL
Linux 2.4.21-27.ELsmp|Opteron|gcc -static|Linux x86_64|=+   COMMENT
     2.11           OBSERVATION DATA    M (MIXED)           COMMENT
NetR9 5.10          Receiver Operator   07-APR-17 00:00:00  COMMENT
L2C CARRIER PHASE MEASUREMENTS: PHASE SHIFTS REMOVED        COMMENT
L2C PHASE MATCHES L2 P PHASE                                COMMENT
GLONASS C/A & P PHASE MATCH: PHASE SHIFTS REMOVED           COMMENT
GIOVE-A if present is mapped to satellite ID 51             COMMENT
GIOVE-B if present is mapped to satellite ID 52             COMMENT
Forced Modulo Decimation to 30 seconds                      COMMENT
teqc edited: all GLONASS satellites excluded                COMMENT
teqc edited: all Galileo satellites excluded                COMMENT
  2017     4     7     0     0    0.0000000     GPS         TIME OF FIRST OBS
                                                            END OF HEADER
 17  4  7  0  0  0.0000000  0 10G01G32G08G28G14G03G22G11G27G10
  21124531.141 9 111010174.961 9        53.000    21124538.211 9  86501471.10149
        45.200    21124537.87949  21124534.039 6  82897226.038 6        40.900
  22170979.125 9 116509288.991 9        48.200    22170986.117 9  90786494.57049
        40.400    22170985.49249  22170981.953 5  87003708.105 5        37.700
  20855955.008 9 109598792.487 9        53.800    20855962.734 9  85401710.35849
        48.200    20855961.69149  20855958.711 7  81843298.203 7        41.600
  23542613.195 7 123717270.301 7        44.100                    96403078.67647
        29.100    23542615.48447
  22372457.453 8 117568070.481 8        47.300                    91611490.59549
        34.700    22372461.21549
  23395260.703 7 122942932.979 7        43.300    23395267.637 7  95799710.66348
        31.200    23395266.74248  23395264.707 4  91808044.584 4        34.100
  21489755.578 9 112929369.000 9        49.200                    87996972.13849
        41.800    21489756.92249
  20293456.750 9 106642848.984 9        50.300                    83098346.11449
        45.300    20293459.37949
  23069990.516 8 121233659.458 8        47.000    23069997.148 8  94467836.12649
        35.000    23069996.38349  23069994.242 5  90531671.977 5        36.300
  23269253.539 7 122280775.498 7        42.800    23269260.203 7  95283768.29448
        31.900    23269259.87548  23269256.184 4  91313596.616 4        34.800
 17  4  7  0  0 30.0000000  0 10G01G32G08G28G14G03G22G11G27G10
  21113727.898 9 110953403.759 9        52.300    21113735.176 9  86457233.79949
        44.600    21113734.83649  21113730.934 7  82854831.956 7        41.100
  22169911.633 8 116503681.286 8        47.400    22169918.656 9  90782124.94149
        39.900    22169917.85549  22169914.313 5  86999520.551 5        37.600
  20866164.930 9 109652445.647 9        53.000    20866172.230 9  85443518.00649
        48.100    20866171.08249  20866168.105 7  81883363.867 7        42.000
  23538937.250 7 123697953.634 7        43.800                    96388026.74247
        27.800    23538939.66047
  22362822.852 8 117517441.791 8        47.600                    91572039.68849
        34.300    22362826.33649
  23376289.977 7 122843241.766 7        43.800    23376297.637 7  95722029.21248
        32.400    23376296.64548  23376294.434 3  91733599.867 3        33.500
  21477304.070 9 112863932.846 9        49.200                    87945982.93549
        41.900    21477305.34449
  20286159.531 9 106604502.156 9        50.000                    83068465.45749
        45.000    20286162.44149
  23089881.953 8 121338192.118 8        46.900    23089889.656 8  94549290.13249
        35.700    23089888.77049  23089885.047 5  90609732.063 5        35.400
  23287252.242 7 122375357.678 7        42.800    23287258.500 7  95357468.68948
        31.100    23287258.23848  23287254.082 4  91384226.136 4        34.100
 17  4  7  0  1  0.0000000  0 10G01G32G08G28G14G03G22G11G27G10
  21102975.961 9 110896903.640 9        52.800    21102983.414 9  86413207.73749
        44.600    21102982.84049  21102979.172 7  82812640.319 7        41.300
  22168959.430 9 116498675.398 9        48.300    22168966.031 9  90778224.24449
        39.600    22168965.39549  22168962.262 5  86995782.384 5        37.900
  20876468.414 9 109706591.529 9        53.600    20876475.840 9  85485709.59849
        48.100    20876474.88349  20876471.906 7  81923797.467 7        41.300
  23535360.453 7 123679158.233 7        43.500                    96373380.94447
        27.900    23535363.57447
  22353278.469 8 117467285.671 8        47.300                    91532956.99849
        35.400    22353282.33649
  23357358.898 7 122743758.075 7        43.700    23357365.930 7  95644509.46848
        32.500    23357365.28948  23357362.902 3  91659310.104 3        33.200
  21464918.047 9 112798845.644 9        49.300                    87895265.64749
        42.000    21464919.47749
  20278948.508 9 106566609.255 9        50.300                    83038938.53549
        45.000    20278951.70749
  23109815.641 8 121442939.539 8        46.500    23109822.469 8  94630911.48149
        34.900    23109821.97749  23109818.316 4  90687952.543 4        34.600
  23305281.055 7 122470097.237 7        44.100    23305286.602 7  95431291.71048
        32.500    23305286.23048  23305282.188 3  91454973.201 3        33.500
 17  4  7  0  1 30.0000000  0 10G01G32G08G28G14G03G22G11G27G10
  21092276.500 9 110840675.731 9        53.000    21092283.410 9  86369393.79049
        44.800    21092283.31649  21092279.473 6  82770651.949 6        40.700
  22168121.453 8 116494271.879 8        47.400    22168128.125 8  90774792.93849
        40.200    22168127.46549  22168124.098 6  86992494.049 6        38.100
  20886866.094 9 109761229.747 9        53.200    20886873.012 9  85528284.81749
        48.100    20886872.34849  20886869.313 7  81964598.724 7        42.000
  23531882.969 7 123660884.453 7        43.800                    96359141.67047
        27.500    23531886.76647
  22343824.531 8 117417604.123 8        46.900                    91494244.10749
        35.500    22343827.88349
  23338467.594 7 122644483.482 7        44.100    23338474.691 7  95567152.64748
        32.400    23338474.00448  23338472.023 3  91585176.473 3        32.800
  21452598.617 9 112734108.201 9        48.900                    87844820.90049
        41.700    21452600.29749
  20271824.484 9 106529171.752 9        50.100                    83009766.45149
        44.900    20271827.11749
  23129788.992 8 121547899.963 8        46.600    23129795.684 8  94712698.82349
        34.600    23129795.31349  23129792.352 5  90766332.089 5        35.600
  23323338.336 7 122564992.428 7        43.700    23323344.980 7  95505236.00348
        31.200    23323344.35548  23323340.898 3  91525836.492 3        33.800
 17  4  7  0  2  0.0000000  0 10G01G32G08G28G14G03G22G11G27G10
  21081628.773 9 110784720.759 9        52.400    21081635.637 9  86325792.51149
        45.200    21081635.28549  21081631.617 6  82728867.395 6        40.900
  22167398.273 8 116490470.871 8        47.600    22167404.863 9  90771831.12049
        40.500    22167404.14149  22167400.832 6  86989655.642 6        38.100
  20897356.625 9 109816358.667 9        53.300    20897363.320 9  85571242.40649
        48.100    20897362.25849  20897359.395 7  82005766.413 7        41.600
  23528504.727 7 123643132.661 7        43.200                    96345309.06947
        28.500    23528507.96947
  22334460.984 8 117368398.839 8        47.400                    91455902.34149
        35.400    22334464.57449
  23319615.586 7 122545419.254 7        43.800    23319623.652 7  95489959.74648
        33.300    23319622.55148  23319620.980 4  91511199.947 4        34.000
  21440346.805 9 112669721.277 9        49.400                    87794649.27549
        42.100    21440347.73849
  20264787.070 9 106492190.739 9        50.200                    82980950.07149
        45.400    20264789.94149
  23149801.961 8 121653071.170 8        45.700    23149808.906 8  94794650.39849
        34.200    23149807.96149  23149806.406 5  90844868.988 5        35.800
  23341425.414 7 122660041.080 7        44.100    23341431.906 7  95579299.87748
        31.900    23341431.44948  23341427.293 3  91596814.366 3        33.600
 17  4  7  0  2 30.0000000  0 10G01G32G08G28G14G03G22G11G27G10
  21071032.938 9 110729039.611 9        52.900    21071040.254 9  86282404.60749
        45.300    21071040.12149  21071036.340 6  82687287.328 6        40.900
  22166789.547 8 116487272.755 8        47.600    22166795.973 9  90769339.08649
        39.900    22166795.28549  22166792.094 6  86987267.449 6        38.000
  20907940.586 9 109871977.293 9        53.100    20907947.727 9  85614581.58149
        47.900    20907946.77049  20907943.555 7  82047299.788 7        41.700
  23525226.578 7 123625903.133 7        43.500                    96331883.47747
        29.100    23525229.98047
  22325188.711 8 117319671.892 8        47.700                    91417933.29949
        35.100    22325192.16049
  23300805.117 7 122446566.861 7        43.900    23300812.418 7  95412931.91548
        33.000    23300811.17248  23300809.836 4  91437381.608 4        34.300
  21428161.047 9 112605685.353 9        49.800                    87744751.15349
        42.200    21428162.04749
  20257836.922 9 106455667.771 9        50.000                    82952490.61749
        45.000    20257839.71949
  23169855.586 8 121758451.185 8        46.000    23169862.426 8  94876764.69749
        34.200    23169862.10949  23169858.680 5  90923561.851 5        35.000
  23359541.688 7 122755241.274 7        43.800    23359547.852 7  95653481.83648
        30.400    23359548.02348  23359544.102 3  91667905.412 3        33.200
 17  4  7  0  3  0.0000000  0 10G01G32G08G28G14G03G22G11G27G10
  21060489.188 9 110673633.125 9        53.000    21060496.480 9  86239230.72949
        45.100    21060496.09849  21060492.082 6  82645912.353 6        40.900
  22166295.734 8 116484677.709 8        47.800    22166302.223 9  90767316.97849
        39.700    22166301.48849  22166298.180 5  86985329.585 5        37.600
  20918617.234 9 109928083.963 9        53.200    20918624.449 9  85658301.06249
        47.900    20918623.23449  20918620.141 7  82089197.623 7        41.500
  23522047.008 7 123609196.323 7        44.600                    96318865.17047
        29.400    23522049.55147
  22316007.398 8 117271425.336 8        46.600                    91380338.59349
        35.000    22316011.24249
  23282034.945 7 122347927.589 7        43.900    23282042.090 7  95336070.15448
        32.400    23282040.98048  23282039.293 4  91363722.436 4        34.400
  21416042.719 9 112542001.514 9        50.200                    87695127.38949
        42.100    21416044.02349
  20250974.430 9 106419604.086 9        50.000                    82924389.04449
        45.000    20250977.52349
  23189948.094 8 121864037.889 8        45.900    23189955.164 8  94959040.03049
        34.300    23189954.51649  23189951.379 4  91002409.061 4        34.700
  23377685.891 7 122850590.972 7        43.300    23377692.160 7  95727780.30348
        30.700    23377691.88748  23377687.672 3  91739108.100 3        33.100
 17  4  7  0  3 30.0000000  0 10G01G32G08G28G14G03G22G11G27G10
  21049998.219 9 110618502.240 9        54.000    21050005.266 9  86196271.59649
        45.000    21050004.78549  21050001.121 7  82604743.183 7        41.400
  22165916.789 9 116482686.047 9        48.000    22165923.539 9  90765765.04549
        40.200    22165922.85249  22165919.371 5  86983842.316 5        37.800
  20929386.930 9 109984677.896 9        53.000    20929393.992 9  85702400.22249
        47.700    20929392.99649  20929389.957 7  82131459.311 7        41.000
  23518967.531 7 123593012.497 7        44.100                    96306254.39647
        28.200    23518970.30147
  22306918.203 8 117223660.846 8        47.300                    91343119.52049
        35.200    22306921.75849
  23263305.023 8 122249502.974 8        45.700    23263312.305 7  95259375.66148
        33.300    23263311.17248  23263309.430 3  91290223.549 3        33.900
  21403991.313 9 112478670.130 9        48.800                    87645778.27549
        41.600    21403992.91049
  20244199.250 9 106384001.147 9        50.000                    82896646.49049
        44.900    20244202.52049
  23210079.523 8 121969829.294 8        45.800    23210085.969 7  95041474.87548
        33.600    23210085.06648  23210082.637 5  91081409.134 5        35.000
  23395858.633 7 122946088.225 7        43.800    23395865.098 7  95802193.73448
        31.200    23395865.25048  23395860.621 3  91810420.977 3        32.500
 17  4  7  0  4  0.0000000  0 10G01G32G08G28G14G03G22G11G27G10
  21039560.047 9 110563647.865 9        53.800    21039567.207 9  86153527.93149
        45.000    21039566.68849  21039562.965 7  82563780.517 7        41.100
  22165652.813 8 116481298.000 8        47.800    22165659.695 9  90764683.45249
        40.600    22165658.88749  22165655.465 6  86982805.792 6        38.000
  20940248.641 9 110041757.677 9        53.000    20940256.137 9  85746877.96349
        47.800    20940255.14149  20940252.223 7  82174083.814 7        42.000
  23515987.695 7 123577352.099 7        43.600                    96294051.48647
        28.500    23515991.02047
  22297921.109 8 117176380.373 8        47.300                    91306277.61149
        35.300    22297924.75849
  23244616.953 8 122151294.384 8        45.600    23244623.664 7  95182849.50048
        33.700    23244622.71148  23244621.320 4  91216885.980 4        34.000
  21392006.500 9 112415692.340 9        49.600                    87596704.67949
        42.100    21392007.93049
  20237512.320 9 106348860.536 9        50.100                    82869264.19149
        45.300    20237515.63749
  23230249.133 8 122075823.388 8        45.700    23230256.043 7  95124067.68549
        34.200    23230255.30149  23230252.750 5  91160560.550 5        35.300
  23414059.172 7 123041731.176 7        44.200    23414065.223 7  95876720.69948
        31.100    23414064.99248  23414060.895 3  91881842.670 3        33.000
 17  4  7  0  4 30.0000000  0 10G01G32G08G28G14G03G22G11G27G10
  21029174.141 9 110509070.852 9        54.000    21029181.711 9  86111000.39349
        45.300    21029181.15649  21029177.313 7  82523024.957 7        41.200
  22165503.313 8 116480513.727 8        47.400    22165510.059 8  90764072.33649
        39.800    22165509.38749  22165506.316 6  86982220.144 6        38.000
  20951202.836 9 110099322.104 9        53.800    20951210.223 9  85791733.34749
        47.800    20951209.25849  20951206.219 7  82217070.219 7        41.700
  23513107.445 7 123562215.656 7        43.500                    96282256.85547
        29.100    23513110.33247
  22289015.953 8 117129585.965 8        46.800                    91269814.44249
        35.700    22289019.96949
  23225969.875 8 122053303.195 8        45.900    23225976.859 8  95106492.71749
        34.000    23225976.14849  23225974.055 4  91143710.747 4        34.400
  21380089.570 9 112353068.862 9        49.600                    87547907.16849
        41.900    21380090.68449
  20230913.742 9 106314183.516 9        50.300                    82842243.14149
        45.200    20230916.36349
  23250457.258 8 122182018.055 8        45.800    23250464.160 8  95206816.77449
        34.000    23250463.44949  23250459.789 4  91239861.766 4        34.200
  23432286.234 7 123137517.758 7        44.400    23432291.895 7  95951359.59747
        29.700    23432291.72747  23432287.805 3  91953371.597 3        33.000
 17  4  7  0  5  0.0000000  0 10G01G32G08G28G14G03G22G11G27G10
  21018841.625 9 110454772.077 9        54.300    21018848.629 9  86068689.65749
        45.500    21018848.29749  21018844.516 7  82482477.169 7        41.100
  22165469.414 9 116480333.430 9        48.000    22165475.875 9  90763931.84749
        39.200    22165475.02749  22165471.840 5  86982085.506 5        37.900
  20962248.953 9 110157369.867 9        53.000    20962256.559 9  85836965.35549
        47.500    20962255.65649  20962252.559 7  82260417.563 7        41.500
  23510326.094 7 123547603.042 7        43.900                    96270870.39047
        28.300    23510329.68847
  22280204.500 8 117083279.380 8        47.300                    91233731.39149
        35.800    22280208.03549
  23207364.469 8 121955530.767 8        46.000    23207371.645 8  95030306.42749
        34.400    23207370.88749  23207368.496 4  91070698.875 4        34.000
  21368240.164 9 112290799.871 9        49.100                    87499385.87649
        42.000    21368241.31349
  20224403.211 9 106279971.572 9        50.200                    82815584.47949
        45.300    20224406.28149
  23270703.742 8 122288411.293 8        45.900    23270710.180 8  95289720.58448
        33.800    23270709.98448  23270706.613 4  91319311.272 4        34.600
  23450541.297 7 123233446.121 7        44.100    23450547.758 7  96026108.97248
        30.000    23450547.34848  23450543.543 3  92025006.394 3        33.300
 17  4  7  0  5 30.0000000  0 10G01G32G08G28G14G03G22G11G27G10
  21008561.938 9 110400752.807 9        53.500    21008569.215 9  86026596.72849
        45.200    21008568.99249  21008565.504 7  82442138.106 7        41.200
  22165549.805 9 116480757.619 9        48.200    22165556.652 9  90764262.39749
        39.900    22165555.65649  22165552.406 6  86982402.281 6        38.100
  20973386.984 9 110215900.615 9        53.400    20973394.098 9  85882573.72349
        47.500    20973393.14849  20973390.051 7  82304125.578 7        41.200
  23507645.539 7 123533514.997 7        44.200                    96259892.69247
        28.900    23507648.75047
  22271485.555 8 117037463.035 8        47.400                    91198030.35749
        35.000    22271489.26649
  23188800.211 8 121857978.892 8        46.100    23188808.398 8  94954291.98948
        33.800    23188807.44948  23188805.117 3  90997851.689 3        33.600
  21356458.789 9 112228887.266 9        50.200                    87451142.30049
        42.300    21356459.54749
  20217981.750 9 106246226.393 9        49.800                    82789289.53449
        45.000    20217984.44149
  23290987.094 8 122395001.423 8        45.600    23290993.723 8  95372777.82148
        32.700    23290992.85548  23290990.543 4  91398907.776 4        34.800
  23468822.773 7 123329514.664 7        43.500    23468828.711 7  96100967.56048
        30.000    23468828.57848  23468824.418 3  92096745.861 3        33.500
 17  4  7  0  6  0.0000000  0 10G01G32G08G28G14G03G22G11G27G10
  20998335.727 9 110347013.517 9        53.700    20998342.773 9  85984721.95849
        45.300    20998342.45349  20998338.613 7  82402008.126 7        41.200
  22165745.758 9 116481785.943 9        48.000    22165752.172 9  90765063.68849
        39.300    22165751.27349  22165748.145 5  86983170.182 5        37.900
  20984616.508 9 110274911.951 9        52.900    20984623.723 9  85928556.57049
        47.500    20984622.48849  20984619.566 7  82348192.478 7        41.800
  23505064.500 7 123519951.391 7        44.600                    96249323.63647
        28.900    23505067.37947
  22262860.672 8 116992138.127 8        47.300                    91162712.25649
        35.800    22262864.66449
  23170279.445 8 121760648.498 8        46.000    23170286.395 7  94878450.13648
        33.400    23170285.75048  23170283.945 4  90925169.915 4        34.900
  21344744.922 9 112167330.929 9        49.100                    87403176.33849
        42.000    21344745.99249
  20211648.992 9 106212948.677 9        49.900                    82763358.84849
        45.000    20211652.04749
  23311306.898 8 122501785.902 8        45.800    23311314.195 8  95455986.50248
        33.700    23311313.36748  23311311.227 5  91478649.413 5        35.300
  23487129.883 7 123425721.007 7        43.200    23487136.457 7  96175933.51748
        30.500    23487135.96548  23487131.457 3  92168588.257 3        32.700
 17  4  7  0  6 30.0000000  0 10G01G32G08G28G14G03G22G11G27G10
  20988162.852 9 110293555.087 9        53.800    20988170.109 9  85943066.03349
        45.500    20988169.73849  20988166.074 7  82362087.867 7        41.800
  22166056.156 8 116483418.536 8        47.600    22166062.785 9  90766335.84049
        39.400    22166062.03149  22166058.551 6  86984389.331 6        38.000
  20995937.273 9 110334402.614 9        53.000    20995944.457 9  85974912.92949
        47.300    20995943.41449  20995940.492 7  82392617.312 7        41.400
  23502583.250 7 123506912.587 7        43.400                    96239163.53147
        28.300    23502585.92247
  22254329.883 8 116947306.543 8        46.500                    91127778.57349
        36.000    22254333.41049
  23151800.430 8 121663540.966 8        46.300    23151807.289 7  94802781.92849
        34.200    23151806.18049  23151804.609 5  90852654.562 5        35.100
  21333099.203 9 112106131.480 9        50.000                    87355488.46349
        42.600    21333100.57849
  20205405.320 9 106180139.938 9        49.800                    82737793.58949
        45.100    20205408.40249
  23331664.617 8 122608762.675 8        45.500    23331672.223 8  95539345.00749
        34.400    23331671.72749  23331667.945 4  91558534.651 4        34.700
  23505462.984 7 123522063.235 7        42.800    23505469.574 7  96251005.36148
        30.600    23505469.31348  23505465.508 3  92240532.102 3        32.800
 17  4  7  0  7  0.0000000  0 10G01G32G08G28G14G03G22G11G27G10
  20978043.648 9 110240378.743 9        53.700    20978050.930 9  85901629.92149
        45.900    20978050.56649  20978046.664 6  82322378.257 6        40.900
  22166481.727 8 116485655.798 8        47.700    22166488.738 9  90768079.16349
        39.400    22166487.96149  22166484.773 5  86986060.018 5        37.500
  21007349.023 9 110394372.139 9        52.500    21007356.090 9  86021642.41049
        47.500    21007355.46149  21007352.422 7  82437399.735 7        41.600
  23500202.203 8 123494399.126 8        45.400                    96229412.76847
        28.500    23500205.00047
  22245892.906 8 116902970.257 8        46.700                    91093230.82049
        36.200    22245896.11749
  23133364.242 8 121566657.964 8        47.300    23133371.273 7  94727288.68548
        33.700    23133370.06648  23133368.500 4  90780306.884 4        34.500
  21321521.266 9 112045289.269 9        49.600                    87308078.94849
        43.100    21321522.84849
  20199252.195 9 106147802.090 9        49.900                    82712595.27149
        45.100    20199255.40249
  23352057.680 8 122715930.022 8        46.200    23352064.211 8  95622852.02448
        33.600    23352063.69548  23352059.973 4  91638562.237 4        34.300
  23523821.844 7 123618539.790 7        43.100    23523828.668 7  96326181.87547
        29.600    23523828.16047  23523823.824 3  92312576.259 3        32.600
 17  4  7  0  7 30.0000000  0 10G01G32G08G28G14G03G22G11G27G10
  20967978.266 9 110187485.106 9        53.800    20967985.863 9  85860414.11249
        45.700    20967985.64549  20967981.863 7  82282879.777 7        41.400
  22167022.594 8 116488497.488 8        47.600    22167029.520 9  90770293.47349
        40.200    22167028.78949  22167025.480 6  86988182.068 6        38.300
  21018851.555 9 110454818.391 9        52.700    21018859.191 9  86068743.37449
        47.200    21018858.30149  21018854.973 7  82482538.163 7        41.400
  23497920.805 7 123482410.744 7        44.300                    96220071.16748
        30.100    23497923.50448
  22237550.836 9 116859130.870 9        48.500                    91059070.27849
        37.300    22237554.15249
  23114970.992 8 121470000.615 8        46.600    23114978.023 8  94651971.28049
        35.200    23114977.27749  23114975.652 4  90708127.711 4        34.400
  21310011.375 9 111984806.007 9        49.300                    87260949.14649
        42.600    21310012.64549
  20193188.031 9 106115935.942 9        50.200                    82687764.50149
        45.100    20193191.41449
  23372486.141 8 122823285.621 8        45.000    23372493.113 7  95706505.74648
        32.000    23372492.26648  23372490.418 5  91718730.379 5        35.200
  23542206.359 7 123715148.495 7        43.800    23542212.203 7  96401461.38748
        30.900    23542211.81648  23542207.895 3  92384719.128 3        33.200
 17  4  7  0  8  0.0000000  0 10G01G32G08G28G14G03G22G11G27G10
  20957967.125 9 110134875.302 9        53.800    20957974.555 9  85819419.46549
        45.600    20957974.24249  20957970.281 7  82243593.239 7        41.400
  22167678.602 8 116491943.879 8        47.800    22167685.637 9  90772978.98249
        40.100    22167685.06349  22167681.988 5  86990755.676 5        37.700
  21030444.797 9 110515740.501 9        52.500    21030452.395 9  86116215.13549
        47.300    21030451.49249  21030448.336 7  82528031.933 7        41.400
  23495739.398 8 123470948.012 8        45.200                    96211139.16147
        28.900    23495742.65647
  22229302.797 9 116815790.406 9        49.100                    91025298.49149
        36.200    22229306.80949
  23096620.664 8 121373570.538 8        47.500    23096627.734 8  94576830.97449
        35.200    23096627.07849  23096624.980 4  90636118.246 4        34.200
  21298570.602 9 111924682.210 9        49.900                    87214099.43949
        42.600    21298571.34449
  20187214.672 9 106084543.134 9        49.900                    82663302.57849
        45.200    20187217.37149
  23392950.836 7 122930827.614 7        44.900    23392958.145 7  95790304.70748
        32.800    23392957.22748  23392955.027 5  91799037.680 5        35.300
  23560615.094 7 123811887.657 7        42.900    23560621.277 7  96476842.54048
        30.000    23560620.97748  23560617.055 3  92456959.384 3        33.300
 17  4  7  0  8 30.0000000  0 10G01G32G08G28G14G03G22G11G27G10
  20948009.820 9 110082550.044 9        53.400    20948016.813 9  85778646.53549
        45.700    20948016.58249  20948012.742 6  82204519.178 6        40.900
  22168449.172 8 116495994.726 8        47.700    22168455.711 9  90776135.48649
        39.900    22168454.79749  22168451.668 6  86993780.654 6        38.100
  21042128.164 9 110577136.676 9        52.700    21042135.543 9  86164056.30949
        47.500    21042134.41849  21042131.262 6  82573879.721 6        40.700
  23493658.258 7 123460010.784 7        44.100                    96202616.64447
        28.800    23493660.61347
  22221150.945 8 116772950.069 8        47.600                    90991916.42549
        36.200    22221154.41049
  23078313.969 8 121277368.800 8        46.900    23078321.828 7  94501868.59649
        35.200    23078320.77749  23078318.680 4  90564279.295 4        34.500
  21287197.711 9 111864918.030 9        49.400                    87167529.95449
        42.600    21287198.76249
  20181330.641 9 106053624.733 9        49.800                    82639210.31949
        45.300    20181333.57449
  23413450.398 7 123038553.767 7        44.700    23413458.148 8  95874247.14149
        34.500    23413457.84849  23413454.184 4  91879482.527 4        34.200
  23579048.047 7 123908755.139 7        42.300    23579054.699 7  96552323.70447
        29.700    23579054.63347  23579049.887 3  92529295.491 3        32.100
 17  4  7  0  9  0.0000000  0 10G01G32G08G28G14G03G22G11G27G10
  20938106.992 9 110030510.299 9        53.100    20938114.770 9  85738096.09349
        45.700    20938114.21549  20938110.492 7  82165658.340 7        41.600
  22169335.531 8 116500650.116 8        47.900    22169341.648 8  90779763.07549
        40.000    22169340.68449  22169337.320 5  86997257.100 5        37.300
  21053901.258 9 110639005.846 9        53.300    21053908.488 9  86212266.04349
        47.200    21053907.41849  21053904.496 7  82620080.710 7        41.500
  23491676.961 7 123449599.329 7        44.000                    96194503.81147
        28.600    23491679.75047
  22213093.563 9 116730611.809 9        48.200                    90958925.57349
        36.400    22213097.72349
  23060051.547 8 121181396.846 8        46.600    23060058.938 7  94427085.26049
        34.900    23060057.56649  23060056.000 4  90492611.937 4        34.700
  21275893.477 9 111805513.704 9        49.800                    87121240.88349
        42.600    21275895.06649
  20175537.836 9 106023182.401 9        50.500                    82615489.01649
        45.400    20175540.87149
  23433985.313 8 123146461.975 8        45.700    23433991.715 7  95958331.44548
        33.800    23433991.30948  23433987.820 3  91960063.349 3        33.800
  23597505.453 7 124005749.248 7        42.800    23597512.148 7  96627903.50247
        29.700    23597511.37547  23597507.625 2  92601726.139 2        31.900
 17  4  7  0  9 30.0000000  0 10G01G32G08G28G14G03G22G11G27G10
  20928259.039 9 109978756.912 9        53.000    20928265.766 9  85697768.77549
        46.000    20928265.74249  20928261.727 7  82127011.327 7        41.800
  22170336.055 8 116505909.909 8        47.900    22170342.688 8  90783861.62549
        40.500    22170341.78549  22170338.301 5  87001184.879 5        37.500
  21065764.188 9 110701346.434 9        52.400    21065771.664 9  86260843.10749
        46.900    21065770.40649  21065767.543 7  82666633.734 7        41.400
  23489795.344 7 123439713.585 7        42.400                    96186800.64247
        28.100    23489797.66847
  22205133.414 8 116688777.432 8        46.600                    90926327.36849
        36.500    22205137.18049
  23041832.633 8 121085656.019 8        47.900    23041840.113 8  94352482.02549
        35.400    23041839.34449  23041837.363 5  90421117.174 5        35.000
  21264657.805 9 111746470.475 9        49.800                    87075233.17849
        43.000    21264659.37149
  20169835.844 9 105993216.859 9        49.800                    82592139.23849
        45.300    20169838.63349
  23454553.484 8 123254550.216 8        45.200    23454560.504 7  96042556.04948
        33.000    23454559.47348  23454557.566 4  92040778.583 4        34.400
  23615986.445 7 124102867.972 7        43.000    23615992.914 7  96703580.41347
        29.200    23615992.69147  23615988.590 2  92674249.854 2        31.800
 17  4  7  0 10  0.0000000  0 10G01G32G08G28G14G03G22G11G27G10
  20918465.219 9 109927291.116 9        53.700    20918472.395 9  85657665.56649
        46.100    20918471.96549  20918468.473 7  82088579.083 7        41.100
  22171451.727 9 116511774.381 9        48.000    22171458.488 9  90788431.35749
        39.700    22171457.63349  22171454.328 5  87005564.201 5        37.800
  21077716.773 9 110764157.635 9        52.500    21077724.047 9  86309786.89849
        47.000    21077723.08249  21077720.043 7  82713538.191 7        41.700
  23488015.211 7 123430353.664 7        44.200                    96179507.17947
        29.300    23488017.59847
  22197268.477 9 116647448.984 9        48.200                    90894123.39849
        36.300    22197272.02349
  23023658.242 8 120990147.916 8        47.400    23023665.605 8  94278060.14049
        34.800    23023664.80949  23023662.598 4  90349796.205 4        34.900
  21253490.914 9 111687789.470 9        50.000                    87029507.72549
        42.500    21253492.53149
  20164224.508 9 105963729.894 9        49.900                    82569162.37849
        45.700    20164227.44549
  23475156.063 7 123362816.694 7        43.900    23475162.844 7  96126919.55148
        32.300    23475161.78148  23475159.406 4  92121626.913 4        34.400
  23634491.133 7 124200109.818 7        42.400    23634497.609 7  96779353.26648
        30.200    23634497.80948  23634493.535 3  92746865.495 3        32.800
 17  4  7  0 10 30.0000000  0 10G01G32G08G28G14G03G22G11G27G10
  20908726.609 9 109876113.542 9        52.600    20908733.504 9  85617786.93449
        46.100    20908733.16449  20908729.613 7  82050362.069 7        41.700
  22172683.086 8 116518243.080 8        47.800    22172690.117 9  90793471.90749
        40.100    22172689.03149  22172685.840 5  87010394.725 5        37.500
  21089758.609 9 110827437.346 9        52.500    21089765.934 9  86359095.75549
        47.000    21089764.84849  21089761.813 6  82760792.510 6        40.600
  23486333.656 7 123421520.184 7        43.900                    96172623.94747
        28.200    23486336.70747
  22189500.938 9 116606628.182 9        48.100                    90862314.98749
        36.800    22189504.36749
  23005527.438 8 120894873.646 8        47.400    23005534.574 8  94203820.45949
        35.400    23005534.06349  23005532.375 5  90278649.842 5        35.300
  21242393.375 9 111629471.078 9        49.900                    86984064.83749
        43.100    21242394.96549
  20158704.820 9 105934723.116 9        49.900                    82546559.70249
        45.600    20158707.77049
  23495791.586 7 123471259.027 7        43.800    23495798.777 8  96211420.06548
        32.600    23495797.78548  23495794.590 3  92202606.583 3        33.600
  23653019.094 7 124297472.609 7        42.700    23653024.980 7  96855220.37647
        29.800    23653024.64547  23653020.836 3  92819571.465 3        32.600
 17  4  7  0 11  0.0000000  0 10G01G32G08G28G14G03G22G11G27G10
  20899042.719 9 109825225.144 9        53.700    20899049.723 9  85578133.65349
        46.000    20899049.59449  20899045.637 7  82012361.011 7        41.600
  22174028.875 8 116525316.019 8        47.800    22174035.379 9  90798983.29149
        40.100    22174034.98049  22174031.324 5  87015676.474 5        37.400
  21101889.445 9 110891184.487 9        52.300    21101896.480 9  86408768.84149
        46.800    21101895.39849  21101892.418 6  82808395.887 6        40.600
  23484753.016 7 123413212.754 7        42.800                    96166150.61047
        27.700    23484755.85247
  22181829.398 9 116566315.984 9        48.400                    90830902.89049
        36.700    22181833.11349
  22987442.461 8 120799834.535 8        47.000    22987449.250 7  94129764.02249
        35.200    22987448.57449  22987446.711 5  90207679.098 5        35.000
  21231364.961 9 111571515.552 9        49.800                    86938904.69549
        42.900    21231365.95749
  20153276.344 9 105906197.225 9        49.700                    82524331.73549
        45.500    20153279.54749
  23516460.453 7 123579875.219 7        44.600    23516467.719 7  96296056.03148
        32.400    23516466.86748  23516464.141 4  92283716.073 4        34.000
  23671569.148 7 124394954.549 7        42.200    23671574.793 7  96931180.32447
        29.300    23671574.35947  23671570.848 3  92892366.401 3        32.600
 17  4  7  0 11 30.0000000  0 10G01G32G08G28G14G03G22G11G27G10
  20889414.055 9 109774626.878 9        53.400    20889421.070 9  85538706.43049
        46.300    20889420.73849  20889416.957 7  81974576.592 7        41.700
  22175490.016 8 116532992.997 8        47.800    22175496.398 9  90804965.35049
        39.400    22175495.50849  22175492.262 5  87021409.288 5        37.400
  21114108.500 9 110955397.206 9        52.500    21114115.945 9  86458804.70949
        46.600    21114114.94949  21114112.383 7  82856346.923 7        41.000
  23483272.289 7 123405431.261 7        43.200                    96160087.10747
        28.100    23483275.14547
  22174255.234 9 116526514.383 9        48.200                    90799888.66349
        37.100    22174259.07449
  22969402.180 8 120705031.975 8        46.700    22969409.641 8  94055891.90749
        35.800    22969408.86349  22969407.063 4  90136884.989 4        34.900
  21220405.406 9 111513923.729 9        50.000                    86894027.95649
        43.000    21220406.86349
  20147939.969 9 105878153.689 9        49.700                    82502479.62549
        45.000    20147942.87949
  23537162.836 8 123688663.185 8        45.300    23537169.352 7  96380825.88948
        31.700    23537168.50848  23537167.074 4  92364953.826 4        34.800
  23690141.367 7 124492553.815 7        41.900    23690147.992 7  97007231.70448
        30.000    23690147.87948  23690143.836 3  92965248.968 3        32.300
 17  4  7  0 12  0.0000000  0 10G01G32G08G28G14G03G22G11G27G10
  20879840.859 9 109724319.453 9        53.400    20879847.977 9  85499505.84649
        46.300    20879847.61749  20879844.070 7  81937009.361 7        41.500
  22177065.695 8 116541273.715 8        47.700    22177072.418 8  90811417.86549
        39.400    22177071.52049  22177068.566 6  87027592.944 6        38.000
  21126416.133 9 111020074.079 9        52.300    21126423.582 9  86509202.26549
        46.400    21126422.40649  21126419.719 7  82904644.585 7        41.300
  23481891.836 7 123398175.758 7        43.200                    96154433.45247
        29.500    23481894.53547
  22166779.125 9 116487224.646 9        48.600                    90769273.29049
        36.900    22166782.38349
  22951406.805 8 120610467.112 8        47.500    22951413.859 8  93982205.01149
        35.900    22951412.95349  22951411.094 4  90066268.382 4        34.800
  21209515.555 9 111456695.922 9        50.100                    86849434.87049
        43.200    21209516.50449
  20142695.227 9 105850593.534 9        49.700                    82481004.18049
        46.000    20142698.35549
  23557896.609 7 123797620.656 7        44.100    23557903.816 8  96465727.80848
        32.900    23557903.45348  23557900.375 4  92446318.150 4        34.000
  23708735.422 7 124590268.472 7        41.600    23708742.492 7  97083372.97148
        30.200    23708742.43448  23708738.395 3  93038217.680 3        32.700
 17  4  7  0 12 30.0000000  0 10G01G32G08G28G14G03G22G11G27G10
  20870323.297 9 109674303.999 9        54.400    20870330.117 9  85460532.77449
        46.300    20870329.91449  20870326.016 7  81899660.177 7        41.700
  22178756.102 9 116550158.161 9        48.500    22178762.785 9  90818340.82649
        39.700    22178762.02349  22178758.484 5  87034227.448 5        37.600
  21138812.086 9 111085214.146 9        52.700    21138819.445 9  86559960.74949
        46.600    21138818.46549  21138815.309 7  82953288.130 7        41.300
  23480610.977 7 123391446.427 7        43.800                    96149189.82747
        29.800    23480613.91447
  22159400.086 9 116448448.593 9        48.600                    90739058.19549
        36.100    22159403.66049
  22933457.602 8 120516141.443 8        47.900    22933464.391 8  93908704.50349
        36.000    22933463.91049  22933461.930 5  89995830.405 5        35.400
  21198694.680 9 111399832.878 9        50.000                    86805126.01449
        42.700    21198695.93049
  20137543.000 9 105823518.187 9        50.500                    82459906.50149
        45.200    20137545.87149
  23578661.938 7 123906745.759 7        43.200    23578668.930 8  96550760.34348
        32.700    23578668.67248  23578665.184 3  92527807.685 3        33.600
  23727352.125 7 124688096.830 7        41.600    23727358.836 7  97159602.83348
        30.300    23727358.49648  23727354.691 2  93111271.315 2        31.900
 17  4  7  0 13  0.0000000  0 10G01G32G08G28G14G03G22G11G27G10
  20860861.492 9 109624581.225 9        53.400    20860868.656 9  85421787.76049
        46.300    20860868.31349  20860864.180 7  81862529.534 7        41.600
  22180561.852 9 116559645.829 9        48.200    22180568.539 8  90825733.82149
        39.000    22180567.68449  22180564.086 5  87041312.408 5        37.500
  21151295.453 9 111150815.022 9        52.100    21151302.844 9  86611078.30349
        46.600    21151301.90249  21151298.746 7  83002275.787 7        41.300
  23479430.352 7 123385242.869 7        43.600                    96144355.87147
        28.100    23479432.88347
  22152119.141 9 116410187.774 9        48.000                    90709244.58749
        37.000    22152122.63349
  22915553.461 8 120422056.051 8        47.300    22915560.926 8  93835391.21649
        36.000    22915560.28149  22915558.070 5  89925571.842 5        35.200
  21187943.836 9 111343334.749 9        49.500                    86761101.50649
        43.000    21187944.93449
  20132482.742 9 105796928.572 9        49.800                    82439187.32449
        45.300    20132485.98049
  23599459.875 7 124016036.210 7        44.100    23599466.234 7  96635921.73348
        31.900    23599465.76248  23599462.332 3  92609420.687 3        33.400
  23745989.648 7 124786036.815 7        41.100    23745995.742 7  97235919.68847
        28.700    23745995.27747  23745991.352 2  93184408.308 2        31.600
 17  4  7  0 13 30.0000000  0 10G01G32G08G28G14G03G22G11G27G10
  20851455.555 9 109575152.306 9        53.700    20851462.582 9  85383271.72849
        46.400    20851462.14849  20851458.422 7  81825618.334 7        41.700
  22182482.063 9 116569736.862 9        48.000    22182488.391 9  90833596.96149
        39.700    22182487.64849  22182484.402 5  87048847.915 5        37.600
  21163866.539 9 111216876.228 9        52.200    21163873.910 9  86662554.55949
        46.400    21163872.62149  21163869.816 7  83051607.201 7        41.000
  23478349.852 7 123379565.361 7        42.900                    96139931.83347
        28.800    23478352.55547
  22144936.602 8 116372444.163 8        47.600                    90679833.99049
        36.500    22144940.44549
  22897695.781 8 120328212.535 8        47.200    22897702.492 8  93762266.40549
        36.200    22897701.84449  22897699.867 5  89855493.904 5        35.100
  21177262.023 9 111287202.885 9        50.000                    86717362.39749
        43.000    21177263.34849
  20127516.016 9 105770826.419 9        49.700                    82418847.97949
        45.100    20127519.16049
  23620288.227 7 124125490.171 7        43.900    23620294.617 7  96721210.53348
        32.000    23620294.18848  23620291.578 4  92691155.779 4        34.400
  23764647.992 6 124884087.015 6        40.600    23764654.180 7  97312322.43247
        27.700    23764654.30147  23764650.027 3  93257627.594 3        32.100
 17  4  7  0 14  0.0000000  0 10G01G32G08G28G14G03G22G11G27G10
  20842105.594 9 109526018.240 9        53.900    20842112.609 9  85344985.44449
        46.600    20842112.28549  20842108.504 7  81788927.324 7        42.100
  22184517.016 9 116580430.968 9        48.500    22184523.359 9  90841930.03549
        39.600    22184522.55949  22184519.309 5  87056833.780 5        37.700
  21176524.734 9 111283396.018 9        52.200    21176532.063 9  86714388.14749
        46.300    21176531.08249  21176528.512 7  83101281.052 7        41.200
  23477370.422 7 123374413.879 7        43.400                    96135917.68848
        30.200    23477373.18448
  22137853.492 9 116335219.168 9        48.200                    90650827.50149
        36.900    22137857.27049
  22879883.984 8 120234612.269 8        46.700    22879891.539 8  93689331.14049
        36.200    22879890.51649  22879888.535 5  89785597.604 5        35.300
  21166650.227 9 111231437.697 9        50.500                    86673909.01349
        43.300    21166651.46949
  20122642.297 9 105745213.071 9        49.600                    82398889.52849
        45.200    20122645.38749
  23641146.930 7 124235105.545 7        43.600    23641154.203 8  96806625.10548
        32.200    23641154.28148  23641150.793 3  92773011.406 3        33.600
  23783327.422 7 124982245.576 7        41.300    23783332.875 7  97388809.62047
        28.400    23783333.18847  23783329.145 2  93330927.802 2        31.900
 17  4  7  0 14 30.0000000  0 10G01G32G08G28G14G03G22G11G27G10
  20832811.688 9 109477179.336 9        53.000    20832818.602 9  85306929.16249
        46.600    20832818.53949  20832814.520 7  81752456.718 7        41.600
  22186667.023 9 116591727.230 9        48.100    22186673.387 9  90850732.33249
        39.900    22186672.44549  22186669.375 5  87065269.314 5        37.800
  21189269.891 9 111350372.203 9        52.300    21189277.258 9  86766577.36849
        46.100    21189276.18049  21189273.434 6  83151295.717 6        40.600
  23476489.500 7 123369787.897 7        44.000                    96132313.01947
        28.700    23476492.87147
  22130868.367 8 116298513.440 8        47.900                    90622225.64249
        37.200    22130872.09449
  22862118.836 8 120141255.934 8        46.000    22862126.227 8  93616585.95249
        36.000    22862125.41049  22862123.375 5  89715883.470 5        35.500
  21156108.328 9 111176039.177 9        50.000                    86630741.33949
        43.300    21156109.68849
  20117861.219 9 105720088.846 9        49.500                    82379312.20949
        45.200    20117864.01249
  23662036.164 7 124344879.748 7        43.900    23662042.840 7  96892163.43948
        30.900    23662043.09048  23662039.074 3  92854985.664 3        32.800
  23802026.234 6 125080510.151 6        40.300    23802031.832 7  97465379.39047
        26.800    23802031.77047  23802027.961 2  93404307.166 2        31.700
 17  4  7  0 15  0.0000000  0 10G01G32G08G28G14G03G22G11G27G10
  20823574.516 9 109428637.346 9        53.600    20823581.590 9  85269104.24049
        46.600    20823581.46949  20823577.570 7  81716207.833 7        42.200
  22188930.953 9 116603626.213 9        48.800    22188937.391 9  90860004.28349
        39.700    22188936.67649  22188933.137 5  87074154.933 5        37.000
  21202101.719 9 111417803.793 9        52.100    21202109.402 9  86819121.46249
        46.200    21202108.27049  21202105.055 6  83201650.474 6        40.600
  23475709.281 7 123365687.869 7        43.900                    96129118.19147
        28.600    23475712.12547
  22123982.969 9 116262329.541 9        48.200                    90594030.41349
        37.100    22123986.25049
  22844400.742 8 120048145.586 8        46.700    22844407.836 8  93544032.45149
        37.100    22844407.12149  22844405.199 5  89646353.027 5        35.600
  21145636.234 9 111121008.579 9        49.800                    86587860.35849
        43.300    21145637.34449
  20113173.930 9 105695456.053 9        50.200                    82360117.82249
        45.300    20113176.65649
  23682955.508 7 124454811.424 7        43.300    23682962.750 7  96977824.47848
        31.300    23682961.94548  23682959.336 3  92937077.488 3        33.500
  23820744.930 6 125178879.757 6        39.900    23820750.926 7  97542031.00347
        27.900    23820751.39147  23820747.465 1  93477764.954 1        30.600
 17  4  7  0 15 30.0000000  0 10G01G32G08G28G14G03G22G11G27G10
  20814393.680 9 109380392.596 9        53.100    20814400.734 9  85231510.93749
        46.700    20814400.55549  20814396.832 7  81680180.917 7        41.700
  22191309.930 9 116616126.975 9        48.600    22191316.395 9  90869745.13849
        39.800    22191315.52049  22191312.332 5  87083489.923 5        37.800
  21215019.781 9 111485688.945 9        52.000    21215027.133 9  86872018.97149
        46.100    21215026.18849  21215022.855 6  83252343.916 6        40.600
  23475028.992 7 123362113.222 7        43.500                    96126332.71847
        28.600    23475032.12947
  22117196.844 9 116226668.457 9        48.000                    90566242.56149
        37.000    22117200.40249
  22826729.609 8 119955282.066 8        47.700    22826736.355 8  93471671.26949
        37.100    22826735.94149  22826734.137 5  89577006.900 5        36.100
  21135234.445 9 111066345.885 9        50.300                    86545266.05949
        43.200    21135235.34449
  20108580.000 9 105671315.235 9        50.500                    82341306.79149
        45.400    20108583.41449
  23703904.617 7 124564897.947 7        43.900    23703911.578 8  97063606.18848
        31.600    23703911.04748  23703908.441 4  93019284.931 4        34.200
  23839483.898 6 125277352.108 6        40.600    23839490.000 7  97618762.69347
        27.400    23839490.21947  23839486.004 1  93551299.509 1        30.900
 17  4  7  0 16  0.0000000  0 10G01G32G08G28G14G03G22G11G27G10
  20805269.930 9 109332446.366 9        53.700    20805277.094 9  85194150.24149
        46.800    20805276.77049  20805273.219 7  81644376.927 7        41.800
  22193803.133 9 116629229.463 9        48.000    22193809.648 9  90879954.88049
        40.200    22193808.80949  22193805.793 5  87093274.258 5        37.400
  21228023.898 9 111554026.442 9        52.100    21228031.121 9  86925268.95249
        46.000    21228030.13749  21228026.980 7  83303375.155 7        41.000
  23474448.781 7 123359063.808 7        44.600                    96123956.57647
        29.400    23474452.05147
  22110510.211 9 116191531.634 9        48.000                    90538863.23449
        37.000    22110514.19949
  22809105.266 9 119862666.859 9        48.400    22809112.977 8  93399503.58049
        36.900    22809112.09449  22809110.055 5  89507846.205 5        35.500
  21124902.727 9 111012052.133 9        50.600                    86502959.24549
        43.500    21124903.92649
  20104080.031 9 105647667.972 9        49.300                    82322880.35149
        45.400    20104083.25849
  23724882.617 7 124675137.470 7        44.700    23724889.078 7  97149507.09248
        32.600    23724888.82848  23724885.750 3  93101606.644 3        33.400
  23858241.328 6 125375925.674 6        40.900    23858247.531 7  97695573.25447
        27.300    23858247.46147  23858244.121 2  93624909.622 2        31.800
 17  4  7  0 16 30.0000000  0 10G01G32G08G28G14G03G22G11G27G10
  20796203.000 9 109284799.306 9        52.300    20796209.961 9  85157022.66249
        46.900    20796209.69549  20796205.969 7  81608796.327 7        41.800
  22196410.969 9 116642932.974 9        48.200    22196417.660 9  90890632.94649
        40.200    22196416.96549  22196413.543 5  87103507.400 5        37.500
  21241113.898 9 111622814.331 9        51.900    21241121.523 9  86978869.90049
        45.900    21241120.46149  21241117.656 6  83354742.718 6        40.700
  23473968.117 7 123356539.705 7        43.500                    96121989.74247
        28.600    23473971.55547
  22103924.023 8 116156920.555 8        47.200                    90511893.56749
        36.900    22103927.18449
  22791528.266 8 119770301.013 8        46.700    22791535.426 8  93327530.20149
        36.300    22791534.70349  22791532.898 5  89438871.721 5        36.000
  21114641.406 9 110958127.445 9        50.500                    86460940.01449
        43.600    21114642.42649
  20099673.930 9 105624515.000 9        50.200                    82304839.07249
        45.100    20099677.03949
  23745888.617 7 124785527.679 7        44.000    23745895.547 7  97235525.44848
        30.700    23745894.82448  23745892.160 3  93184040.911 3        32.500
  23877017.930 6 125474598.455 6        40.500    23877024.500 6  97772461.13147
        25.800    23877024.38747  23877020.871 2  93698593.807 2        31.400
 17  4  7  0 17  0.0000000  0 10G01G32G08G28G14G03G22G11G27G10
  20787193.227 9 109237452.374 9        53.400    20787200.109 9  85120128.96049
        46.700    20787199.96949  20787195.836 7  81573439.864 7        42.300
  22199132.578 9 116657237.209 9        48.400    22199139.770 9  90901779.10749
        39.800    22199139.02049  22199135.363 6  87114189.144 6        38.000
  21254289.273 9 111692051.211 9        51.600    21254296.832 9  87032820.70349
        45.800    21254295.52749  21254292.898 7  83406445.574 7        41.100
  23473587.758 7 123354540.455 7        42.500                    96120431.87847
        28.500    23473591.68047
  22097438.016 8 116122836.633 8        47.500                    90485334.68249
        37.200    22097441.65649
  22773999.578 8 119678185.861 8        47.300    22774006.941 8  93255752.18049
        37.300    22774006.17249  22774004.313 5  89370084.448 5        35.700
  21104449.914 9 110904572.162 9        50.300                    86419208.62449
        43.500    21104450.98049
  20095362.328 9 105601857.445 9        49.200                    82287183.82749
        45.100    20095365.07049
  23766923.445 7 124896066.504 7        44.700    23766930.336 7  97321659.59548
        31.000    23766929.77048  23766927.160 3  93266586.125 3        33.400
  23895813.508 6 125573368.768 6        40.900    23895819.406 6  97849425.01147
        26.000    23895819.35947  23895815.141 1  93772350.858 1        30.700
 17  4  7  0 17 30.0000000  0 10G01G32G08G28G14G03G22G11G27G10
  20778240.797 9 109190406.637 9        52.800    20778247.555 9  85083469.94249
        47.000    20778247.41049  20778243.629 7  81538308.302 7        41.900
  22201968.680 9 116672141.825 9        48.200    22201975.348 9  90913393.09949
        39.900    22201974.83649  22201971.531 5  87125319.216 5        37.300
  21267549.750 9 111761735.487 9        51.600    21267557.227 9  87087120.13149
        45.600    21267555.93849  21267553.074 7  83458482.526 7        41.100
  23473307.211 7 123353066.073 7        42.200                    96119283.00047
        27.700    23473309.93047
  22091052.695 9 116089281.391 9        48.000                    90459187.75449
        36.900    22091056.30549
  22756518.523 8 119586322.790 8        47.200    22756525.473 8  93184170.56949
        37.500    22756524.89549  22756522.973 5  89301485.422 5        35.700
  21094328.859 9 110851387.163 9        50.000                    86377765.77949
        43.700    21094330.28949
  20091145.547 9 105579696.781 9        49.500                    82269915.77849
        45.000    20091147.94149
  23787986.742 7 125006751.976 7        44.600    23787993.652 7  97407908.01648
        32.000    23787993.19148  23787989.820 3  93349240.857 3        32.800
  23914627.398 6 125672234.955 6        40.100    23914633.707 6  97926463.63247
        26.900    23914633.51247  23914629.000 1  93846179.528 1        30.000
 17  4  7  0 18  0.0000000  0 10G01G32G08G28G14G03G22G11G27G10
  20769345.508 9 109143662.916 9        52.800    20769352.953 9  85047046.25749
        46.800    20769352.51649  20769348.852 7  81503402.278 7        42.200
  22204919.055 8 116687646.173 8        47.900    22204926.215 9  90925474.41649
        39.500    22204925.58249  22204922.512 5  87136897.152 5        37.700
  21280895.023 9 111831865.172 9        52.200    21280902.688 9  87141766.62649
        45.800    21280901.67649  21280898.344 6  83510852.088 6        40.500
  23473126.141 7 123352115.873 7        43.000                    96118542.57247
        28.200    23473129.81647
  22084768.102 9 116056256.126 9        48.000                    90433453.79349
        37.100    22084771.75049
  22739085.492 8 119494712.901 8        47.800    22739092.977 8  93112786.24949
        36.800    22739092.32049  22739090.633 5  89233075.448 5        35.500
  21084278.648 9 110798572.821 9        50.500                    86336611.75449
        43.600    21084280.32049
  20087023.359 9 105558033.940 9        49.700                    82253035.64249
        45.400    20087025.87949
  23809076.875 7 125117581.843 7        44.900    23809084.000 7  97494268.91348
        31.700    23809083.33248  23809079.902 3  93432003.400 3        33.500
  23933458.484 6 125771195.188 6        38.400    23933465.750 7  98003575.44446
        24.700    23933465.27046  23933461.402 1  93920078.356 1        30.600
 17  4  7  0 18 30.0000000  0 10G01G32G08G28G14G03G22G11G27G10
  20760508.258 9 109097222.113 9        52.400    20760515.438 9  85010858.63049
        46.800    20760515.00849  20760511.285 7  81468722.462 7        42.200
  22207983.656 9 116703749.807 9        48.900    22207990.363 9  90938022.70549
        40.000    22207989.62949  22207986.441 6  87148922.599 6        38.100
  21294324.766 9 111902438.702 9        51.900    21294332.363 9  87196758.98349
        45.600    21294331.05949  21294328.020 6  83563553.089 6        40.900
  23473044.898 7 123351689.831 7        42.700                    96118210.59847
        28.100    23473048.68447
  22078584.563 9 116023761.889 9        48.400                    90408133.61249
        36.600    22078588.24649
  22721701.617 8 119403357.448 8        47.600    22721708.516 8  93041600.19649
        37.700    22721707.64149  22721705.719 5  89164855.482 5        35.900
  21074298.906 9 110746129.577 9        50.300                    86295746.89549
        43.700    21074300.44549
  20082995.500 9 105536870.104 9        49.200                    82236544.33249
        45.300    20082998.63349
  23830194.453 7 125228553.992 7        44.200    23830201.113 7  97580740.74348
        31.900    23830200.01248  23830197.578 3  93514872.237 3        32.800
  23952308.414 6 125870247.801 6        38.000    23952313.676 6  98080759.26446
        24.300    23952313.77046  23952310.082 2  93994046.200 2        31.000
 17  4  7  0 19  0.0000000  0 10G01G32G08G28G14G03G22G11G27G10
  20751728.477 9 109051085.317 9        52.300    20751735.688 9  84974907.88149
        46.700    20751735.29349  20751731.570 7  81434269.658 7        42.100
  22211162.172 9 116720452.272 9        48.300    22211168.707 9  90951037.62549
        39.900    22211167.76649  22211164.867 5  87161395.217 5        37.800
  21307838.523 9 111973454.768 9        51.900    21307845.738 9  87252096.16649
        45.600    21307844.69149  21307841.770 6  83616584.559 6        40.500
  23473063.953 7 123351787.667 7        41.700                    96118286.84347
        27.900    23473067.46147
  22072502.891 8 115991800.153 8        47.900                    90383228.37549
        37.500    22072505.94949
  22704365.672 8 119312257.831 8        47.200    22704373.027 8  92970613.48849
        37.300    22704372.06649  22704370.207 5  89096826.553 5        36.100
  21064390.273 9 110694057.807 9        50.700                    86255171.49449
        43.800    21064391.27749
  20079063.734 9 105516206.575 9        49.600                    82220442.88349
        45.000    20079066.38349
  23851338.305 7 125339666.436 7        43.500    23851345.289 7  97667321.87247
        29.400    23851344.95347  23851342.109 4  93597845.815 4        34.000
  23971174.422 6 125969391.013 6        39.300    23971180.762 6  98158013.73646
        22.200    23971180.10546  23971175.480 1  94068081.703 1        29.300
 17  4  7  0 19 30.0000000  0 10G01G32G08G28G14G03G22G11G27G10
  20743006.969 9 109005253.316 9        53.000    20743014.348 9  84939194.63649
        47.000    20743014.09049  20743010.191 7  81400044.480 7        42.000
  22214454.430 9 116737753.040 9        48.600    22214460.895 9  90964518.75149
        39.400    22214460.04349  22214456.680 6  87174314.631 6        38.600
