     2.11           OBSERVATION DATA    G (GPS)             RINEX VERSION / TYPE
teqc  2015Jun23                         20150824 00:11:18UTCPGM / RUN BY / DATE
ZIMM                                                        MARKER NAME
14001M004                                                   MARKER NUMBER
TRIMBLE NETR9       SWISSTOPO                               OBSERVER / AGENCY
5429R49141          TRIMBLE NETR9       5.03                REC # / TYPE / VERS
99390               TRM29659.00     NONE                    ANT # / TYPE
  4331296.9226   567556.0704  4633134.0631                  APPROX POSITION XYZ
        0.0000        0.0000        0.0000                  ANTENNA: DELTA H/E/N
     1     1                                                WAVELENGTH FACT L1/2
    10    C1    L1    S1    C2    L2    S2    P2    C5    L5# / TYPES OF OBSERV
          S5                                                # / TYPES OF OBSERV
    30.0000                                                 INTERVAL
Linux2.6.32-279.el6.x86_64|x86_64|gcc|Win64-MinGW64|=       COMMENT
     2.11           OBSERVATION DATA    M (MIXED)           COMMENT
NetR9 5.03          Receiver Operator   23-AUG-15 00:00:00  COMMENT
L2C CARRIER PHASE MEASUREMENTS: PHASE SHIFTS REMOVED        COMMENT
L2C PHASE MATCHES L2 P PHASE                                COMMENT
GLONASS C/A & P PHASE MATCH: PHASE SHIFTS REMOVED           COMMENT
GIOVE-A if present is mapped to satellite ID 51             COMMENT
GIOVE-B if present is mapped to satellite ID 52             COMMENT
Forced Modulo Decimation to 30 seconds                      COMMENT
teqc edited: all GLONASS satellites excluded                COMMENT
teqc edited: all Galileo satellites excluded                COMMENT
  2015     8    23     0     0    0.0000000     GPS         TIME OF FIRST OBS
                                                            END OF HEADER
 15  8 23  0  0  0.0000000  0  8G05G07G28G02G06G09G30G13
  21278926.867 9 111821552.468 9        50.300    21278931.371 9  87133704.29449
        43.800    21278930.72349
  20635673.391 9 108441233.523 9        51.200    20635677.492 9  84499683.90549
        46.000    20635677.04349
  24396148.250 6 128202630.996 6        40.100                    99898177.28146
        22.000    24396152.03546
  22606470.594 8 118797837.137 8        46.300                    92569760.35749
        34.200    22606472.25049
  24326991.922 6 127839204.747 6        40.900    24327000.051 6  99615012.36147
        25.800    24326998.32047  24326996.945 1  95464386.107 1        29.300
  22448726.258 9 117968937.580 9        48.600    22448732.418 8  91923895.62349
        36.900    22448732.05549  22448729.855 5  88093745.988 5        36.900
  20480647.227 9 107626554.974 9        55.000    20480654.520 9  83864884.99249
        47.600    20480653.46549  20480651.145 7  80370509.552 7        42.500
  23535866.398 7 123681831.677 7        43.600                    96375480.39547
        28.600    23535870.39147
 15  8 23  0  0 30.0000000  0  8G05G07G28G02G06G09G30G13
  21268399.313 9 111766227.457 9        50.800    21268403.359 9  87090593.89449
        43.800    21268402.76649
  20641633.047 9 108472552.230 9        52.400    20641637.172 9  84524088.09149
        45.400    20641636.77749
  24377198.305 6 128103048.832 6        39.000                    99820580.88245
        19.300    24377202.15645
  22618816.430 8 118862714.371 8        45.900                    92620314.02248
        33.100    22618818.34448
  24347223.352 6 127945524.879 6        40.900    24347232.320 7  99697859.14347
        25.800    24347231.10547  24347229.789 1  95543780.975 1        30.800
  22463466.016 9 118046394.711 9        48.000    22463472.512 8  91984251.81449
        36.900    22463472.14549  22463470.238 5  88151587.334 5        36.700
  20473956.008 9 107591392.726 9        55.700    20473963.223 9  83837485.84849
        48.100    20473962.24249  20473959.570 7  80344252.038 7        42.500
  23518830.359 7 123592310.374 7        42.800                    96305723.58347
        27.000    23518834.83247
 15  8 23  0  1  0.0000000  0  8G05G07G28G02G06G09G30G13
  21257953.664 9 111711335.407 9        51.900    21257958.082 9  87047820.87449
        44.300    21257957.47349
  20647680.609 9 108504332.011 9        51.300    20647684.301 9  84548851.56149
        45.500    20647684.02749
  24358254.563 6 128003499.502 6        40.800                    99743009.93845
        19.600    24358257.86745
  22631236.453 8 118927982.696 8        45.900                    92671172.42149
        34.600    22631238.44549
  24367463.609 6 128051885.992 6        40.800    24367471.715 6  99780737.91646
        24.500    24367470.14546  24367469.238 1  95623206.436 1        30.400
  22478238.844 9 118124025.624 9        48.300    22478244.855 8  92044743.41649
        37.300    22478244.50449  22478242.832 5  88209558.453 5        36.900
  20467363.461 9 107556747.200 9        55.300    20467370.348 9  83810489.34549
        48.000    20467369.18849  20467366.867 7  80318380.389 7        42.700
  23501817.352 7 123502901.723 7        43.000                    96236054.54347
        27.200    23501821.13347
 15  8 23  0  1 30.0000000  0  8G05G07G28G02G06G09G30G13
  21247590.633 9 111656877.864 9        51.300    21247594.996 9  87005386.42949
        43.700    21247594.13749
  20653815.328 9 108536571.210 9        51.200    20653819.488 9  84573973.01949
        45.700    20653819.02749
  24339316.469 6 127903985.196 6        38.100                    99665466.31546
        21.500    24339322.46546
  22643730.859 8 118993639.070 8        45.500                    92722333.21749
        35.000    22643734.00049
  24387710.461 6 128158284.801 6        40.200    24387719.246 6  99863646.04847
        25.500    24387717.85247  24387716.125 1  95702660.048 1        28.200
  22493044.195 8 118201829.218 8        47.000    22493050.379 8  92105369.57749
        37.100    22493050.07849  22493048.465 5  88267658.512 5        36.900
  20460868.602 9 107522618.478 9        55.200    20460875.523 9  83783895.53549
        47.900    20460874.67249  20460872.004 7  80292894.659 7        42.700
  23484824.703 7 123413606.389 7        43.900                    96166473.80347
        28.000    23484828.88747
 15  8 23  0  2  0.0000000  0  8G05G07G28G02G06G09G30G13
  21237311.094 9 111602857.493 9        51.600    21237315.133 9  86963292.63849
        44.400    21237314.55549
  20660037.547 9 108569268.580 9        51.600    20660041.762 9  84599451.48949
        45.400    20660041.27749
  24320388.039 6 127804509.277 6        40.900                    99587952.71646
        21.500    24320392.72746
  22656298.484 8 119059681.362 8        46.100                    92773794.71449
        34.800    22656299.78149
  24407964.320 6 128264718.654 6        39.700    24407972.676 7  99946581.50347
        25.600    24407971.77047  24407969.105 1  95782139.863 1        28.900
  22507882.523 8 118279805.032 8        47.600    22507888.762 8  92166129.92949
        36.400    22507888.32449  22507886.359 5  88325887.180 5        36.900
  20454472.805 9 107489007.189 9        55.200    20454479.367 9  83757704.93649
        48.000    20454478.61749  20454476.238 7  80267795.332 7        42.500
  23467853.906 7 123324424.982 7        42.600                    96096981.83047
        27.200    23467858.24247
 15  8 23  0  2 30.0000000  0  8G05G07G28G02G06G09G30G13
  21227114.477 9 111549275.397 9        49.900    21227118.879 9  86921540.35949
        44.600    21227118.14549
  20666346.633 9 108602422.565 9        49.900    20666351.063 9  84625285.76449
        45.300    20666350.77349
  24301467.414 7 127705074.636 7        42.600                    99510471.19446
        22.200    24301470.12146
  22668938.070 8 119126106.613 8        45.000                    92825554.62848
        33.800    22668940.24648
  24428223.961 7 128371184.443 7        41.100    24428232.855 6 100029541.79646
        24.700    24428231.55546  24428229.711 1  95861643.472 1        29.200
  22522753.367 8 118357952.196 8        47.200    22522760.164 8  92227023.80749
        36.700    22522759.14849  22522757.184 5  88384243.815 5        36.300
  20448175.438 9 107455913.537 9        55.800    20448182.160 9  83731917.68149
        48.400    20448181.46149  20448178.672 7  80243082.552 7        42.600
  23450904.766 7 123235358.151 7        42.300                    96027579.14447
        27.800    23450909.16047
 15  8 23  0  3  0.0000000  0  8G05G07G28G02G06G09G30G13
  21217002.172 9 111496134.143 9        51.200    21217006.566 9  86880131.59249
        44.600    21217005.85949
  20672742.203 9 108636031.606 9        52.000    20672746.383 9  84651474.62349
        45.200    20672745.70349
  24282552.172 6 127605683.563 6        40.000                    99433023.55845
        19.600    24282555.33245
  22681650.672 8 119192912.144 8        45.200                    92877610.85948
        33.800    22681652.50448
  24448488.906 6 128477679.346 6        40.500    24448496.863 6 100112524.82746
        22.800    24448495.87546  24448495.086 1  95941168.846 1        29.400
  22537656.438 8 118436270.131 8        47.100    22537662.855 8  92288050.75049
        36.200    22537662.44149  22537660.184 5  88442727.970 5        35.800
  20441976.258 9 107423338.063 9        54.700    20441983.504 9  83706534.19849
        47.900    20441982.67249  20441980.000 7  80218756.715 7        43.000
  23433978.320 7 123146406.637 7        43.200                    95958266.29747
        27.700    23433982.21547
 15  8 23  0  3 30.0000000  0  9G05G07G28G02G20G06G09G30G13
  21206974.000 9 111443435.853 9        51.000    21206978.176 9  86839067.98449
        44.400    21206977.57049
  20679224.188 9 108670094.364 9        51.300    20679228.301 9  84678017.03749
        45.200    20679227.72749
  24263648.883 7 127506339.137 7        42.000                    99355612.37446
        22.800    24263653.10546
  22694435.625 7 119260095.268 7        44.400                    92929961.31949
        34.500    22694437.83649
  24990551.188 5 131326227.23115        37.200

  24468759.266 6 128584200.478 6        39.900    24468767.859 7 100195528.25046
        23.600    24468767.34446  24468764.680 1  96020713.807 1        27.800
  22552592.453 8 118514758.154 8        46.700    22552598.645 8  92349210.22749
        36.000    22552598.47749  22552596.340 5  88501339.126 5        36.800
  20435876.125 9 107391281.096 9        55.300    20435883.219 9  83681554.75549
        48.000    20435882.57849  20435880.258 7  80194818.074 7        43.000
  23417073.664 7 123057571.168 7        42.900                    95889043.89847
        27.400    23417077.53947
 15  8 23  0  4  0.0000000  0  9G05G07G28G02G20G06G09G30G13
  21197030.344 9 111391181.545 9        51.800    21197034.438 9  86798350.34749
        43.800    21197033.91049
  20685792.211 9 108704608.948 9        51.900    20685796.461 9  84704911.51149
        45.500    20685795.81349
  24244753.063 6 127407044.118 6        40.700                    99278239.66546
        22.500    24244757.47746
  22707291.570 8 119327653.127 8        45.300                    92982603.79649
        34.000    22707293.39149
  24970024.164 6 131218354.034 6        39.500                   102248083.51355
        19.900    24970026.66445
  24489033.758 6 128690744.857 6        40.000    24489043.344 6 100278549.81347
        25.800    24489042.32047  24489039.480 1  96100276.150 1        28.700
  22567560.242 8 118593415.478 8        46.900    22567566.918 8  92410501.62449
        36.000    22567566.52749  22567564.621 5  88560076.703 5        36.500
  20429874.563 9 107359742.855 9        55.000    20429881.871 9  83656979.51249
        48.000    20429880.94149  20429878.273 7  80171266.804 7        42.400
  23400190.367 7 122968852.418 7        42.800                    95819912.43747
        28.300    23400194.55147
 15  8 23  0  4 30.0000000  0  9G05G07G28G02G20G06G09G30G13
  21187171.313 9 111339373.534 9        50.300    21187175.859 9  86757980.46849
        44.000    21187175.25449
  20692445.555 9 108739573.821 9        51.500    20692449.469 9  84732156.87049
        44.900    20692448.90249
  24225867.477 6 127307801.452 6        40.400                    99200907.70346
        20.600    24225870.43846
  22720218.016 7 119395583.312 7        44.700                    93035536.38648
        33.600    22720220.05548
  24949513.406 5 131110571.358 5        37.300                   102164096.99045
        16.300    24949516.71145
  24509312.828 6 128797309.607 6        38.700    24509321.680 6 100361587.24846
        22.600    24509320.87946  24509318.508 1  96179853.667 1        29.300
  22582560.273 8 118672241.363 8        46.800    22582566.840 8  92471924.37249
        35.900    22582566.53949  22582564.578 5  88618940.173 5        35.900
  20423971.664 9 107328723.681 9        54.900    20423979.000 9  83632808.72349
        48.100    20423978.28149  20423975.496 7  80148103.137 7        42.300
  23383330.516 7 122880250.916 7        43.800                    95750872.33247
        28.700    23383334.01647
 15  8 23  0  5  0.0000000  0  9G05G07G28G02G20G06G09G30G13
  21177397.852 9 111288014.309 9        50.900    21177402.645 9  86717960.29449
        45.000    21177401.95349
  20699184.414 9 108774987.800 9        51.700    20699188.918 9  84759752.18049
        45.300    20699188.20749
  24206993.031 7 127208613.712 7        41.400                    99123618.59346
        23.000    24206996.84446
  22733214.977 7 119463883.112 7        43.600                    93088756.98948
        33.600    22733217.24648
  24929020.906 5 131002881.407 5        37.900                   102080182.77145
        17.800    24929024.60945
  24529594.945 6 128903891.815 6        40.400    24529603.039 6 100444638.29946
        22.600    24529601.92646  24529599.555 1  96259444.221 1        27.700
  22597592.609 8 118751235.263 8        47.300    22597599.094 8  92533478.05049
        35.700    22597598.61349  22597596.180 5  88677929.105 5        35.700
  20418167.891 9 107298223.976 9        54.400    20418174.793 9  83609042.73049
        48.100    20418174.05949  20418171.449 7  80125327.396 7        42.600
  23366492.492 7 122791767.606 7        43.500                    95681924.31547
        28.200    23366496.39547
 15  8 23  0  5 30.0000000  0  9G05G07G28G02G20G06G09G30G13
  21167710.750 9 111237105.381 9        51.100    21167715.043 9  86678291.00749
        44.100    21167714.39549
  20706008.641 9 108810849.162 9        51.200    20706012.641 9  84787696.09649
        45.200    20706012.17249
  24188128.938 7 127109483.935 7        41.800                    99046374.65646
        23.800    24188133.55546
  22746282.297 7 119532549.526 7        44.400                    93142263.25349
        34.200    22746283.71949
  24908545.813 5 130895286.100 5        36.700                   101996342.28045
        16.300    24908548.98445
  24549878.898 6 129010488.563 6        38.400    24549888.164 7 100527700.67746
        23.300    24549886.87946  24549884.742 1  96339045.708 1        28.900
  22612656.359 8 118830396.290 8        47.000    22612663.184 8  92595161.93949
        35.900    22612663.06649  22612660.457 5  88737042.833 5        35.800
  20412462.633 9 107268243.821 9        54.800    20412469.836 9  83585681.58249
        48.100    20412469.14149  20412466.586 7  80102939.624 7        42.700
  23349676.773 7 122703403.137 7        42.500                    95613068.93347
        29.000    23349680.67647
 15  8 23  0  6  0.0000000  0  9G05G07G28G02G20G06G09G30G13
  21158109.000 9 111186648.634 9        51.200    21158113.422 9  86638974.05549
        44.900    21158112.93849
  20712917.859 9 108847156.304 9        51.800    20712922.090 9  84815987.38449
        45.500    20712921.52749
  24169276.539 6 127010415.013 6        40.300                    98969178.12646
        22.000    24169280.48846
  22759418.117 7 119601580.225 7        44.900                    93196053.39249
        34.400    22759419.74649
  24888089.727 5 130787787.642 5        37.800                   101912577.22945
        19.600    24888092.98045
  24570165.883 6 129117097.118 6        39.200    24570174.918 6 100610772.22146
        23.000    24570174.23846  24570172.570 1  96418655.928 1        29.700
  22627752.164 8 118909723.939 8        47.600    22627758.445 8  92656975.66649
        35.400    22627758.16049  22627756.371 5  88796280.978 5        36.800
  20406856.711 9 107238783.722 9        55.200    20406863.773 9  83562725.66549
        48.100    20406862.68049  20406860.242 7  80080940.206 7        41.900
  23332883.969 7 122615158.167 7        43.900                    95544306.64847
        28.600    23332888.21547
 15  8 23  0  6 30.0000000  0  9G05G07G28G02G20G06G09G30G13
  21148593.844 9 111136646.310 9        51.600    21148597.945 9  86600011.20649
        44.600    21148597.73849
  20719911.453 9 108883908.102 9        51.900    20719915.707 9  84844625.14549
        45.100    20719915.15649
  24150437.078 7 126911409.588 7        41.100                    98892031.02146
        21.500    24150439.43446
  22772623.359 8 119670972.548 8        45.300                    93250125.30548
        33.900    22772624.74648
  24867651.898 5 130680388.352 5        36.800                   101828889.50045
        17.400    24867655.57045
  24590455.539 6 129223714.594 6        40.400    24590463.414 6 100693850.75346
        22.600    24590462.71946  24590461.109 1  96498272.803 1        30.400
  22642879.109 8 118989217.660 8        47.500    22642885.504 8  92718918.80749
        35.500    22642885.29349  22642882.684 5  88855643.150 5        36.600
  20401349.859 9 107209844.006 9        55.300    20401356.973 9  83540175.23949
        48.300    20401356.05949  20401353.621 7  80059329.391 7        42.900
  23316115.000 8 122527033.419 8        45.900                    95475638.05147
        29.600    23316119.17247
 15  8 23  0  7  0.0000000  0  9G05G07G28G02G20G06G09G30G13
  21139165.711 9 111087100.372 9        51.200    21139169.965 9  86561403.97849
        44.600    21139169.37149
  20726989.602 9 108921102.783 9        51.600    20726993.359 9  84873608.01449
        45.500    20726992.89149
  24131609.258 7 126812470.798 7        41.700                    98814935.87946
        22.900    24131612.80146
  22785896.313 7 119740723.410 7        43.600                    93304476.61248
        33.700    22785898.06648
  24847233.859 5 130573090.182 5        36.600                   101745280.58845
        17.800    24847237.72345
  24610744.703 6 129330338.142 6        39.200    24610753.230 6 100776934.05246
        24.700    24610752.80146  24610750.020 1  96577894.283 1        27.500
  22658037.836 8 119068876.572 8        47.100    22658044.098 8  92780990.66949
        36.300    22658043.78549  22658041.527 5  88915128.675 5        36.000
  20395942.000 9 107181424.735 9        55.300    20395948.836 9  83518030.36849
        48.400    20395947.99249  20395945.438 7  80038107.217 7        42.600
  23299368.836 8 122439029.679 8        46.100                    95407063.75247
        29.600    23299372.89847
 15  8 23  0  7 30.0000000  0  9G05G07G28G02G20G06G09G30G13
  21129824.195 9 111038012.286 9        50.800    21129829.414 9  86523153.52449
        44.100    21129828.68049
  20734151.258 9 108958738.613 9        50.700    20734155.352 9  84902934.64049
        45.300    20734154.73049
  24112795.195 7 126713601.503 7        41.500                    98737894.91246
        22.600    24112799.25446
  22799236.906 7 119810830.229 7        44.100                    93359105.27848
        33.100    22799239.15648
  24826834.594 5 130465895.708 5        35.400                   101661752.41545
        18.300    24826839.16445
  24631035.602 7 129436964.752 7        41.000    24631044.160 7 100860019.64747
        25.300    24631043.35247  24631041.039 1  96657518.035 1        27.800
  22673227.680 8 119148699.926 8        46.900    22673234.598 8  92843190.65349
        35.900    22673234.10549  22673231.793 5  88974736.994 5        36.500
  20390632.430 9 107153526.030 9        54.400    20390639.863 9  83496291.12549
        48.300    20390638.92649  20390636.316 7  80017273.774 7        43.200
  23282645.195 8 122351147.436 8        46.700                    95338584.10647
        29.300    23282648.77347
 15  8 23  0  8  0.0000000  0  9G05G07G28G02G20G06G09G30G13
  21120570.195 9 110989383.931 9        50.900    21120574.848 9  86485261.29349
        45.000    21120574.33649
  20741396.820 9 108996813.927 9        51.300    20741401.156 9  84932603.71049
        45.100    20741400.40649
  24093994.508 7 126614803.967 7        41.900                    98660909.87746
        21.800    24093998.82846
  22812645.406 8 119881290.216 8        45.300                    93414009.15148
        33.600    22812647.39548
  24806457.227 5 130358806.964 5        36.600                   101578306.67145
        18.300    24806460.70745
  24651325.625 6 129543591.649 6        38.900    24651334.266 6 100943105.52746
        22.900    24651333.42246  24651332.105 1  96737141.978 1        30.100
  22688448.422 8 119228687.214 8        47.100    22688455.410 8  92905518.37849
        35.400    22688454.39849  22688452.844 5  89034467.730 5        35.700
  20385423.172 9 107126148.245 9        55.400    20385430.059 9  83474957.78949
        48.300    20385429.23449  20385426.563 7  79996829.332 7        43.100
  23265945.313 8 122263387.493 8        46.000                    95270199.75347
        28.700    23265949.10247
 15  8 23  0  8 30.0000000  0  9G05G07G28G02G20G06G09G30G13
  21111404.875 9 110941217.431 9        51.400    21111409.461 9  86447728.95849
        44.500    21111408.87949
  20748725.586 9 109035327.457 9        51.700    20748729.602 9  84962614.25649
        45.100    20748729.18049
  24075208.563 7 126516081.305 7        41.700                    98583983.08746
        21.800    24075211.72346
  22826120.359 7 119952100.642 7        44.800                    93469186.07348
        33.100    22826121.56348
  24786099.313 5 130251826.245 5        35.200                   101494945.05845
        17.800    24786102.14145
  24671615.680 6 129650216.090 6        38.200    24671624.680 7 101026189.48446
        22.000    24671623.60546  24671622.289 1  96816764.084 1        28.700
  22703701.117 8 119308837.704 8        47.400    22703707.469 8  92967973.28749
        35.600    22703707.27049  22703705.422 5  89094320.344 5        36.000
  20380312.258 9 107099291.592 9        55.300    20380319.238 9  83454030.53449
        48.400    20380318.17649  20380316.090 7  79976774.041 7        42.800
  23249268.180 7 122175750.846 7        44.400                    95201911.49847
        28.100    23249272.67247
 15  8 23  0  9  0.0000000  0  9G05G07G28G02G20G06G09G30G13
  21102327.672 9 110893514.482 9        50.200    21102331.715 9  86410557.83349
        44.500    21102331.05549
  20756137.563 9 109074277.410 9        51.600    20756141.738 9  84992964.87549
        45.100    20756141.07449
  24056437.008 7 126417436.648 7        41.300                    98507117.15446
        23.900    24056441.68046
  22839660.953 7 120023258.684 7        44.000                    93524633.87348
        33.200    22839663.18848
  24765763.047 5 130144955.509 5        35.900                   101411669.19045
        16.900    24765765.84045
  24691904.242 6 129756835.148 6        38.400    24691913.289 7 101109269.21046
        24.800    24691912.85246  24691910.309 1  96896382.164 1        28.300
  22718984.180 8 119389150.696 8        47.100    22718990.336 8  93030554.81849
        35.500    22718989.84049  22718988.285 5  89154294.301 5        36.200
  20375301.047 9 107072956.166 9        55.000    20375307.934 9  83433509.43249
        48.500    20375307.13749  20375304.699 7  79957107.988 7        43.800
  23232615.359 7 122088237.781 7        44.600                    95133719.53047
        28.900    23232618.81647
 15  8 23  0  9 30.0000000  0  9G05G07G28G02G20G06G09G30G13
  21093338.102 9 110846277.010 9        50.800    21093342.469 9  86373749.40949
        44.600    21093341.95349
  20763632.578 9 109113662.298 9        51.900    20763636.277 9  85023654.38949
        45.400    20763635.68449
  24037680.914 7 126318872.624 7        41.800                    98430314.07546
        24.200    24037684.88346
  22853267.398 8 120094761.554 8        45.400                    93580350.37148
        33.600    22853269.36348
  24745447.797 6 130038197.234 6        38.400                   101328480.93145
        19.300    24745450.41445
  24712192.133 6 129863445.873 6        38.400    24712200.285 6 101192342.48646
        22.500    24712199.64846  24712197.805 1  96975994.060 1        28.900
  22734298.031 8 119469625.512 8        46.600    22734304.289 8  93093262.44149
        35.100    22734303.84049  22734301.820 5  89214389.100 5        36.100
  20370388.688 9 107047142.133 9        54.900    20370395.871 9  83413394.60149
        48.400    20370394.99649  20370392.324 7  79937831.279 7        43.600
  23215985.305 7 122000849.220 7        44.000                    95065624.58048
        30.000    23215988.52748
 15  8 23  0 10  0.0000000  0  9G05G07G28G02G20G06G09G30G13
  21084438.516 9 110799506.959 9        51.600    21084442.848 9  86337305.21249
        44.700    21084442.21949
  20771209.188 9 109153480.372 9        51.200    20771213.551 9  85054681.46349
        45.100    20771213.22749
  24018940.250 7 126220392.168 7        41.400                    98353576.05746
        21.800    24018942.98446
  22866939.578 7 120166606.559 7        43.900                    93636333.46348
        32.400    22866940.89848
  24725153.852 5 129931553.196 5        37.700                   101245381.72545
        19.600    24725157.65645
  24732476.742 5 129970045.592 5        36.900    24732485.906 6 101275407.20446
        20.100    24732484.66446  24732483.523 1  97055597.743 1        29.700
  22749642.477 8 119550261.522 8        47.000    22749648.777 8  93156095.67049
        35.100    22749648.06349  22749646.219 5  89274604.275 5        35.800
  20365575.523 9 107021849.590 9        55.200    20365582.766 9  83393686.13749
        48.500    20365581.82449  20365579.215 7  79918944.007 7        43.100
  23199379.984 7 121913586.100 7        44.500                    94997627.35447
        29.800    23199383.65647
 15  8 23  0 10 30.0000000  0  9G05G07G28G02G20G06G09G30G13
  21075627.602 9 110753206.005 9        51.100    21075632.133 9  86301226.54049
        44.600    21075631.55549
  20778868.656 9 109193730.005 9        50.000    20778872.762 9  85086044.81849
        44.800    20778872.25449
  24000216.461 7 126121998.176 7        41.400                    98276905.42146
        23.200    24000220.71546
  22880675.539 7 120238790.552 7        43.500                    93692580.70448
        32.500    22880676.80548
  24704881.867 5 129825026.062 5        35.600                   101162373.55745
        18.600    24704885.27045
  24752759.828 5 130076631.372 5        37.100    24752768.574 6 101358461.01046
        22.500    24752767.95346  24752765.992 1  97135190.964 1        29.800
  22765017.609 8 119631057.931 8        46.600    22765024.383 8  93219053.88849
        35.400    22765023.61349  22765021.770 5  89334939.224 5        35.600
  20360861.828 9 106997078.588 9        55.100    20360868.891 9  83374384.06449
        48.800    20360868.16849  20360865.438 7  79900446.183 7        43.000
  23182798.273 7 121826448.741 7        44.300                    94929728.15948
        30.400    23182802.62148
 15  8 23  0 11  0.0000000  0  9G05G07G28G02G20G06G09G30G13
  21066906.250 9 110707376.115 9        50.900    21066910.434 9  86265514.93949
        45.200    21066909.74249
  20786609.672 9 109234409.791 9        51.200    20786613.629 9  85117743.34849
        45.300    20786613.17249
  23981510.086 7 126023693.349 7        42.400                    98200304.31247
        25.300    23981514.60547
  22894476.063 7 120311311.285 7        43.500                    93749090.35448
        31.900    22894476.83248
  24684632.797 5 129718618.160 5        35.000                   101079458.34045
        17.400    24684636.73845
  24773039.133 5 130183200.559 5        37.100    24773048.523 6 101441501.95246
        22.000    24773047.68046  24773045.836 1  97214771.839 1        28.000
  22780422.680 8 119712014.374 8        46.300    22780429.605 8  93282136.79449
        34.800    22780429.00449  22780427.160 5  89395393.685 5        35.700
  20356247.211 9 106972829.470 9        55.400    20356254.258 9  83355488.64849
        48.400    20356253.40249  20356250.734 7  79882338.083 7        43.300
  23166240.836 7 121739438.134 7        44.700                    94861927.70048
        30.000    23166244.60948
 15  8 23  0 11 30.0000000  0  9G05G07G28G02G20G06G09G30G13
  21058274.961 9 110662018.943 9        50.200    21058280.125 9  86230171.68349
        44.800    21058279.28549
  20794432.375 9 109275517.567 9        50.700    20794436.359 9  85149775.37849
        44.600    20794435.83249
  23962819.680 7 125925480.382 7        41.600                    98123774.73346
        22.900    23962824.16046
  22908338.695 7 120384165.559 7        42.900                    93805859.87548
        31.800    22908341.12948
  24664408.273 6 129612331.657 6        38.500                   100996637.69245
        19.000    24664411.67245
  24793315.570 5 130289750.235 5        37.100    24793323.922 6 101524527.63946
        20.900    24793323.12146  24793321.160 1  97294338.135 1        29.300
  22795858.797 8 119793129.871 8        46.400    22795864.906 8  93345343.65749
        34.400    22795864.65649  22795862.809 5  89455966.914 5        36.200
  20351732.195 9 106949102.028 9        54.500    20351739.227 9  83336999.74049
        48.500    20351738.42249  20351735.926 7  79864619.545 7        42.800
  23149707.438 7 121652554.697 7        43.900                    94794226.34847
        28.600    23149710.59447
 15  8 23  0 12  0.0000000  0  9G05G07G28G02G20G06G09G30G13
  21049734.570 9 110617136.600 9        51.800    21049738.793 9  86195198.43349
        45.000    21049738.08649
  20802335.922 9 109317052.496 9        51.500    20802340.367 9  85182140.26249
        45.000    20802339.64149
  23944148.258 7 125827362.311 7        41.000                    98047319.09246
        21.700    23944152.25846
  22922266.148 7 120457350.515 7        43.100                    93862887.10048
        31.300    22922267.32848
  24644205.703 5 129506168.862 5        36.100                   100913913.41345
        19.000    24644208.83245
  24813586.891 5 130396277.662 5        37.300    24813595.422 6 101607536.02446
        21.700    24813594.15646  24813592.840 1  97373887.811 1        29.900
  22811324.984 8 119874404.005 8        45.600    22811330.934 8  93408674.12849
        34.800    22811330.41449  22811328.805 5  89516658.606 5        36.400
  20347316.406 9 106925896.690 9        55.500    20347323.340 9  83318917.66349
        48.500    20347322.55149  20347319.820 7  79847290.894 7        43.300
  23133198.234 7 121565799.965 7        44.900                    94726625.27348
        30.200    23133201.40648
 15  8 23  0 12 30.0000000  0  9G05G07G28G02G20G06G09G30G13
  21041284.297 9 110572730.509 9        51.900    21041288.852 9  86160596.28049
        44.600    21041288.05149
  20810320.875 9 109359012.560 9        51.900    20810325.195 9  85214836.41449
        45.100    20810324.49649
  23925496.141 7 125729342.061 7        42.400                    97970939.71047
        26.100    23925500.99247
  22936254.641 7 120530863.539 7        43.600                    93920169.94948
        32.300    22936256.95748
  24624027.648 5 129400131.920 5        35.700                   100831287.25745
        19.600    24624031.06645
  24833854.031 6 130502780.003 6        38.100    24833862.086 6 101690524.85146
        22.500    24833860.91446  24833859.305 1  97453418.726 1        30.000
  22826820.836 8 119955836.003 8        46.000    22826827.063 8  93472127.60549
        34.900    22826826.60549  22826824.230 5  89577468.189 5        35.500
  20342999.883 9 106903213.187 9        55.900    20343007.141 9  83301242.21149
        48.400    20343006.24649  20343003.516 7  79830351.916 7        43.400
  23116713.641 8 121479174.031 8        45.100                    94659124.58647
        29.600    23116718.60947
 15  8 23  0 13  0.0000000  0  9G05G07G28G02G20G06G09G30G13
  21032924.977 9 110528802.541 9        51.900    21032929.656 9  86126366.69049
        45.000    21032929.02049
  20818386.117 9 109401395.894 9        51.100    20818390.355 9  85247862.39149
        44.900    20818389.94549
  23906862.891 7 125631422.295 7        41.900                    97894638.63847
        25.400    23906867.42647
  22950305.992 7 120604701.432 7        43.700                    93977705.95048
        32.300    22950308.46548
  24603873.078 4 129294223.031 4        34.700                   100748760.89645
        19.300    24603877.82845
  24854114.211 5 130609254.305 5        35.500    24854124.129 7 101773491.81346
        22.000    24854123.25046  24854121.000 1  97532928.772 1        29.600
  22842346.727 8 120037425.041 8        45.200    22842353.582 8  93535703.44949
        34.700    22842353.25049  22842350.645 5  89638395.026 5        35.000
  20338782.398 9 106881051.400 9        55.200    20338789.547 9  83283973.29549
        48.500    20338788.72349  20338786.055 7  79813802.535 7        43.000
  23100254.250 8 121392677.294 8        47.000                    94591724.55648
        30.900    23100258.46548
 15  8 23  0 13 30.0000000  0  9G05G07G28G02G20G06G09G30G13
  21024657.055 9 110485354.853 9        51.900    21024661.309 9  86092511.35549
        45.200    21024661.03549
  20826531.578 9 109444201.048 9        50.500    20826535.594 9  85281217.06149
        45.200    20826535.16849
  23888248.453 7 125533605.981 7        41.300                    97818418.17346
        24.400    23888253.42246
  22964418.500 7 120678861.738 7        43.200                    94035493.16548
        32.700    22964420.17248
  24583744.086 5 129188444.530 5        35.400                   100666336.18445
        18.300    24583748.19145
  24874370.633 6 130715697.945 6        38.300    24874379.141 6 101856434.84946
        22.000    24874378.15646  24874376.078 1  97612415.859 1        29.000
  22857902.203 8 120119170.647 8        46.300    22857908.852 8  93599401.30749
        34.700    22857908.51249  22857906.664 5  89699438.804 5        35.800
  20334664.688 9 106859411.659 9        55.800    20334671.414 9  83267111.17049
        48.700    20334670.85549  20334668.188 7  79797642.995 7        42.500
  23083818.992 8 121306311.118 8        46.600                    94524426.25248
        30.400    23083822.80148
 15  8 23  0 14  0.0000000  0  9G05G07G28G02G20G06G09G30G13
  21016481.031 9 110442389.040 9        51.900    21016485.590 9  86059031.49449
        45.000    21016484.93449
  20834756.914 9 109487426.156 9        50.500    20834761.121 9  85314898.96249
        44.700    20834760.56649
  23869655.445 7 125435896.102 7        42.200                    97742280.61046
        22.300    23869658.89146
  22978591.500 7 120753341.434 7        42.600                    94093529.26948
        32.100    22978593.84848
  24563641.227 6 129082798.786 6        39.400                   100584014.68545
        19.600    24563643.01645
  24894620.023 6 130822108.158 6        38.200    24894627.586 6 101939351.87946
        22.600    24894627.25046  24894625.523 2  97691877.998 2        31.000
  22873487.883 8 120201072.096 8        46.200    22873494.184 8  93663220.59249
        34.400    22873493.32049  22873491.883 5  89760598.945 5        35.900
  20330646.234 9 106838293.818 9        54.600    20330653.313 9  83250655.71349
        48.700    20330652.30949  20330649.754 7  79781873.194 7        43.200
  23067408.695 8 121220075.959 8        46.000                    94457230.04748
        30.200    23067413.09848
 15  8 23  0 14 30.0000000  0  9G05G07G28G02G20G06G09G30G13
  21008396.758 9 110399906.169 9        51.700    21008400.980 9  86025927.96349
        44.800    21008400.55949
  20843061.828 9 109531069.369 9        50.700    20843066.352 9  85348906.66449
        44.500    20843065.74649
  23851082.523 7 125338295.105 7        41.600                    97666227.88446
        23.000    23851086.29346
  22992824.336 7 120828137.525 7        42.800                    94151811.91348
        31.600    22992825.87948
  24543562.781 5 128977287.982 5        36.600                   100501798.50745
        19.600    24543565.78545
  24914861.555 5 130928482.056 5        36.000    24914871.023 7 102022240.64146
        21.800    24914870.04346  24914867.906 1  97771313.000 1        30.200
  22889102.352 8 120283128.623 8        46.300    22889109.000 8  93727160.73049
        34.200    22889108.67249  22889106.648 5  89821874.899 5        35.800
  20326726.688 9 106817697.728 9        55.200    20326734.023 9  83234606.82349
        48.600    20326733.02749  20326730.828 7  79766493.006 7        43.000
  23051024.172 8 121133972.612 8        46.800                    94390136.55448
        31.500    23051028.25448
 15  8 23  0 15  0.0000000  0  9G05G07G28G02G20G06G09G30G13
  21000405.250 9 110357908.506 9        52.300    21000409.660 9  85993202.51149
        44.500    21000409.04349
  20851446.406 9 109575129.410 9        52.300    20851450.762 9  85383239.15849
        45.000    20851450.06649
  23832531.211 7 125240806.382 7        42.300                    97590262.70147
        25.800    23832535.92647
  23007117.648 7 120903247.362 7        42.500                    94210339.02948
        31.800    23007120.09048
  24523510.328 5 128871914.457 5        35.700                   100419689.40645
        19.600    24523515.49245
  24935096.938 5 131034816.961 5        36.600    24935106.086 7 102105098.98346
        22.800    24935104.66846  24935102.824 1  97850718.945 1        28.500
  22904746.836 8 120365339.658 8        45.500    22904753.613 8  93791221.25749
        34.200    22904753.39549  22904750.727 4  89883266.233 4        34.700
  20322906.750 9 106797623.481 9        55.600    20322914.008 9  83218964.55449
        48.700    20322913.15249  20322910.602 7  79751502.500 7        42.300
  23034664.352 8 121048001.835 8        47.000                    94323146.36148
        30.600    23034668.17648
 15  8 23  0 15 30.0000000  0  9G05G07G28G02G20G06G09G30G13
  20992505.688 9 110316397.996 9        51.000    20992510.234 9  85960856.65149
        45.300    20992509.32449
  20859909.563 9 109619604.360 9        49.800    20859913.965 9  85417894.96149
        44.100    20859913.14549
  23814001.969 7 125143432.495 7        41.400                    97514386.97346
        24.200    23814005.60546
  23021468.906 7 120978667.844 7        42.500                    94269108.22448
        31.300    23021471.59048
  24503486.195 6 128766680.716 6        40.400                   100337689.12246
        20.400    24503488.77346
  24955323.594 5 131141110.014 5        36.800    24955332.832 7 102187924.73546
        23.500    24955331.96546  24955329.652 1  97930093.693 1        29.700
  22920420.531 7 120447704.569 7        44.700    22920427.012 8  93855401.66648
        33.700    22920426.48448  22920424.227 5  89944772.475 5        35.400
  20319185.836 9 106778070.980 9        54.200    20319192.996 9  83203728.84749
        48.500    20319192.16449  20319189.555 7  79736901.615 7        42.900
  23018329.875 8 120962164.382 8        46.600                    94256260.04148
        30.000    23018333.48848
 15  8 23  0 16  0.0000000  0  9G05G07G28G02G20G06G09G30G13
  20984699.578 9 110275376.267 9        51.900    20984704.117 9  85928891.67049
        44.700    20984703.58249
  20868451.836 9 109664492.536 9        51.400    20868456.082 9  85452872.76749
        45.100    20868455.64549
  23795494.305 6 125046176.429 6        40.600                    97438603.00846
        22.000    23795497.67646
  23035880.563 7 121054396.138 7        43.900                    94328117.26048
        31.800    23035882.10548
  24483488.523 6 128661588.873 6        39.800                   100255799.20145
        19.300    24483489.24645
  24975541.859 5 131247358.554 5        36.600    24975550.086 5 102270715.76845
        19.900    24975549.35945  24975548.395 2  98009435.064 2        31.200
  22936123.461 8 120530222.601 8        45.200    22936129.367 8  93919701.40448
        33.700    22936129.10248  22936127.254 5  90006393.054 5        35.400
  20315564.617 9 106759040.095 9        55.900    20315571.547 9  83188899.59049
        48.700    20315570.52749  20315568.094 7  79722690.247 7        43.200
  23002021.164 8 120876460.919 8        47.200                    94189478.14248
        30.700    23002024.76248
 15  8 23  0 16 30.0000000  0  9G05G07G28G02G20G06G09G30G13
  20976986.703 9 110234844.433 9        52.500    20976990.605 9  85897308.41949
        45.000    20976990.00049
  20877071.852 9 109709792.807 9        51.000    20877076.172 9  85488171.67749
        45.100    20877076.01249
  23777009.531 6 124949040.977 6        40.500                    97362913.09446
        24.700    23777014.12146
  23050348.805 7 121130429.664 7        44.400                    94387364.13948
        31.200    23050351.34048
  24463515.758 4 128556641.042 4        34.600                   100174021.76345
        17.800    24463519.04345
  24995752.188 5 131353559.76715        37.400    24995760.875 6 102353469.96456
        23.500    24995759.61346  24995758.766 2  98088741.10112        31.500
  22951854.828 7 120612893.246 7        43.700    22951861.270 7  93984120.06548
        33.600    22951860.29748  22951858.922 5  90068127.587 5        35.500
  20312042.445 9 106740530.822 9        55.900    20312049.113 9  83174476.79149
        48.700    20312048.65249  20312045.863 7  79708868.398 7        43.200
  22985738.406 9 120790892.609 9        48.300                    94122801.57448
        30.900    22985741.99248
 15  8 23  0 17  0.0000000  0  9G05G07G28G02G20G06G09G30G13
  20969367.344 9 110194804.401 9        52.300    20969371.766 9  85866108.39149
        45.000    20969371.25449
  20885770.273 9 109755502.340 9        50.800    20885774.578 9  85523789.49849
        44.600    20885774.08649
  23758549.102 7 124852028.961 7        41.100                    97287319.34847
        25.900    23758553.03547
  23064874.320 7 121206765.169 7        44.100                    94446846.31448
        31.300    23064877.40248
  24443574.797 6 128451839.932 6        39.300                   100092358.64146
        24.300    24443577.90246
  25015953.125 6 131459710.733 6        39.200    25015961.051 7 102436185.03147
        25.800    25015959.89547  25015957.113 1  98168009.733 1        27.900
  22967615.773 7 120695715.584 7        43.600    22967621.918 8  94048656.93148
        33.800    22967621.53148  22967619.391 5  90129975.401 5        35.600
  20308619.578 9 106722542.816 9        54.900    20308626.332 9  83160460.17049
        48.800    20308625.49249  20308623.230 7  79695435.797 7        43.300
  22969480.453 8 120705459.462 8        47.000                    94056230.31248
        30.900    22969484.87148
 15  8 23  0 17 30.0000000  0  9G05G07G28G02G20G06G09G30G13
  20961841.969 9 110155258.358 9        52.000    20961846.258 9  85835293.30349
        45.000    20961845.84849
  20894546.156 9 109801620.130 9        50.100    20894550.703 9  85559725.43349
        44.900    20894550.03949
  23740112.031 6 124755143.075 6        39.600                    97211823.86346
        24.800    23740115.78946
  23079457.719 7 121283399.793 7        43.000                    94506561.56148
        31.400    23079460.41448
  24423658.695 6 128347187.761 6        38.700                   100010811.49546
        21.100    24423663.03146
  25036140.609 3 131565809.123 3        33.800    25036150.293 6 102518859.04846
        20.400    25036149.40646  25036145.629 1  98247239.134 1        26.700
  22983405.047 7 120778689.294 7        44.400    22983412.027 8  94113311.74548
        33.700    22983411.59448  22983408.809 4  90191936.267 4        34.300
  20305295.539 9 106705076.220 9        54.300    20305302.445 9  83146849.83649
        48.800    20305301.76249  20305299.152 7  79682392.571 7        43.200
  22953249.773 8 120620162.904 8        47.900                    93989765.47948
        31.100    22953253.12948
 15  8 23  0 18  0.0000000  0  9G05G07G28G02G20G06G09G30G13
  20954410.656 9 110116208.124 9        52.100    20954415.422 9  85804864.54549
        44.900    20954414.91849
  20903399.445 9 109848144.423 9        50.700    20903403.758 9  85595978.12449
        44.500    20903403.03549
  23721700.250 6 124658386.744 6        39.600                    97136429.33146
        24.400    23721703.34446
  23094097.398 7 121360330.655 7        43.100                    94566507.66648
        30.600    23094100.23848
  24403771.805 5 128242686.694 5        35.500                    99929382.08245
        17.400    24403775.57845
  25056320.617 5 131671852.33215        35.400    25056327.668 5 102601490.08855
        17.400    25056327.91045  25056326.770 1  98326427.15611        30.600
  22999223.203 7 120861813.832 7        44.100    22999229.414 8  94178084.09148
        33.500    22999229.20348  22999226.828 4  90254009.766 4        34.800
  20302071.023 9 106688131.105 9        54.500    20302077.938 9  83133645.85849
        48.500    20302076.86349  20302074.484 7  79669738.755 7        43.300
  22937044.242 8 120535003.604 8        47.900                    93923407.59548
        31.800    22937047.45348
 15  8 23  0 18 30.0000000  0  9G05G07G28G02G20G06G09G30G13
  20947074.297 9 110077654.756 9        52.300    20947078.773 9  85774822.96549
        45.600    20947078.20749
  20912329.758 9 109895073.546 9        51.000    20912333.883 9  85632546.27449
        44.900    20912333.25849
  23703313.063 7 124561762.410 7        41.800                    97061137.67446
        24.900    23703317.13346
  23108793.250 7 121437554.953 7        42.200                    94626682.43548
        30.100    23108794.55548
  24383915.930 5 128138339.126 5        35.500                    99848072.25845
        19.000    24383919.14845
  25076489.469 6 131777837.266 6        38.600    25076497.203 6 102684075.84446
        24.700    25076496.46546  25076495.207 1  98405571.698 1        30.400
  23015069.547 7 120945088.303 7        44.100    23015075.859 8  94242973.27748
        33.500    23015075.32448  23015074.008 5  90316195.221 5        35.700
  20298945.570 9 106671706.953 9        54.600    20298952.832 9  83120847.82049
        48.700    20298952.03949  20298949.309 7  79657473.967 7        42.900
  22920864.875 8 120449982.131 8        47.400                    93857157.10448
        31.600    22920869.07448
 15  8 23  0 19  0.0000000  0  9G05G07G28G02G20G06G09G30G13
  20939832.828 9 110039599.778 9        52.800    20939837.367 9  85745169.73249
        44.900    20939836.81349
  20921336.766 9 109942405.422 9        51.200    20921341.145 9  85669428.25649
        44.600    20921340.59049
  23684951.703 6 124465272.852 6        40.500                    96985951.03747
        26.300    23684955.92647
  23123543.773 7 121515069.257 7        41.600                    94687083.15748
        30.200    23123545.57048
  24364089.375 6 128034147.597 6        39.300                    99766884.09046
        23.200    24364093.13746
  25096645.211 4 131883761.18814        34.200    25096654.703 7 102766613.92856
        22.200    25096653.84446  25096651.707 1  98484670.69111        26.800
  23030943.844 7 121028511.970 7        43.200    23030950.871 7  94307978.70648
        33.300    23030950.39848  23030948.902 4  90378492.084 4        34.700
  20295919.422 9 106655803.503 9        54.300    20295926.355 9  83108455.53149
        48.700    20295925.44149  20295922.949 7  79645598.024 7        42.800
  22904712.305 9 120365099.237 9        48.200                    93791014.62348
        31.800    22904716.18848
 15  8 23  0 19 30.0000000  0  9G05G07G28G02G20G06G09G30G13
  20932686.461 9 110002045.615 9        53.100    20932690.777 9  85715906.74849
        45.100    20932690.16049
  20930420.023 9 109990138.655 9        50.200    20930424.406 9  85706623.00149
        44.600    20930423.78149
  23666615.984 6 124368921.254 6        40.500                    96910871.89646
        24.500    23666620.27346
  23138348.703 7 121592871.370 7        41.100                    94747708.16147
        29.500    23138350.60947
  24344292.242 6 127930114.510 6        38.500                    99685819.38945
        19.300    24344295.80145
  25116790.086 3 131989621.70513        33.600    25116798.980 6 102849102.37556
        20.400    25116798.21546  25116794.672 1  98563722.48311        24.500
  23046848.531 7 121112084.326 7        44.600    23046854.441 7  94373100.00448
        32.300    23046853.98448  23046852.195 4  90440899.989 4        34.900
  20292991.992 9 106640420.771 9        54.400    20292999.078 9  83096468.99049
        48.700    20292998.29349  20292995.504 7  79634110.926 7        43.400
  22888586.180 8 120280355.871 8        47.500                    93724980.86248
        31.900    22888589.68048
 15  8 23  0 20  0.0000000  0  9G05G07G28G02G20G06G09G30G13
  20925635.367 9 109964993.063 9        53.400    20925640.098 9  85687034.63149
        45.600    20925639.48449
  20939579.258 9 110038271.142 9        49.500    20939583.504 9  85744128.83149
        44.200    20939583.26249
  23648309.039 7 124272710.350 7        42.900                    96835902.35747
        25.800    23648312.03547
  23153208.188 7 121670958.009 7        42.300                    94808554.85648
        30.300    23153209.39148
  24324525.445 5 127826241.730 5        36.200                    99604879.55645
        17.400    24324528.59845
  25136923.328 6 132095415.565 6        39.700    25136928.465 3 102931539.32645
        16.900    25136928.96945  25136928.887 1  98642724.277 1        30.800
  23062779.063 7 121195804.534 7        44.500    23062785.773 8  94438336.51948
        33.900    23062785.55548  23062783.414 3  90503418.315 3        33.500
  20290163.617 9 106625558.282 9        53.000    20290171.027 9  83084887.83649
        49.000    20290169.99649  20290167.441 7  79623012.323 7        43.200
  22872486.570 9 120195752.484 9        48.000                    93659056.14948
        31.900    22872490.23448
 15  8 23  0 20 30.0000000  0  9G05G07G28G02G20G06G09G30G13
  20918680.648 9 109928443.725 9        53.800    20918685.027 9  85658554.63049
        45.600    20918684.53949
  20948814.414 9 110086801.193 9        50.000    20948818.457 9  85781944.45649
        44.300    20948818.12949
  23630027.445 7 124176642.688 7        42.600                    96761044.46647
        26.300    23630031.43447
  23168121.664 7 121749326.169 7        41.800                    94869620.94148
        31.200    23168123.34848
  24304792.148 6 127722532.099 6        40.000                    99524066.85646
        22.500    24304794.10946
  25157040.992 4 132201140.491 4        34.800    25157050.250 6 103013922.46046
        21.500    25157048.67246  25157047.063 2  98721674.683 2        31.600
  23078738.594 7 121279672.043 7        44.700    23078745.191 7  94503687.79248
        33.100    23078744.37948  23078742.238 3  90566046.625 3        33.400
  20287434.508 9 106611215.913 9        53.400    20287441.703 9  83073711.97049
        49.000    20287440.87149  20287438.262 7  79612302.118 7        42.900
  22856413.727 8 120111290.217 8        47.800                    93593241.41548
        32.000    22856417.84048
 15  8 23  0 21  0.0000000  0  9G05G07G28G02G20G06G09G30G13
  20911821.461 9 109892399.959 9        52.900    20911826.055 9  85630468.58249
        45.700    20911825.33649
  20958124.719 9 110135727.404 9        49.600    20958129.109 9  85820068.77549
        44.600    20958128.46949
  23611773.914 7 124080721.589 7        42.700                    96686300.78447
        25.900    23611777.97347
  23183086.742 7 121827972.912 7        41.600                    94930904.06648
        30.200    23183089.07848
  24285087.141 6 127618988.008 6        38.900                    99443383.10746
        21.800    24285090.80146
  25177146.047 5 132306788.00315        35.700    25177155.555 7 103096241.63256
        22.600    25177155.84446
  23094726.344 8 121363686.376 8        46.100    23094732.844 7  94569153.47648
        32.600    23094732.43048  23094730.879 4  90628784.579 4        34.800
  20284804.313 9 106597393.562 9        53.000    20284811.043 9  83062941.31649
        48.800    20284810.36349  20284807.633 7  79601980.239 7        43.700
  22840368.398 9 120026969.832 9        48.900                    93527537.24948
        32.500    22840372.36348
 15  8 23  0 21 30.0000000  0  9G05G07G28G02G20G06G09G30G13
  20905059.266 9 109856862.790 9        53.500    20905063.852 9  85602777.28649
        46.000    20905063.21549
  20967509.922 9 110185047.573 9        49.800    20967514.313 9  85858500.08049
        43.800    20967513.78149
  23593549.148 7 123984949.492 7        42.900                    96611673.18946
        24.600    23593551.97346
  23198105.367 7 121906895.209 7        41.600                    94992401.94847
        28.300    23198107.55947
  24265414.258 5 127515611.457 5        36.700                    99362830.02246
        22.000    24265418.98446
  25197238.352 6 132412366.792 6        40.100    25197246.090 6 103178510.78446
        24.000    25197245.48846  25197240.949 1  98879390.08511        22.800
  23110741.523 8 121447846.561 8        45.400    23110747.973 7  94634732.84648
        32.900    23110747.29748  23110745.625 5  90691631.436 5        35.200
  20282272.547 9 106584090.675 9        53.700    20282279.508 9  83052575.43549
        48.800    20282278.60249  20282275.988 7  79592046.272 7        43.500
  22824350.406 9 119942791.966 9        48.200                    93461944.10948
        32.200    22824353.76248
 15  8 23  0 22  0.0000000  0  8G05G07G28G02G20G09G30G13
  20898393.375 9 109821833.771 9        52.700    20898397.902 9  85575481.94649
        45.400    20898397.45349
  20976970.008 9 110234760.459 9        49.700    20976974.391 9  85897237.38749
        44.400    20976973.71549
  23575353.828 7 123889329.624 7        41.700                    96537164.19346
        24.100    23575356.84046
  23213174.875 6 121986090.382 6        39.500                    95054112.43147
        27.900    23213177.44947
  24245776.492 6 127412405.171 6        39.400                    99282409.55546
        21.500    24245778.93446
  23126783.992 7 121532152.375 7        44.400    23126790.625 7  94700425.66548
        33.000    23126790.42248  23126788.398 4  90754587.048 4        34.900
  20279839.984 9 106571307.315 9        53.200    20279847.355 9  83042614.37649
        48.600    20279846.49249  20279843.938 7  79582500.263 7        43.000
  22808358.516 8 119858757.498 8        47.900                    93396462.73848
        32.700    22808362.52348
 15  8 23  0 22 30.0000000  0  8G05G07G28G02G20G09G30G13
  20891824.844 9 109787314.866 9        53.200    20891829.078 9  85548584.09649
        45.800    20891828.53549
  20986504.516 9 110284863.840 9        50.300    20986508.469 9  85936278.98549
        44.300    20986507.77349
  23557186.648 7 123793864.857 7        41.800                    96462776.10447
        25.500    23557191.43847
  23228297.406 7 122065555.584 7        42.200                    95116033.35847
        28.400    23228299.55547
  24226168.703 6 127309371.260 6        38.600                    99202123.34045
        19.900    24226171.54745
  23142854.844 7 121616603.176 7        43.900    23142861.031 8  94766231.45248
        32.500    23142860.62948  23142858.195 3  90817650.936 3        33.800
  20277506.328 9 106559043.218 9        53.200    20277513.395 9  83033057.94349
        48.800    20277512.54349  20277509.695 7  79573342.012 7        43.000
  22792394.867 8 119774867.268 8        47.900                    93331093.74548
        32.300    22792398.35248
 15  8 23  0 23  0.0000000  0  8G05G07G28G02G20G09G30G13
  20885353.086 9 109753306.972 9        52.700    20885357.691 9  85522084.44049
        45.800    20885357.16049
  20996112.922 9 110335355.885 9        49.500    20996116.906 9  85975623.43249
        43.600    20996116.69149
  23539050.586 7 123698557.756 7        41.400                    96388510.85347
        25.300    23539054.39547
  23243470.828 7 122145287.223 7        42.800                    95178161.88947
        29.100    23243471.91447
  24206594.922 6 127206512.262 6        38.900                    99121973.47846
        21.300    24206598.64546
  23158951.898 7 121701197.779 7        42.300    23158959.336 7  94832149.30148
        32.600    23158958.62548  23158956.250 4  90880822.227 4        34.100
  20275271.109 9 106547297.581 9        53.900    20275278.301 9  83023905.50749
        48.800    20275277.37149  20275274.992 7  79564570.927 7        43.200
  22776458.336 9 119691121.722 9        48.000                    93265837.49348
        32.800    22776461.98048
 15  8 23  0 23 30.0000000  0  8G05G07G28G02G20G09G30G13
  20878978.938 9 109719811.678 9        52.300    20878983.863 9  85495984.20349
        46.500    20878983.23849
  21005794.805 9 110386234.912 9        49.600    21005798.891 9  86015269.42749
        44.200    21005798.53549
  23520944.813 6 123603411.168 6        39.800                    96314370.66947
        25.400    23520949.06347
  23258692.664 7 122225282.728 7        41.400                    95240496.01147
        28.300    23258694.11747
  24187055.633 5 127103830.617 5        37.500                    99041961.87746
        22.300    24187060.20746
  23175077.906 7 121785935.831 7        43.200    23175083.711 7  94898178.94448
        32.100    23175082.80148  23175081.660 4  90944100.624 4        34.300
  20273134.531 9 106536070.252 9        53.400    20273141.520 9  83015156.94849
        48.900    20273140.78149  20273137.992 7  79556186.892 7        43.000
  22760549.961 9 119607522.021 9        48.300                    93200694.88048
        32.900    22760553.53148
