     2.11           OBSERVATION DATA    G (GPS)             RINEX VERSION / TYPE
teqc  2016Nov7                          20170410 00:12:33UTCPGM / RUN BY / DATE
ZIMM                                                        MARKER NAME
14001M004                                                   MARKER NUMBER
TRIMBLE NETR9       SWISSTOPO                               OBSERVER / AGENCY
5429R49141          TRIMBLE NETR9       5.10                REC # / TYPE / VERS
99390               TRM29659.00     NONE                    ANT # / TYPE
  4331297.3480   567555.6400  4633133.7280                  APPROX POSITION XYZ
        0.0000        0.0000        0.0000                  ANTENNA: DELTA H/E/N
     1     1                                                WAVELENGTH FACT L1/2
    10    C1    L1    S1    C2    L2    S2    P2    C5    L5# / TYPES OF OBSERV
          S5                                                # / TYPES OF OBSERV
    30.0000                                                 INTERVAL
Linux 2.4.21-27.ELsmp|Opteron|gcc -static|Linux x86_64|=+   COMMENT
     2.11           OBSERVATION DATA    M (MIXED)           COMMENT
NetR9 5.10          Receiver Operator   09-APR-17 00:00:00  COMMENT
L2C CARRIER PHASE MEASUREMENTS: PHASE SHIFTS REMOVED        COMMENT
L2C PHASE MATCHES L2 P PHASE                                COMMENT
GLONASS C/A & P PHASE MATCH: PHASE SHIFTS REMOVED           COMMENT
GIOVE-A if present is mapped to satellite ID 51             COMMENT
GIOVE-B if present is mapped to satellite ID 52             COMMENT
Forced Modulo Decimation to 30 seconds                      COMMENT
teqc edited: all GLONASS satellites excluded                COMMENT
teqc edited: all Galileo satellites excluded                COMMENT
  2017     4     9     0     0    0.0000000     GPS         TIME OF FIRST OBS
                                                            END OF HEADER
 17  4  9  0  0  0.0000000  0 10G01G32G08G28G14G03G22G11G27G10
  20954613.438 9 110117237.061 9        53.800    20954620.574 9  85805680.13949
        45.200    20954620.30549  20954616.465 6  82230438.132 6        40.900
  22167465.383 8 116490844.805 8        47.500    22167472.035 8  90772115.99249
        39.800    22167471.49249  22167468.129 5  86989934.047 5        37.800
  21037163.711 9 110551076.190 9        52.500    21037171.055 9  86143744.28349
        46.800    21037169.96149  21037166.863 6  82554413.680 6        40.800
  23493981.305 7 123461711.344 7        43.300                    96203946.87047
        26.700    23493984.37147
  22226053.398 8 116798709.825 8        47.600                    91012001.56949
        35.300    22226057.94149
  23097997.219 8 121380805.537 8        46.900    23098004.242 7  94582472.20049
        34.000    23098003.53549  23098001.383 4  90641520.659 4        34.600
  21288272.641 9 111870635.976 9        50.000                    87171933.60349
        42.500    21288274.38349
  20185453.797 9 106075226.944 9        49.900                    82656094.34349
        45.300    20185456.86749
  23401088.586 8 122973603.513 8        45.400    23401095.156 8  95823635.73248
        33.200    23401095.00448  23401092.453 4  91830973.314 4        34.500
  23566395.195 7 123842285.284 7        42.700    23566400.156 7  96500523.18048
        30.500    23566399.84448  23566395.746 3  92479653.024 3        33.100
 17  4  9  0  0 30.0000000  0 10G01G32G08G28G14G03G22G11G27G10
  20944671.445 9 110064991.667 9        53.300    20944678.395 9  85764969.46049
        45.300    20944678.10549  20944674.203 6  82191423.723 6        40.900
  22168264.977 8 116495047.691 8        47.500    22168272.000 8  90775390.97449
        39.500    22168271.15249  22168267.965 5  86993072.570 5        37.400
  21048900.563 9 110612753.268 9        52.400    21048907.941 9  86191804.33249
        46.700    21048906.81649  21048903.781 6  82600471.233 6        40.800
  23491939.930 7 123450981.471 7        43.900                    96195585.93947
        28.600    23491942.94947
  22217948.313 8 116756115.475 8        47.900                    90978811.19449
        36.300    22217952.25449
  23079692.289 8 121284612.918 8        46.400    23079699.305 7  94507516.93349
        34.200    23079698.44949  23079696.293 3  90569688.531 3        33.500
  21276962.406 9 111811198.893 9        49.500                    87125619.00049
        42.200    21276963.57449
  20179593.695 9 106044434.995 9        49.600                    82632100.62549
        45.000    20179597.14849
  23421603.703 8 123081410.842 8        45.200    23421610.914 8  95907641.41548
        33.000    23421610.62948  23421607.027 3  91911478.780 3        33.500
  23584833.688 7 123939184.250 7        42.000    23584839.465 7  96576028.85647
        29.700    23584839.23447  23584834.375 2  92552012.637 2        31.900
 17  4  9  0  1  0.0000000  0 10G01G32G08G28G14G03G22G11G27G10
  20934783.797 9 110013032.038 9        53.400    20934791.148 9  85724481.42749
        45.300    20934790.98449  20934786.910 7  82152622.699 7        41.300
  22169180.344 9 116499855.036 9        48.000    22169186.457 8  90779136.96449
        39.400    22169185.59049  22169181.988 5  86996662.475 5        37.200
  21060727.258 9 110674902.419 9        52.200    21060734.121 9  86240232.23949
        46.600    21060733.18449  21060730.027 6  82646881.302 6        40.700
  23489997.703 7 123440777.409 7        42.400                    96187634.71747
        26.800    23490000.46947
  22209938.742 8 116714024.036 8        47.800                    90946012.68749
        36.100    22209942.59049
  23061430.945 8 121188649.869 8        46.400    23061438.230 8  94432740.54849
        34.700    23061437.55549  23061435.578 4  90498027.828 4        34.500
  21265720.203 9 111752122.820 9        49.400                    87079585.69949
        42.600    21265721.60549
  20173825.133 9 106014119.033 9        49.600                    82608477.79349
        45.200    20173827.94949
  23442153.156 8 123189399.421 8        45.000    23442159.648 8  95991788.35048
        33.500    23442159.19548  23442155.883 3  91992119.608 3        33.700
  23603296.609 7 124036209.260 7        41.700    23603302.723 7  96651632.75147
        29.600    23603302.09447  23603297.875 3  92624466.380 3        32.400
 17  4  9  0  1 30.0000000  0 10G01G32G08G28G14G03G22G11G27G10
  20924950.930 9 109961359.234 9        52.100    20924958.348 9  85684216.90849
        45.300    20924957.69949  20924953.918 7  82114035.869 7        41.300
  22170210.094 8 116505266.978 8        47.600    22170216.797 8  90783354.07849
        39.200    22170216.04749  22170212.273 5  87000703.877 5        37.100
  21072643.516 9 110737522.281 9        52.200    21072650.637 9  86289026.91849
        46.400    21072649.66849  21072646.570 6  82693642.873 6        40.500
  23488156.453 7 123431099.361 7        43.700                    96180093.38047
        28.300    23488159.12547
  22202024.805 8 116672437.155 8        47.400                    90913607.33749
        36.300    22202028.47749
  23043213.945 8 121092917.948 8        47.000    23043221.773 8  94358144.26349
        35.300    23043221.02049  23043218.691 4  90426539.735 4        34.700
  21254547.484 9 111693409.037 9        49.700                    87033834.70149
        42.100    21254548.91849
  20168147.289 9 105984280.757 9        49.900                    82585227.18749
        44.900    20168150.13349
  23462736.852 7 123297567.328 7        44.600    23462743.594 7  96076075.03448
        31.900    23462742.64148  23462740.441 3  92072894.336 3        33.900
  23621783.289 7 124133358.301 7        42.000    23621789.258 7  96727333.30547
        29.900    23621789.20347  23621785.102 3  92697012.739 3        32.100
 17  4  9  0  2  0.0000000  0 10G01G32G08G28G14G03G22G11G27G10
  20915172.625 9 109909973.944 9        53.600    20915179.645 9  85644176.42149
        45.500    20915179.35949  20915175.578 6  82075663.741 6        40.800
  22171354.766 9 116511283.182 9        48.300    22171361.586 9  90788042.03149
        39.500    22171360.81349  22171357.332 5  87005196.503 5        37.200
  21084648.836 9 110800611.304 9        52.300    21084656.199 9  86338187.19049
        46.400    21084655.26249  21084652.281 6  82740754.798 6        40.900
  23486414.844 7 123421947.202 7        43.700                    96172961.81447
        28.000    23486417.83647
  22194207.383 9 116631356.799 9        48.900                    90881596.68549
        36.300    22194211.39549
  23025040.563 8 120997418.262 8        47.600    23025047.930 8  94283728.93849
        34.900    23025047.02749  23025045.223 4  90355225.057 4        34.700
  21243443.469 9 111635057.700 9        49.300                    86988366.13349
        42.200    21243444.86349
  20162560.031 9 105954921.247 9        49.500                    82562349.64849
        44.700    20162562.85949
  23483353.750 7 123405912.244 7        43.100    23483361.148 7  96160499.64048
        31.400    23483360.21948  23483357.551 3  92153801.245 3        33.300
  23640293.344 7 124230629.370 7        42.400    23640300.105 7  96803128.92947
        29.700    23640299.94147  23640295.840 3  92769650.220 3        33.000
 17  4  9  0  2 30.0000000  0 10G01G32G08G28G14G03G22G11G27G10
  20905449.406 9 109858877.437 9        53.400    20905456.238 9  85604360.96549
        45.800    20905456.05549  20905452.215 6  82037507.266 6        40.800
  22172614.828 9 116517903.863 9        48.100    22172621.332 9  90793201.02449
        39.700    22172620.54749  22172616.715 5  87010140.542 5        37.200
  21096743.258 9 110864168.181 9        52.300    21096750.918 9  86387712.01849
        46.500    21096749.84849  21096746.691 7  82788216.089 7        41.100
  23484773.180 7 123413320.779 7        43.600                    96166239.93447
        27.600    23484776.22347
  22186486.742 8 116590784.697 8        47.800                    90849982.08249
        36.300    22186490.71949
  23006912.453 8 120902152.444 8        47.000    23006919.156 7  94209495.85449
        34.600    23006918.47349  23006916.258 4  90284085.015 4        34.400
  21232409.000 9 111577069.667 9        49.300                    86943180.65949
        42.300    21232409.99649
  20157064.563 9 105926042.227 9        49.500                    82539846.51449
        44.500    20157067.67649
  23504004.750 7 123514432.425 7        44.000    23504011.891 7  96245060.81548
        31.900    23504011.31348  23504007.766 3  92234839.038 3        32.700
  23658826.719 7 124328021.029 7        42.200    23658832.395 7  96879018.54148
        30.000    23658832.04748  23658828.008 3  92842377.751 3        32.700
 17  4  9  0  3  0.0000000  0 10G01G32G08G28G14G03G22G11G27G10
  20895780.969 9 109808070.449 9        52.900    20895787.961 9  85564771.10949
        46.000    20895787.77349  20895783.813 7  81999566.988 7        41.100
  22173989.555 8 116525128.731 8        47.500    22173996.168 9  90798830.81049
        39.200    22173995.75849  22173991.863 5  87015535.752 5        37.300
  21108926.398 9 110928191.662 9        52.100    21108933.910 9  86437600.43249
        46.200    21108932.68849  21108929.883 7  82836025.812 7        41.100
  23483231.148 7 123405220.726 7        43.100                    96159928.19147
        28.200    23483234.77347
  22178863.000 8 116550722.314 8        47.900                    90818764.65049
        37.000    22178866.46549
  22988828.516 8 120807121.660 8        46.300    22988835.422 8  94135445.90349
        35.100    22988834.59449  22988832.438 4  90213120.492 4        34.300
  21221442.938 9 111519445.486 9        49.200                    86898278.71249
        42.700    21221444.38349
  20151660.742 9 105897644.820 9        49.300                    82517718.66449
        44.700    20151663.86349
  23524688.563 7 123623125.641 7        44.100    23524694.914 7  96329756.81248
        31.200    23524694.03948  23524691.844 3  92316006.050 3        33.700
  23677382.477 7 124425531.184 7        42.000    23677388.160 7  96955000.48847
        29.600    23677387.66847  23677383.980 3  92915193.774 3        32.600
 17  4  9  0  3 30.0000000  0 10G01G32G08G28G14G03G22G11G27G10
  20886168.125 9 109757553.745 9        53.200    20886175.016 9  85525407.45549
        45.800    20886174.68849  20886170.844 7  81961843.481 7        41.600
  22175479.422 8 116532957.486 8        47.800    22175486.203 9  90804931.14049
        39.200    22175485.60249  22175482.297 5  87021381.914 5        37.300
  21121198.203 9 110992679.927 9        52.200    21121205.625 9  86487851.01949
        46.200    21121204.34849  21121201.605 6  82884182.627 6        40.600
  23481791.039 7 123397646.715 7        43.800                    96154026.37347
        29.100    23481793.53947
  22171337.148 9 116511171.140 9        48.100                    90787945.57749
        36.600    22171340.42249
  22970789.727 8 120712327.118 8        47.200    22970797.148 8  94061580.04549
        35.100    22970796.70349  22970794.551 4  90142332.372 4        34.200
  21210546.961 9 111462185.179 9        49.500                    86853660.29549
        42.900    21210548.77349
  20146348.969 9 105869730.114 9        49.500                    82495966.94649
        44.700    20146351.67249
  23545404.945 7 123731989.620 7        44.100    23545411.313 7  96414585.90148
        32.200    23545411.15248  23545408.543 4  92397300.562 4        34.900
  23695959.773 7 124523157.918 7        41.800    23695965.969 7  97031073.27247
        29.600    23695965.86747  23695961.883 3  92988096.862 3        32.400
 17  4  9  0  4  0.0000000  0 10G01G32G08G28G14G03G22G11G27G10
  20876610.359 9 109707328.241 9        53.600    20876617.637 9  85486270.69149
        45.500    20876617.03949  20876613.137 7  81924337.422 7        41.000
  22177083.570 8 116541390.000 8        47.600    22177090.078 8  90811501.94949
        39.000    22177089.59449  22177086.406 5  87027678.933 5        36.900
  21133558.023 9 111057631.604 9        52.000    21133565.180 9  86538462.70649
        46.000    21133563.89849  21133560.977 6  82932685.496 6        40.800
  23480450.023 7 123390598.673 7        44.100                    96148534.38347
        28.100    23480452.80947
  22163907.930 8 116472132.899 8        47.800                    90757526.18649
        35.800    22163911.42649
  22952796.086 8 120617770.202 8        46.700    22952803.602 8  93987899.35349
        35.300    22952802.66049  22952800.328 4  90071721.718 4        34.400
  21199720.063 9 111405289.640 9        49.300                    86809326.11949
        42.200    21199721.33249
  20141129.164 9 105842299.192 9        49.600                    82474592.20149
        44.600    20141131.91449
  23566152.797 7 123841022.353 7        44.000    23566160.340 7  96499546.46048
        32.500    23566159.61348  23566156.125 4  92478721.104 4        34.000
  23714559.758 7 124620899.434 7        41.800    23714565.859 7  97107235.48748
        30.100    23714565.71948  23714561.676 3  93061085.646 3        32.800
 17  4  9  0  4 30.0000000  0 10G01G32G08G28G14G03G22G11G27G10
  20867108.367 9 109657394.988 9        53.400    20867115.797 9  85447361.66749
        45.600    20867115.15249  20867111.543 7  81887049.607 7        41.100
  22178803.531 8 116550426.114 8        47.600    22178809.914 8  90818543.09449
        39.400    22178808.81349  22178805.445 5  87034426.694 5        37.400
  21146005.906 9 111123045.167 9        51.900    21146013.332 9  86589434.30949
        45.700    21146012.20349  21146008.988 6  82981533.276 6        40.400
  23479208.086 7 123384076.702 7        42.800                    96143452.32347
        27.000    23479211.34847
  22156576.945 9 116433609.139 9        48.200                    90727507.70549
        35.800    22156580.64549
  22934847.898 8 120523452.249 8        47.200    22934855.199 7  93914404.85449
        35.000    22934854.49649  22934852.461 4  90001289.496 4        34.600
  21188962.867 9 111348760.112 9        49.500                    86765277.13749
        41.900    21188964.15649
  20136001.383 9 105815353.179 9        49.500                    82453595.31149
        44.500    20136004.09449
  23586932.508 7 123950221.846 7        43.700    23586939.293 7  96584636.97048
        30.300    23586939.16048  23586935.324 2  92560266.179 2        31.500
  23733180.836 7 124718753.971 7        41.100    23733186.316 7  97183485.76247
        26.900    23733186.51247  23733182.355 2  93134158.853 2        31.500
 17  4  9  0  5  0.0000000  0 10G01G32G08G28G14G03G22G11G27G10
  20857662.375 9 109607754.922 9        53.400    20857669.512 9  85408681.10749
        45.900    20857669.27749  20857665.145 7  81849980.735 7        41.000
  22180637.570 9 116560065.661 9        48.800    22180644.379 8  90826054.43849
        40.000    22180643.15249  22180639.375 5  87041625.076 5        37.000
  21158541.320 9 111188919.329 9        52.000    21158548.711 9  86640764.81649
        46.100    21158547.81349  21158544.539 6  83030725.018 6        40.400
  23478067.328 7 123378080.880 7        43.400                    96138780.24847
        28.500    23478069.88347
  22149344.852 8 116395601.378 8        47.600                    90697891.29249
        36.000    22149348.44149
  22916945.195 8 120429374.644 8        46.600    22916952.926 8  93841097.64949
        35.600    22916951.74649  22916949.590 5  89931036.763 5        35.200
  21178275.031 9 111292596.668 9        49.500                    86721513.42349
        42.400    21178276.40649
  20130966.258 9 105788894.170 9        49.800                    82432977.90749
        44.800    20130969.51249
  23607744.133 7 124059585.969 7        43.500    23607750.922 7  96669855.76648
        31.500    23607750.44148  23607747.309 3  92641934.210 3        32.800
  23751823.273 6 124816719.715 6        40.600    23751829.008 7  97259822.71547
        28.100    23751829.04747  23751824.652 2  93207315.094 2        31.700
 17  4  9  0  5 30.0000000  0 10G01G32G08G28G14G03G22G11G27G10
  20848272.109 9 109558409.000 9        53.200    20848278.766 9  85370229.73449
        46.200    20848278.63749  20848274.973 7  81813131.508 7        41.500
  22182586.828 9 116570308.436 9        48.000    22182593.109 8  90834035.83149
        39.500    22182592.52049  22182589.094 5  87049273.916 5        37.200
  21171164.141 9 111255252.568 9        52.200    21171171.789 9  86692453.04449
        46.000    21171170.55949  21171167.637 7  83080259.571 7        41.200
  23477026.633 7 123372610.942 7        44.500                    96134517.94947
        28.100    23477030.28947
  22142210.656 9 116358111.390 9        48.200                    90668678.35349
        36.300    22142214.55949
  22899089.289 8 120335538.718 8        46.400    22899096.184 8  93767978.75849
        35.500    22899095.66049  22899093.332 5  89860964.492 5        35.200
  21167657.828 9 111236799.928 9        50.000                    86678035.45149
        42.800    21167658.93849
  20126024.336 9 105762923.049 9        49.500                    82412740.66949
        45.100    20126026.89549
  23628586.297 7 124169112.765 7        43.900    23628593.188 7  96755201.33148
        30.900    23628592.71948  23628590.113 3  92723723.691 3        33.200
  23770486.055 7 124914794.970 7        41.200    23770492.332 7  97336244.97547
        26.500    23770492.49647  23770487.988 2  93280553.088 2        31.600
 17  4  9  0  6  0.0000000  0 10G01G32G08G28G14G03G22G11G27G10
  20838938.055 9 109509358.145 9        53.700    20838944.953 9  85332008.29749
        46.100    20838944.72749  20838940.766 7  81776502.626 7        41.300
  22184650.625 9 116581154.040 9        48.600    22184657.156 9  90842486.95849
        39.600    22184656.10949  22184652.801 5  87057372.909 5        36.600
  21183873.883 9 111322043.259 9        51.800    21183881.180 9  86744497.72749
        45.800    21183879.95749  21183877.215 6  83130135.719 6        40.700
  23476085.813 7 123367666.814 7        43.600                    96130665.37847
        28.700    23476089.51247
  22135175.055 9 116321140.438 9        48.200                    90639869.84249
        36.300    22135179.00849
  22881279.109 8 120241945.701 8        46.900    22881286.633 8  93695049.14349
        36.300    22881285.53149  22881283.258 5  89791073.621 5        35.000
  21157109.656 9 111181370.364 9        49.700                    86634843.59449
        43.000    21157110.98849
  20121175.000 9 105737440.907 9        49.300                    82392884.45149
        45.000    20121178.55949
  23649459.063 7 124278799.993 7        43.900    23649466.098 8  96840671.88548
        31.600    23649466.06348  23649462.398 3  92805632.983 3        33.100
  23789169.820 6 125012977.828 6        40.600    23789175.977 7  97412751.11147
        26.200    23789176.06647  23789172.023 2  93353871.448 2        31.600
 17  4  9  0  6 30.0000000  0 10G01G32G08G28G14G03G22G11G27G10
  20829660.219 9 109460603.129 9        53.800    20829667.336 9  85294017.38649
        46.200    20829667.00449  20829662.871 7  81740094.671 7        41.600
  22186829.398 9 116592602.185 9        48.700    22186835.625 9  90851407.61749
        39.600    22186834.59049  22186831.168 5  87065921.874 5        37.800
  21196670.594 9 111389289.975 9        51.900    21196677.965 9  86796897.75449
        45.900    21196676.77049  21196673.734 6  83180352.412 6        40.700
  23475245.070 7 123363248.345 7        42.700                    96127222.42147
        29.400    23475248.01647
  22128238.906 8 116284690.271 8        47.600                    90611467.14349
        36.300    22128242.46149
  22863515.188 8 120148596.903 8        46.700    22863522.563 8  93622309.83749
        36.200    22863522.03549  22863519.707 4  89721365.120 4        34.700
  21146631.656 9 111126308.641 9        49.600                    86591938.35849
        42.900    21146632.75849
  20116419.273 9 105712448.876 9        49.400                    82373410.14549
        45.400    20116422.57049
  23670361.609 7 124388645.599 7        42.600    23670368.621 7  96926265.85848
        31.300    23670368.45348  23670365.316 3  92887660.547 3        33.000
  23807873.211 6 125111266.469 6        40.200    23807879.063 7  97489339.64447
        26.200    23807879.39547  23807875.531 2  93427268.786 2        31.900
 17  4  9  0  7  0.0000000  0 10G01G32G08G28G14G03G22G11G27G10
  20820438.945 9 109412145.021 9        53.700    20820445.656 9  85256257.82549
        46.100    20820445.48449  20820441.586 7  81703908.427 7        41.700
  22189122.445 9 116604652.599 9        48.500    22189128.820 8  90860797.58049
        39.700    22189127.95749  22189124.535 5  87074920.596 5        37.400
  21209553.766 9 111456991.013 9        52.000    21209560.945 9  86849651.80449
        46.400    21209560.07449  21209556.449 6  83230908.371 6        40.200
  23474504.477 7 123359355.575 7        43.600                    96124189.07447
        29.300    23474506.91447
  22121402.148 8 116248762.293 8        47.000                    90583471.33649
        36.400    22121405.73449
  22845798.211 8 120055493.614 8        46.300    22845805.660 8  93549761.83249
        36.300    22845804.87149  22845803.008 4  89651839.958 4        34.000
  21136224.227 9 111071615.403 9        49.900                    86549320.25549
        43.100    21136225.31649
  20111756.969 9 105687948.310 9        49.600                    82354318.80349
        45.300    20111760.19149
  23691294.492 7 124498647.472 7        43.600    23691301.809 7  97011981.60848
        31.200    23691300.84448  23691298.645 3  92969804.795 3        33.700
  23826596.422 6 125209659.269 6        40.200    23826602.699 7  97566009.34447
        26.400    23826602.92247  23826599.172 1  93500743.928 1        30.500
 17  4  9  0  7 30.0000000  0 10G01G32G08G28G14G03G22G11G27G10
  20811274.406 9 109363984.613 9        52.300    20811281.508 9  85218730.24049
        46.200    20811281.12949  20811277.402 7  81667944.489 7        41.600
  22191529.984 9 116617304.830 9        48.700    22191536.867 8  90870656.47049
        39.400    22191535.93049  22191532.621 5  87084368.705 5        37.100
  21222523.016 9 111525144.709 9        51.800    21222530.559 9  86902758.56049
        45.700    21222529.60249  21222526.332 6  83281802.350 6        40.900
  23473863.492 7 123355988.289 7        42.000                    96121565.21047
        28.200    23473866.49247
  22114664.430 8 116213357.698 8        46.500                    90555883.34549
        35.900    22114668.48049
  22828128.703 8 119962637.017 8        47.000    22828135.266 8  93477406.05349
        36.600    22828134.50449  22828132.699 5  89582499.003 5        35.900
  21125886.586 9 111017290.787 9        50.300                    86506989.39649
        43.300    21125887.75049
  20107188.328 9 105663940.205 9        49.500                    82335611.18349
        45.500    20107191.28949
  23712256.477 7 124608803.464 7        44.300    23712264.008 8  97097817.43448
        31.700    23712263.35248  23712260.332 4  93052064.126 4        34.000
  23845339.445 6 125308154.217 6        40.800    23845345.789 7  97642758.64547
        27.400    23845345.78947  23845341.574 1  93574295.360 1        30.500
 17  4  9  0  8  0.0000000  0 10G01G32G08G28G14G03G22G11G27G10
  20802166.414 9 109316122.781 9        52.600    20802173.535 9  85181435.30049
        46.400    20802173.28149  20802169.203 7  81632203.516 7        41.600
  22194051.750 8 116630558.439 8        47.700    22194058.770 9  90880983.96849
        39.900    22194057.74649  22194054.559 5  87094265.881 5        37.600
  21235577.938 9 111593749.248 9        51.800    21235585.156 9  86956216.63249
        45.900    21235584.34449  21235581.363 6  83333032.997 6        40.200
  23473322.727 7 123353146.161 7        43.400                    96119350.58547
        28.800    23473324.93047
  22108027.398 8 116178478.273 8        46.100                    90528704.59149
        36.000    22108030.58649
  22810505.250 8 119870028.432 8        46.000    22810512.465 8  93405243.52949
        35.600    22810511.91049  22810509.520 4  89513343.249 4        34.400
  21115619.016 9 110963335.372 9        50.600                    86464946.22849
        43.200    21115620.20349
  20102713.656 9 105640425.684 9        49.300                    82317288.18449
        45.400    20102716.85949
  23733247.648 7 124719111.382 7        44.100    23733254.375 7  97183771.64948
        30.600    23733254.00048  23733250.453 3  93134436.925 3        32.900
  23864102.352 6 125406749.565 6        40.300    23864108.152 6  97719586.18547
        25.200    23864107.87547  23864104.363 2  93647921.737 2        31.500
 17  4  9  0  8 30.0000000  0 10G01G32G08G28G14G03G22G11G27G10
  20793115.711 9 109268560.693 9        52.600    20793122.609 9  85144373.93649
        46.600    20793122.48049  20793118.289 7  81596686.368 7        41.600
  22196688.734 9 116644413.205 9        48.100    22196695.355 9  90891779.90549
        39.500    22196694.53549  22196690.879 5  87104611.992 5        37.100
  21248718.578 9 111662803.690 9        51.600    21248725.816 9  87010025.27749
        45.400    21248724.82449  21248722.137 6  83384599.615 6        40.700
  23472881.320 7 123350828.924 7        43.100                    96117544.93647
        27.400    23472884.31347
  22101489.898 8 116144125.124 8        47.500                    90501935.92749
        36.500    22101493.38349
  22792930.008 8 119777669.231 8        47.400    22792937.285 8  93333275.33649
        35.800    22792936.52749  22792934.313 4  89444373.733 4        34.900
  21105422.156 9 110909750.207 9        50.000                    86423191.56149
        43.000    21105423.40649
  20098333.258 9 105617406.226 9        50.000                    82299350.94649
        45.100    20098336.18449
  23754266.203 7 124829569.384 7        43.900    23754273.891 7  97269842.82348
        30.600    23754273.02748  23754270.301 3  93216921.790 3        32.700
  23882882.539 6 125505443.749 6        40.800    23882888.246 6  97796490.72946
        24.000    23882888.75446  23882884.832 1  93721621.915 1        30.900
 17  4  9  0  9  0.0000000  0 10G01G32G08G28G14G03G22G11G27G10
  20784122.414 9 109221299.134 9        52.400    20784128.910 9  85107546.75149
        46.400    20784128.60549  20784124.703 7  81561393.655 7        42.100
  22199439.031 8 116658868.658 8        47.700    22199445.770 9  90903043.90349
        39.200    22199445.40249  22199441.688 5  87115406.660 5        37.700
  21261944.516 9 111732305.807 9        51.400    21261951.629 9  87064182.76449
        45.100    21261950.66049  21261947.738 6  83436500.533 6        40.600
  23472540.734 7 123349036.588 7        42.400                    96116148.28347
        27.300    23472543.62547
  22095053.578 8 116110299.983 8        47.400                    90475578.70849
        36.200    22095057.03549
  22775402.813 8 119685560.621 8        47.200    22775409.559 8  93261502.40449
        36.900    22775408.96949  22775406.813 5  89375591.350 5        35.300
  21095295.617 9 110856535.575 9        49.700                    86381725.61949
        43.300    21095297.27049
  20094047.258 9 105594882.972 9        49.600                    82281800.35849
        44.900    20094050.23849
  23775314.313 7 124940175.176 7        44.300    23775321.238 7  97356029.16148
        31.800    23775320.04348  23775317.379 3  93299517.024 3        33.000
  23901681.984 6 125604234.891 6        40.800    23901687.313 6  97873470.87247
        25.400    23901687.50847  23901683.293 1  93795394.536 1        29.400
 17  4  9  0  9 30.0000000  0 10G01G32G08G28G14G03G22G11G27G10
  20775186.016 9 109174338.857 9        52.800    20775192.949 9  85070954.32549
        46.700    20775192.50849  20775188.785 7  81526325.907 7        41.300
  22202304.008 9 116673924.060 9        48.100    22202311.301 9  90914775.39149
        39.600    22202310.52349  22202306.809 5  87126649.342 5        37.400
  21275255.117 9 111802254.187 9        51.300    21275262.223 9  87118687.98349
        45.200    21275261.09849  21275257.883 6  83488734.709 6        40.100
  23472299.320 7 123347768.896 7        42.400                    96115160.48147
        28.600    23472302.71147
  22088717.133 9 116077003.970 9        48.400                    90449633.77249
        36.500    22088721.00849
  22757922.492 8 119593703.646 8        46.500    22757929.816 8  93189925.55549
        36.800    22757928.94149  22757926.902 5  89306996.873 5        35.500
  21085239.617 9 110803691.271 9        49.800                    86340548.24449
        43.000    21085241.03149
  20089855.578 9 105572856.300 9        49.100                    82264636.71249
        44.700    20089858.40249
  23796389.531 7 125050926.519 7        44.100    23796396.570 7  97442328.89148
        30.900    23796396.07848  23796392.766 3  93382220.941 3        33.200
  23920499.703 6 125703121.040 6        38.500    23920505.727 6  97950525.02946
        22.600    23920505.30946  23920500.859 1  93869238.107 1        30.200
 17  4  9  0 10  0.0000000  0 10G01G32G08G28G14G03G22G11G27G10
  20766307.133 9 109127681.080 9        52.400    20766313.926 9  85034597.61149
        46.400    20766313.59849  20766309.641 7  81491484.065 7        41.800
  22205283.148 8 116689579.275 8        47.500    22205289.703 9  90926974.27649
        39.300    22205289.25449  22205285.832 5  87138339.935 5        37.500
  21288650.617 9 111872647.334 9        51.700    21288658.090 9  87173539.77049
        45.300    21288656.85549  21288653.523 6  83541301.008 6        40.600
  23472157.438 7 123347025.565 7        41.900                    96114581.26447
        27.600    23472160.94547
  22082482.477 8 116044238.675 8        47.900                    90424102.39949
        36.600    22082485.95349
  22740491.039 8 119502099.894 8        47.900    22740498.340 8  93118546.01849
        36.500    22740497.62549  22740495.414 5  89238591.493 5        35.200
  21075254.570 9 110751218.606 9        50.000                    86299660.46449
        43.400    21075255.41049
  20085758.906 9 105551328.325 9        49.100                    82247861.65849
        44.600    20085761.40649
  23817492.422 7 125161821.561 7        44.500    23817499.398 7  97528740.61448
        30.800    23817498.90248  23817495.414 3  93465032.181 3        32.900
  23939334.625 6 125802100.871 6        38.800    23939341.074 6  98027652.11946
        24.300    23939341.13746  23939336.629 1  93943151.577 1        30.200
 17  4  9  0 10 30.0000000  0 10G01G32G08G28G14G03G22G11G27G10
  20757485.961 9 109081326.601 9        52.500    20757493.059 9  84998477.24849
        46.400    20757493.01249  20757488.879 7  81456868.714 7        41.200
  22208376.563 9 116705833.685 9        49.100    22208383.520 9  90939640.05849
        39.800    22208382.79749  22208379.371 5  87150477.983 5        37.400
  21302130.172 9 111943483.596 9        51.600    21302137.371 9  87228736.85049
        45.200    21302136.34849  21302133.133 6  83594198.207 6        40.300
  23472115.695 7 123346806.354 7        41.900                    96114410.43847
        26.900    23472118.89147
  22076348.438 8 116012005.252 8        47.900                    90398985.46649
        37.100    22076352.04349
  22723107.898 8 119410750.438 8        47.800    22723114.820 8  93047364.63749
        37.000    22723113.94149  22723112.195 5  89170376.008 5        35.000
  21065340.133 9 110699117.556 9        50.000                    86259062.25349
        43.800    21065341.39549
  20081757.469 9 105530299.853 9        48.900                    82231475.83349
        45.300    20081760.26249
  23838621.820 7 125272858.068 7        43.800    23838628.543 7  97615262.57347
        29.700    23838627.88347  23838625.453 2  93547949.060 2        31.900
  23958187.797 6 125901172.441 6        38.900    23958193.121 6  98104850.71846
        22.900    23958193.30146  23958189.438 1  94017133.569 1        29.700
 17  4  9  0 11  0.0000000  0 10G01G32G08G28G14G03G22G11G27G10
  20748723.109 9 109035276.353 9        52.500    20748730.246 9  84962593.94449
        46.600    20748730.20349  20748726.129 7  81422480.542 7        41.700
  22211583.391 8 116722686.792 8        47.900    22211589.863 9  90952772.36149
        40.000    22211589.13749  22211585.711 5  87163063.104 5        37.400
  21315693.945 9 112014760.910 9        51.400    21315700.934 9  87284277.60549
        45.300    21315699.81349  21315696.891 6  83647424.755 6        39.900
  23472174.148 7 123347110.949 7        43.600                    96114647.80347
        27.200    23472177.04747
  22070316.109 9 115980305.251 9        49.100                    90374284.18649
        36.800    22070319.89149
  22705772.906 8 119319656.536 8        47.200    22705780.102 8  92976382.38549
        36.800    22705779.20749  22705777.109 5  89102351.349 5        35.000
  21055496.477 9 110647389.006 9        50.000                    86218754.30049
        43.700    21055497.23449
  20077850.828 9 105509772.104 9        49.500                    82215480.18349
        45.300    20077853.93849
  23859777.828 7 125384033.924 7        43.500    23859785.465 7  97701893.09448
        30.400    23859785.01248  23859782.637 3  93630969.973 3        33.400
  23977057.680 6 126000334.012 6        38.700    23977062.934 6  98182119.50646
        22.300    23977062.69946  23977057.602 1  94091182.808 1        28.300
 17  4  9  0 11 30.0000000  0 10G01G32G08G28G14G03G22G11G27G10
  20740018.273 9 108989531.321 9        52.500    20740025.055 9  84926948.46649
        46.700    20740024.71149  20740020.633 7  81388320.302 7        41.600
  22214904.273 8 116740138.032 8        47.900    22214910.855 9  90966370.73449
        39.400    22214909.85249  22214906.547 5  87176094.880 5        37.500
  21329341.023 9 112086478.081 9        51.500    21329348.316 9  87340161.09849
        45.100    21329347.27749  21329344.242 6  83700979.766 6        40.300
  23472332.195 7 123347938.973 7        43.700                    96115292.99147
        28.600    23472335.11347
  22064385.422 8 115949139.728 8        47.300                    90349999.38149
        36.700    22064389.25049
  22688487.773 8 119228819.510 8        47.800    22688494.922 8  92905600.30249
        36.900    22688494.02049  22688492.039 5  89034518.520 5        35.600
  21045723.797 9 110596033.248 9        50.400                    86178736.84049
        43.300    21045724.93849
  20074040.141 9 105489746.090 9        49.300                    82199875.50149
        44.900    20074043.40249
  23880959.852 7 125495347.109 7        43.200    23880967.160 7  97788630.62448
        30.400    23880967.06648  23880964.520 3  93714093.425 3        33.500
  23995943.406 6 126099583.901 6        38.800    23995950.871 6  98259457.06646
        22.500    23995950.04346  23995945.121 1  94165297.998 1        30.100
 17  4  9  0 12  0.0000000  0 10G01G32G08G28G14G03G22G11G27G10
  20731371.219 9 108944092.304 9        52.500    20731378.535 9  84891541.43149
        46.700    20731378.41849  20731374.637 7  81354388.556 7        41.800
  22218338.852 8 116758186.774 8        47.800    22218345.094 8  90980434.69649
        39.500    22218344.39849  22218340.621 5  87189572.848 5        37.300
  21343071.773 9 112158633.110 9        51.400    21343078.945 9  87396385.78549
        44.800    21343077.96149  21343074.805 6  83754861.758 6        40.300
  23472588.164 7 123349289.987 7        43.000                    96116345.72447
        28.500    23472591.41847
  22058557.102 8 115918509.924 8        47.900                    90326132.00349
        37.200    22058560.74649
  22671251.102 9 119138240.462 9        48.700    22671257.918 8  92835019.24149
        37.600    22671257.08649  22671254.758 5  88966878.348 5        35.400
  21036021.828 9 110545050.702 9        50.600                    86139010.19349
        43.400    21036023.07049
  20070325.305 9 105470222.516 9        49.000                    82184662.32549
        44.600    20070327.79349
  23902168.359 7 125606795.375 7        43.200    23902175.102 7  97875473.42448
        30.000    23902174.56348  23902171.543 3  93797317.771 3        32.700
  24014847.188 6 126198920.465 6        38.800    24014853.008 6  98336862.16246
        22.300    24014852.87546  24014848.250 1  94239477.874 1        30.200
 17  4  9  0 12 30.0000000  0 10G01G32G08G28G14G03G22G11G27G10
  20722783.156 9 108898960.247 9        52.400    20722790.254 9  84856373.59649
        46.800    20722789.91049  20722786.012 7  81320686.054 7        41.700
  22221887.133 9 116776832.365 9        48.800    22221893.445 8  90994963.73849
        39.200    22221892.74249  22221889.145 5  87203496.523 5        37.300
  21356885.836 9 112231224.239 9        51.500    21356893.012 9  87452950.29149
        44.900    21356892.00049  21356888.727 6  83809069.405 6        40.500
  23472944.805 7 123351163.704 7        41.700                    96117805.76947
        27.000    23472948.48047
  22052830.336 8 115888417.255 8        47.800                    90302683.19349
        36.700    22052833.95749
  22654063.477 9 119047920.589 9        48.200    22654070.672 8  92764640.13249
        37.700    22654069.98849  22654067.836 5  88899431.704 5        35.400
  21026391.430 9 110494441.555 9        50.200                    86099574.49349
        43.700    21026392.81349
  20066705.914 9 105451202.851 9        48.900                    82169841.80949
        45.300    20066708.77049
  23923402.086 7 125718376.511 7        43.400    23923408.676 7  97962419.77547
        29.800    23923408.02747  23923404.832 2  93880641.376 2        31.700
  24033766.102 5 126298341.749 5        37.300    24033772.027 6  98414333.28446
        21.800    24033772.05546  24033767.367 1  94313721.036 1        30.500
 17  4  9  0 13  0.0000000  0 10G01G32G08G28G14G03G22G11G27G10
  20714253.359 9 108854136.202 9        53.200    20714260.449 9  84821445.77049
        47.200    20714260.19149  20714256.293 7  81287213.554 7        41.800
  22225548.367 9 116796074.284 9        49.500    22225554.930 9  91009957.45449
        38.700    22225554.18849  22225550.824 5  87217865.493 5        37.000
  21370781.852 9 112304249.840 9        51.500    21370789.344 9  87509853.34749
        44.900    21370788.21149  21370785.055 6  83863601.506 6        40.000
  23473401.375 7 123353559.800 7        42.600                    96119672.84047
        28.100    23473404.37147
  22047206.555 8 115858862.892 8        47.500                    90279653.83349
        36.900    22047209.99249
  22636925.828 8 118957861.176 8        47.900    22636932.797 8  92694463.97949
        36.900    22636932.01249  22636929.801 5  88832179.558 5        35.700
  21016832.094 9 110444206.534 9        50.200                    86060430.32849
        43.800    21016833.41449
  20063182.391 9 105432688.170 9        49.000                    82155414.78349
        44.700    20063185.16449
  23944659.750 7 125830088.606 7        43.400    23944666.539 7  98049468.15548
        30.200    23944666.10948  23944662.918 3  93964062.729 3        33.100
  24052701.016 5 126397846.390 5        37.000    24052707.129 6  98491869.36846
        22.000    24052706.34446  24052702.598 1  94388026.395 1        30.200
 17  4  9  0 13 30.0000000  0 10G01G32G08G28G14G03G22G11G27G10
  20705782.211 9 108809620.787 9        52.800    20705789.566 9  84786758.43749
        47.000    20705789.19949  20705785.180 7  81253971.523 7        41.800
  22229323.586 9 116815911.652 9        49.900    22229329.746 8  91025415.16049
        39.200    22229328.99249  22229325.570 5  87232679.123 5        37.800
  21384760.648 9 112377708.138 9        51.100    21384767.898 9  87567093.56649
        44.800    21384766.89149  21384763.969 6  83918456.709 6        40.100
  23473956.328 7 123356477.570 7        42.600                    96121946.39947
        28.300    23473959.56647
  22041684.969 8 115829847.838 8        47.900                    90257044.72249
        36.900    22041688.53549
  22619837.711 9 118868063.255 9        48.100    22619844.738 8  92624491.58549
        37.100    22619843.86749  22619842.008 5  88765122.677 5        36.200
  21007343.984 9 110394345.867 9        50.700                    86021577.87349
        44.000    21007344.88349
  20059755.711 9 105414679.087 9        49.100                    82141381.72349
        44.900    20059758.27049
  23965941.594 7 125941929.169 7        41.500    23965948.863 7  98136616.64447
        29.700    23965948.43847  23965945.305 3  94047580.031 3        32.100
  24071652.242 6 126497432.305 6        38.900    24071658.422 6  98569468.76446
        24.700    24071658.02046  24071652.863 1  94462392.484 1        30.400
 17  4  9  0 14  0.0000000  0 10G01G32G08G28G14G03G22G11G27G10
  20697370.328 9 108765415.658 9        52.800    20697377.469 9  84752312.87949
        47.100    20697377.19149  20697373.059 7  81220961.196 7        42.000
  22233211.453 9 116836344.461 9        49.800    22233218.445 9  91041336.83949
        39.900    22233217.33249  22233213.793 5  87247937.402 5        36.900
  21398821.234 9 112451597.772 9        51.300    21398828.527 9  87624669.89849
        44.600    21398827.51649  21398824.594 6  83973634.024 6        39.900
  23474610.789 7 123359917.267 7        42.800                    96124626.66947
        28.400    23474614.37147
  22036266.625 8 115801373.950 8        47.600                    90234857.30049
        36.700    22036269.84849
  22602799.773 9 118778528.661 9        48.200    22602807.223 8  92554724.38349
        38.200    22602806.27049  22602804.582 5  88698262.444 5        36.200
  20997927.070 9 110344860.558 9        50.500                    85983017.89949
        43.600    20997928.33249
  20056425.258 9 105397177.452 9        48.900                    82127744.08149
        45.000    20056428.20749
  23987248.484 7 126053896.814 7        42.300    23987255.430 7  98223864.15947
        29.800    23987254.47347  23987252.039 3  94131192.237 3        32.100
  24090617.211 6 126597098.449 6        38.200    24090624.238 7  98647130.68346
        24.700    24090624.04746  24090618.660 1  94536818.515 1        28.800
 17  4  9  0 14 30.0000000  0 10G01G32G08G28G14G03G22G11G27G10
  20689017.289 9 108721521.025 9        54.100    20689024.258 9  84718109.27949
        47.300    20689023.93849  20689019.980 7  81188182.748 7        42.100
  22237212.836 9 116857371.339 9        48.700    22237219.348 8  91057721.42249
        38.900    22237218.73049  22237214.898 5  87263639.301 5        37.200
  21412963.719 9 112525916.488 9        51.300    21412970.996 9  87682580.58349
        44.500    21412969.77749  21412966.621 6  84029131.769 6        40.400
  23475364.242 7 123363877.652 7        42.400                    96127712.67847
        28.500    23475367.45347
  22030951.148 8 115773441.697 8        47.200                    90213091.92049
        36.800    22030955.00849
  22585811.750 8 118689257.916 8        47.600    22585819.012 8  92485162.77349
        38.100    22585818.41049  22585816.781 5  88631599.241 5        36.000
  20988581.789 9 110295750.206 9        50.100                    85944750.09549
        43.900    20988583.15649
  20053191.492 9 105380183.781 9        49.000                    82114502.26449
        44.700    20053194.39149
  24008579.273 7 126165988.740 7        43.600    24008586.133 7  98311208.50848
        30.000    24008585.25048  24008582.172 2  94214897.245 2        31.800
  24109598.219 5 126696842.606 5        37.900    24109604.168 6  98724853.36246
        23.300    24109603.97346  24109599.699 1  94611302.763 1        30.000
 17  4  9  0 15  0.0000000  0 11G01G32G08G28G14G17G03G22G11G27G10
  20680723.891 9 108677938.017 9        53.000    20680730.719 9  84684148.49949
        47.200    20680730.56349  20680726.723 7  81155636.996 7        41.800
  22241327.148 9 116878991.703 9        49.600    22241333.859 8  91074568.47749
        39.300    22241332.92649  22241329.094 5  87279784.396 5        37.100
  21427187.422 9 112600662.215 9        51.400    21427194.727 9  87740824.00049
        44.300    21427193.71149  21427190.438 6  84084948.369 6        40.200
  23476216.953 7 123368358.597 7        42.600                    96131204.33847
        27.500    23476219.83647
  22025739.555 8 115746052.488 8        46.900                    90191749.69449
        37.200    22025743.15249
  25582963.625 5 134439373.84215        37.100    25582967.117 5 104757974.24855
        19.000    25582966.82045
  22568874.836 9 118600252.361 9        48.000    22568882.230 8  92415807.81949
        37.900    22568881.31349  22568879.918 5  88565134.080 5        36.400
  20979307.773 9 110247015.385 9        50.200                    85906774.91849
        44.000    20979309.24249
  20050054.516 9 105363699.012 9        48.900                    82101656.98149
        44.900    20050057.33249
  24029932.313 7 126278202.969 7        42.600    24029940.234 7  98398648.16748
        30.300    24029939.27048  24029937.188 3  94298693.570 3        33.700
  24128593.844 6 126796663.210 6        38.600    24128599.688 6  98802635.63946
        22.600    24128599.61346  24128594.809 1  94685844.110 1        28.600
 17  4  9  0 15 30.0000000  0 11G01G32G08G28G14G17G03G22G11G27G10
  20672489.789 9 108634667.663 9        52.700    20672496.711 9  84650431.34249
        47.000    20672496.44949  20672492.664 7  81123324.723 7        42.000
  22245554.313 9 116901204.925 9        48.800    22245560.801 8  91091877.49249
        39.400    22245559.86349  22245556.617 5  87296372.206 5        37.700
  21441492.008 9 112675833.801 9        51.900    21441499.469 9  87799399.24149
        44.400    21441498.25849  21441495.219 6  84141082.973 6        40.000
  23477169.344 7 123373359.614 7        43.300                    96135101.19147
        27.700    23477172.14147
  22020631.000 8 115719207.478 8        47.900                    90170831.52249
        37.400    22020634.25049
  25563102.758 6 134335002.479 6        39.900    25563106.801 5 104676645.94546
        22.200    25563106.49246
  22551988.336 8 118511513.325 8        47.800    22551995.332 8  92346660.52549
        37.100    22551994.36349  22551992.973 5  88498867.938 5        36.400
  20970105.242 9 110198656.578 9        50.800                    85869092.73849
        43.900    20970106.41049
  20047014.375 9 105347724.269 9        48.800                    82089209.11449
        45.000    20047017.31649
  24051309.359 7 126390537.476 7        42.900    24051316.875 7  98486181.54147
        29.800    24051316.04747  24051312.969 3  94382579.708 3        32.700
  24147603.320 6 126896558.711 6        39.400    24147609.148 6  98880476.30446
        23.300    24147608.78546  24147604.570 1  94760441.420 1        28.900
 17  4  9  0 16  0.0000000  0 11G01G32G08G28G14G17G03G22G11G27G10
  20664315.563 9 108591710.891 9        53.200    20664322.473 9  84616958.53049
        47.100    20664322.27749  20664318.438 7  81091246.612 7        42.700
  22249893.984 9 116924010.265 9        49.300    22249900.289 8  91109647.88949
        39.000    22249899.46949  22249896.160 5  87313402.175 5        37.000
  21455877.352 9 112751429.258 9        51.300    21455885.000 9  87858304.78249
        44.600    21455883.98449  21455880.770 6  84197534.120 6        40.200
  23478219.984 7 123378880.192 7        43.600                    96139402.95647
        27.600    23478222.58247
  22015626.195 8 115692907.755 8        46.900                    90150338.24749
        36.800    22015629.79349
  25543253.469 6 134230691.970 6        39.500    25543257.355 5 104595365.00546
        22.600    25543256.90246
  22535153.117 8 118423041.975 8        47.900    22535160.395 8  92277721.82649
        38.100    22535159.64149  22535157.840 5  88432801.686 5        36.500
  20960974.555 9 110150674.340 9        51.400                    85831703.98749
        43.900    20960975.93849
  20044071.953 9 105332260.580 9        49.100                    82077159.48449
        44.600    20044074.98049
  24072707.750 7 126502990.141 7        42.700    24072715.012 7  98573806.99447
        28.800    24072714.32047  24072711.535 2  94466554.105 2        31.800
  24166626.430 6 126996527.491 6        38.600    24166633.129 6  98958374.05746
        23.400    24166633.13346  24166628.973 1  94835093.412 1        29.900
 17  4  9  0 16 30.0000000  0 11G01G32G08G28G14G17G03G22G11G27G10
  20656201.008 9 108549068.559 9        53.000    20656207.906 9  84583730.74549
        47.300    20656207.68049  20656204.129 7  81059403.319 7        42.300
  22254346.117 9 116947406.785 9        49.700    22254352.734 9  91127878.95949
        39.400    22254351.72749  22254348.480 5  87330873.604 5        37.900
  21470342.852 9 112827446.584 9        50.900    21470350.480 9  87917539.05049
        44.300    21470349.55549  21470346.574 6  84254300.297 6        40.100
  23479368.617 7 123384919.572 7        42.900                    96144108.94047
        27.400    23479372.11747
  22010725.289 8 115667154.652 8        47.300                    90130270.90749
        36.900    22010729.07049
  25523415.414 5 134126444.609 5        37.900    25523419.758 6 104514133.32246
        22.200    25523419.43046
  22518368.156 9 118334839.360 9        48.300    22518375.789 8  92208992.52649
        38.100    22518374.81649  22518373.250 5  88366936.107 5        37.300
  20951915.766 9 110103068.761 9        51.500                    85794608.74649
        44.100    20951917.00049
  20041226.484 9 105317308.865 9        48.600                    82065508.80349
        44.800    20041229.39549
  24094129.633 7 126615558.688 7        42.800    24094137.113 7  98661522.74847
        29.900    24094136.11747  24094133.395 2  94550615.033 2        31.700
  24185663.898 6 127096567.793 6        40.000    24185669.914 6  99036327.52146
        24.600    24185670.38746  24185665.879 1  94909798.800 1        30.400
 17  4  9  0 17  0.0000000  0 11G01G32G08G28G14G17G03G22G11G27G10
  20648146.461 9 108506741.534 9        52.900    20648153.625 9  84550748.63449
        47.400    20648153.01249  20648149.406 7  81027795.468 7        41.900
  22258910.672 9 116971393.723 9        49.000    22258917.289 8  91146570.08549
        38.600    22258916.48849  22258912.945 5  87348785.938 5        37.500
  21484888.352 9 112903884.018 9        50.800    21484895.875 9  87977100.67349
        44.100    21484894.98849  21484891.773 6  84311380.179 6        39.600
  23480617.117 7 123391477.451 7        44.300                    96149218.96447
        27.200    23480619.62547
  22005928.938 9 115641949.122 9        48.100                    90110630.24749
        37.300    22005932.71549
  25503591.094 7 134022262.36917        41.300    25503594.164 5 104432952.36456
        22.600    25503593.96946
  22501634.898 8 118246906.640 8        47.800    22501642.793 8  92140473.53649
        37.800    22501641.55949  22501639.992 5  88301272.083 5        36.300
  20942928.203 9 110055840.069 9        50.400                    85757807.17449
        44.100    20942929.64849
  20038478.805 9 105302870.154 9        48.600                    82054257.85849
        44.600    20038482.03949
  24115571.773 7 126728240.995 7        41.500    24115579.504 7  98749327.12248
        30.500    24115578.96948  24115575.598 3  94634760.900 3        32.700
  24204713.578 6 127196677.994 6        40.000    24204719.992 6  99114335.47346
        24.800    24204719.99246  24204715.480 1  94984556.405 1        28.500
 17  4  9  0 17 30.0000000  0 11G01G32G08G28G14G17G03G22G11G27G10
  20640151.680 9 108464730.647 9        53.400    20640159.055 9  84518012.88549
        47.400    20640158.57449  20640154.676 7  80996423.710 7        41.800
  22263587.180 9 116995970.057 9        49.100    22263593.684 9  91165720.48049
        38.900    22263593.31649  22263589.602 5  87367138.403 5        37.300
  21499513.625 9 112980739.607 9        51.300    21499521.109 9  88036988.13149
        44.500    21499519.85549  21499516.758 6  84368772.324 6        39.200
  23481963.477 7 123398553.215 7        44.100                    96154732.53947
        28.400    23481966.41447
  22001236.570 9 115617291.632 9        48.600                    90091416.60949
        37.500    22001240.53149
  25483778.625 6 133918146.993 6        40.100    25483782.184 6 104351823.62446
        23.000    25483782.28546
  22484954.141 8 118159244.878 8        47.900    22484961.207 8  92072165.68549
        37.800    22484960.16049  22484958.477 5  88235810.398 5        36.200
  20934013.023 9 110008988.669 9        50.400                    85721299.59049
        44.300    20934014.23849
  20035829.406 9 105288945.332 9        48.900                    82043407.35549
        44.900    20035831.90649
  24137036.117 7 126841034.815 7        43.200    24137042.914 7  98837218.40547
        29.100    24137042.53947  24137039.637 2  94718990.048 2        31.200
  24223776.961 6 127296856.325 6        38.900    24223783.148 6  99192396.50246
        22.300    24223782.77346  24223779.027 1  95059364.906 1        27.700
 17  4  9  0 18  0.0000000  0 11G01G32G08G28G14G17G03G22G11G27G10
  20632217.969 9 108423037.232 9        53.900    20632224.828 9  84485524.51149
        47.800    20632224.93449  20632220.625 7  80965289.015 7        41.900
  22268376.195 9 117021135.312 9        49.500    22268382.699 8  91185329.77749
        38.800    22268382.22749  22268378.449 5  87385930.649 5        37.200
  21514218.180 9 113058012.029 9        51.400    21514225.316 9  88097200.39849
        43.900    21514224.10949  21514220.719 6  84426475.749 6        40.300
  23483408.336 7 123406146.161 7        43.400                    96160649.11547
        28.800    23483411.73447
  21996649.359 8 115593183.710 8        47.600                    90072631.22749
        37.000    21996653.45349
  25463976.984 4 133814100.675 4        34.600    25463981.277 4 104270748.45545
        16.900    25463980.50045
  22468324.430 9 118071855.599 9        48.100    22468331.395 8  92004070.15149
        38.700    22468330.70749  22468328.438 5  88170552.180 5        36.400
  20925169.156 9 109962515.470 9        51.600                    85685086.72049
        44.200    20925170.48849
  20033277.367 9 105275535.587 9        49.000                    82032958.20049
        44.900    20033280.38349
  24158520.969 7 126953938.387 7        42.000    24158527.684 7  98925195.21647
        28.300    24158526.88747  24158524.043 2  94803301.169 2        31.700
  24242853.102 6 127397101.543 6        38.200    24242860.570 6  99270509.66746
        22.600    24242859.64146  24242855.129 1  95134223.348 1        28.200
 17  4  9  0 18 30.0000000  0 11G01G32G08G28G14G17G03G22G11G27G10
  20624344.445 9 108381661.872 9        53.200    20624351.406 9  84453283.96749
        47.500    20624351.26249  20624347.363 7  80934391.825 7        42.600
  22273276.906 9 117046888.305 9        49.100    22273283.133 8  91205397.05349
        39.500    22273282.39149  22273279.262 5  87405161.790 5        37.300
  21529001.250 9 113135698.978 9        51.300    21529008.668 9  88157735.67949
        44.200    21529007.84849  21529004.574 6  84484488.718 6        40.600
  23484951.078 7 123414255.499 7        42.500                    96166968.06247
        27.300    23484954.69947
  21992166.117 9 115569626.126 9        48.200                    90054274.68549
        37.500    21992169.44149
  25444193.563 6 133710125.889 6        40.300    25444196.684 5 104189729.16846
        22.300    25444195.87146
  22451746.891 9 117984739.624 9        48.600    22451754.266 8  91936187.58349
        38.300    22451753.56349  22451751.293 5  88105498.050 5        36.000
  20916397.586 9 109916420.239 9        50.600                    85649168.35849
        44.300    20916398.66449
  20030823.953 9 105262641.650 9        48.700                    82022910.97449
        44.500    20030826.41449
  24180026.414 7 127066949.272 7        42.400    24180033.969 7  99013255.62647
        29.700    24180033.25847  24180029.828 3  94887692.392 3        33.000
  24261941.172 5 127497411.758 5        37.500    24261947.496 5  99348673.41646
        20.400    24261947.57046  24261943.527 1  95209130.312 1        28.100
 17  4  9  0 19  0.0000000  0 11G01G32G08G28G14G17G03G22G11G27G10
  20616531.797 9 108340605.699 9        53.400    20616538.703 9  84421292.14349
        47.800    20616538.23449  20616534.160 7  80903732.998 7        42.100
  22278288.898 9 117073228.273 9        49.200    22278295.488 8  91225921.71149
        38.800    22278294.90649  22278291.422 5  87424831.253 5        37.100
  21543863.148 9 113213798.600 9        51.000    21543870.695 9  88218592.50749
        43.800    21543869.67249  21543866.633 6  84542809.845 6        40.100
  23486592.844 7 123422880.733 7        43.600                    96173688.99847
        27.800    23486595.76647
  21987788.656 9 115546620.227 9        48.800                    90036348.04049
        37.700    21987792.18049
  25424422.203 7 133606224.454 7        42.200    25424425.699 6 104108767.00947
        26.900    25424424.76647
