     2.11           OBSERVATION DATA    G (GPS)             RINEX VERSION / TYPE
teqc  2016Nov7                          20170409 00:13:09UTCPGM / RUN BY / DATE
ZIMM                                                        MARKER NAME
14001M004                                                   MARKER NUMBER
TRIMBLE NETR9       SWISSTOPO                               OBSERVER / AGENCY
5429R49141          TRIMBLE NETR9       5.10                REC # / TYPE / VERS
99390               TRM29659.00     NONE                    ANT # / TYPE
  4331297.3480   567555.6400  4633133.7280                  APPROX POSITION XYZ
        0.0000        0.0000        0.0000                  ANTENNA: DELTA H/E/N
     1     1                                                WAVELENGTH FACT L1/2
    10    C1    L1    S1    C2    L2    S2    P2    C5    L5# / TYPES OF OBSERV
          S5                                                # / TYPES OF OBSERV
    30.0000                                                 INTERVAL
Linux 2.4.21-27.ELsmp|Opteron|gcc -static|Linux x86_64|=+   COMMENT
     2.11           OBSERVATION DATA    M (MIXED)           COMMENT
NetR9 5.10          Receiver Operator   08-APR-17 00:00:00  COMMENT
L2C CARRIER PHASE MEASUREMENTS: PHASE SHIFTS REMOVED        COMMENT
L2C PHASE MATCHES L2 P PHASE                                COMMENT
GLONASS C/A & P PHASE MATCH: PHASE SHIFTS REMOVED           COMMENT
GIOVE-A if present is mapped to satellite ID 51             COMMENT
GIOVE-B if present is mapped to satellite ID 52             COMMENT
Forced Modulo Decimation to 30 seconds                      COMMENT
teqc edited: all GLONASS satellites excluded                COMMENT
teqc edited: all Galileo satellites excluded                COMMENT
  2017     4     8     0     0    0.0000000     GPS         TIME OF FIRST OBS
                                                            END OF HEADER
 17  4  8  0  0  0.0000000  0 10G01G32G08G28G14G03G11G22G27G10
  21037851.273 9 110554669.009 9        53.800    21037858.285 9  86146528.25249
        44.900    21037858.03949  21037854.199 6  82557075.326 6        40.700
  22165448.664 8 116480236.587 8        47.800    22165455.352 9  90763841.81149
        40.000    22165454.49649  22165450.898 5  86982007.991 5        37.500
  20943397.250 9 110058377.139 9        53.200    20943404.262 9  85759775.47149
        47.700    20943403.31649  20943400.219 7  82186442.112 7        41.400
  23514923.734 7 123571756.779 7        43.500                    96289696.83347
        28.900    23514927.36347
  22296093.563 8 117166758.531 8        47.900                    91298798.39249
        35.500    22296097.03949
  23245310.789 8 122154943.527 8        45.800    23245317.992 7  95185691.46948
        33.100    23245317.23848  23245315.438 3  91219608.549 3        33.800
  20236518.352 9 106343631.766 9        50.100                    82865190.55049
        45.300    20236521.61349
  21386618.398 9 112387588.790 9        50.200                    87574639.44549
        41.800    21386619.68449
  23234274.156 8 122096980.324 8        45.800    23234280.660 8  95140546.14448
        33.700    23234279.71548  23234276.992 4  91176348.336 4        34.700
  23416932.367 7 123056847.711 7        44.700    23416938.684 7  95888493.35648
        31.200    23416938.38348  23416934.340 3  91893125.062 3        32.600
 17  4  8  0  0 30.0000000  0 10G01G32G08G28G14G03G11G22G27G10
  21027473.063 9 110500129.664 9        54.400    21027479.918 9  86104030.06649
        45.100    21027479.78949  21027475.539 6  82516347.904 6        40.900
  22165314.133 8 116479530.521 8        47.500    22165320.891 8  90763291.63849
        39.600    22165320.33249  22165316.848 5  86981480.743 5        37.700
  20954379.031 9 110116086.014 9        53.200    20954386.293 9  85804743.42149
        47.500    20954385.46149  20954382.305 7  82229536.396 7        41.300
  23512063.641 8 123556723.728 8        45.000                    96277982.76847
        28.500    23512066.85247
  22287211.664 8 117120085.735 8        47.200                    91262429.98349
        35.400    22287215.24249
  23226664.344 8 122056956.903 8        45.800    23226671.977 7  95109338.25848
        33.800    23226671.23448  23226669.020 4  91146436.727 4        34.100
  20229931.258 9 106309015.271 9        50.000                    82838216.65849
        44.900    20229934.21949
  21374731.867 9 112325124.549 9        49.500                    87525966.03249
        42.100    21374732.75849
  23254491.016 8 122203219.379 8        45.800    23254497.621 8  95223329.82049
        34.000    23254496.73049  23254492.773 4  91255682.708 4        34.700
  23435164.273 7 123152652.590 7        43.900    23435169.988 7  95963146.52448
        30.000    23435169.57448  23435165.531 3  91964667.659 3        32.600
 17  4  8  0  1  0.0000000  0 10G01G32G08G28G14G03G11G22G27G10
  21017147.320 9 110445868.944 9        54.800    21017154.488 9  86061748.98849
        45.400    21017154.23849  21017150.281 7  82475828.530 7        41.100
  22165294.875 8 116479428.662 8        47.900    22165301.629 9  90763212.28749
        40.100    22165300.88749  22165297.113 5  86981404.689 5        37.200
  20965452.445 9 110174278.436 9        52.800    20965459.715 9  85850088.15349
        47.300    20965458.77049  20965455.734 7  82272991.765 7        41.500
  23509302.109 7 123542214.888 7        43.800                    96266677.15947
        29.300    23509305.81347
  22278423.188 8 117073901.212 8        47.100                    91226442.05449
        35.700    22278426.50849
  23208059.891 8 121959189.236 8        46.400    23208067.469 8  95033155.68249
        35.000    23208066.73449  23208063.703 3  91073428.423 3        33.700
  20223432.398 9 106274864.174 9        50.200                    82811605.41049
        45.500    20223435.61349
  21362913.031 9 112263016.303 9        49.400                    87477569.99749
        42.000    21362914.09849
  23274744.891 8 122309656.802 8        45.600    23274751.703 7  95306268.06749
        34.000    23274751.34849  23274748.387 3  91335165.200 3        33.600
  23453421.313 7 123248599.147 7        44.600    23453427.723 7  96037910.06948
        30.400    23453427.67648  23453423.398 3  92036316.044 3        33.600
 17  4  8  0  1 30.0000000  0 10G01G32G08G28G14G03G11G22G27G10
  21006874.953 9 110391887.530 9        54.300    21006882.262 9  86019685.55449
        45.100    21006882.05149  21006878.152 7  82435517.746 7        41.100
  22165390.523 9 116479930.919 9        48.300    22165397.086 9  90763603.67049
        40.200    22165396.36349  22165392.820 5  86981779.770 5        37.300
  20976617.953 9 110232952.504 9        52.900    20976625.301 9  85895808.20449
        47.300    20976624.05149  20976620.895 7  82316806.812 7        41.600
  23506641.414 8 123528230.369 8        45.300                    96255780.13547
        28.100    23506644.34447
  22269727.539 9 117028206.930 9        48.300                    91190836.12849
        35.400    22269731.17649
  23189497.883 8 121861641.656 8        45.400    23189505.137 8  94957144.60149
        34.300    23189504.18049  23189501.676 4  91000584.456 4        34.200
  20217022.750 9 106241179.569 9        50.000                    82785357.67049
        45.500    20217025.35949
  21351161.828 9 112201264.171 9        49.400                    87429451.47149
        42.400    21351163.22349
  23295036.758 8 122416290.299 8        46.200    23295043.137 7  95389359.09548
        33.600    23295042.34448  23295039.734 4  91414794.096 4        34.900
  23471706.289 7 123344685.144 7        43.600    23471712.766 7  96112782.26048
        30.200    23471712.12948  23471708.090 4  92108068.555 4        34.000
 17  4  8  0  2  0.0000000  0 10G01G32G08G28G14G03G11G22G27G10
  20996656.078 9 110338186.386 9        54.700    20996662.883 9  85977840.51449
        45.400    20996662.67249  20996658.828 6  82395416.249 6        40.900
  22165600.945 9 116481037.513 9        48.200    22165607.715 9  90764465.95949
        39.900    22165606.81649  22165603.688 6  86982606.132 6        38.000
  20987874.719 9 110292107.247 9        53.100    20987881.801 9  85941902.80649
        47.500    20987880.69149  20987877.598 6  82360980.804 6        40.800
  23504080.000 8 123514770.402 8        45.100                    96245291.83047
        28.700    23504083.00847
  22261126.156 8 116983004.595 8        47.900                    91155613.55249
        35.600    22261129.50449
  23170976.281 8 121764315.660 8        45.400    23170983.453 7  94881306.17348
        33.500    23170982.82448  23170980.848 3  90927905.954 3        33.400
  20210701.633 9 106207963.302 9        50.000                    82759474.85749
        45.200    20210704.65649
  21339478.789 9 112139868.406 9        49.600                    87381610.63149
        42.400    21339480.32449
  23315365.359 8 122523117.919 8        45.600    23315372.141 8  95472601.39148
        33.700    23315371.57848  23315369.027 5  91494567.944 5        35.200
  23490016.813 7 123440908.781 7        44.000    23490023.684 7  96187761.69848
        30.300    23490023.31348  23490018.688 3  92179923.865 3        33.500
 17  4  8  0  2 30.0000000  0 10G01G32G08G28G14G03G11G22G27G10
  20986490.672 9 110284766.434 9        54.500    20986497.660 9  85936214.57749
        45.600    20986497.35949  20986493.402 7  82355524.721 7        41.200
  22165926.531 8 116482748.556 8        47.500    22165932.949 9  90765799.24849
        39.600    22165932.19549  22165928.773 6  86983883.867 6        38.000
  20999222.461 9 110351741.136 9        53.000    20999229.566 9  85988370.76049
        47.300    20999228.58249  20999225.602 7  82405512.594 7        41.000
  23501618.305 8 123501835.579 8        45.200                    96235212.75747
        28.700    23501621.13747
  22252618.000 8 116938296.097 8        47.500                    91120775.77249
        35.000    22252621.29349
  23152498.328 8 121667212.608 8        46.100    23152505.832 7  94805641.45548
        33.500    23152504.84848  23152502.930 4  90855393.953 4        34.200
  20204469.961 9 106175216.371 9        49.900                    82733957.76649
        44.900    20204472.94949
  21327863.570 9 112078830.413 9        50.500                    87334048.56549
        42.300    21327865.05949
  23335730.742 8 122630137.602 8        45.800    23335737.594 8  95555993.33249
        34.100    23335737.41449  23335733.047 3  91574485.231 3        33.300
  23508353.188 7 123537268.205 7        44.100    23508359.988 7  96262846.94647
        29.600    23508359.26247  23508355.453 3  92251880.553 3        33.500
 17  4  8  0  3  0.0000000  0 10G01G32G08G28G14G03G11G22G27G10
  20976378.789 9 110231628.568 9        54.000    20976385.707 9  85894808.45449
        45.500    20976385.57449  20976381.496 7  82315843.853 7        41.100
  22166367.273 8 116485064.144 8        47.900    22166374.305 9  90767603.61149
        39.700    22166373.59049  22166369.816 5  86985613.051 5        37.400
  21010661.477 9 110411852.964 9        52.800    21010668.609 9  86035211.13649
        47.200    21010667.49249  21010664.512 7  82450401.282 7        41.300
  23499257.102 8 123489425.826 8        45.600                    96225542.81247
        28.700    23499260.08647
  22244204.969 8 116894083.420 8        47.600                    91086324.34849
        36.000    22244208.18849
  23134063.430 8 121570333.912 8        47.600    23134070.191 7  94730151.58749
        34.900    23134069.61749  23134067.813 5  90783049.501 5        35.000
  20198328.375 9 106142940.322 9        50.200                    82708807.60149
        45.200    20198331.07049
  21316316.664 9 112018150.956 9        49.700                    87286765.88149
        42.200    21316318.14149
  23356131.875 8 122737347.305 8        45.700    23356138.340 7  95639533.36348
        33.900    23356137.79748  23356134.602 3  91654544.453 3        33.700
  23526715.797 7 123633761.398 7        44.300    23526721.492 7  96338036.42548
        30.500    23526721.64848  23526717.020 3  92323937.143 3        33.300
 17  4  8  0  3 30.0000000  0 10G01G32G08G28G14G03G11G22G27G10
  20966320.828 9 110178773.705 9        53.700    20966327.895 9  85853622.84549
        45.500    20966327.46149  20966323.387 7  82276374.322 7        41.400
  22166922.773 8 116487984.320 8        47.900    22166929.504 9  90769879.09149
        40.300    22166928.72349  22166925.066 5  86987793.722 5        37.900
  21022190.977 9 110472441.576 9        52.600    21022198.207 9  86082423.03349
        47.300    21022197.23849  21022194.199 7  82495646.020 7        41.200
  23496995.898 7 123477541.340 7        44.900                    96216282.17547
        29.800    23496998.48047
  22235886.227 9 116850368.124 9        48.500                    91052260.49149
        36.400    22235889.71949
  23115670.742 8 121473680.933 8        47.300    23115678.336 7  94654837.57949
        35.300    23115677.07449  23115675.625 3  90710873.584 3        33.900
  20192276.070 9 106111136.327 9        49.900                    82684025.26949
        45.300    20192279.51649
  21304838.102 9 111957830.305 9        49.500                    87239762.79249
        42.700    21304839.16449
  23376568.891 8 122844744.939 8        45.300    23376575.863 7  95723219.83648
        32.300    23376574.98048  23376572.781 5  91734743.973 5        35.000
  23545102.844 7 123730386.523 7        44.300    23545109.102 7  96413328.74748
        31.000    23545108.65648  23545104.203 3  92396092.280 3        32.800
 17  4  8  0  4  0.0000000  0 10G01G32G08G28G14G03G11G22G27G10
  20956316.852 9 110126202.766 9        53.800    20956323.988 9  85812658.48049
        45.400    20956323.83249  20956319.988 6  82237116.799 6        40.700
  22167593.672 8 116491509.100 8        47.700    22167600.430 8  90772625.67849
        39.400    22167599.70749  22167596.398 5  86990425.874 5        37.600
  21033811.219 9 110533505.381 9        52.800    21033818.777 9  86130005.21549
        47.200    21033817.69949  21033814.660 7  82541245.607 7        41.500
  23494834.117 8 123466182.325 8        45.400                    96207430.99547
        29.100    23494836.94147
  22227662.242 9 116807152.063 9        48.500                    91018585.64649
        36.400    22227666.07049
  23097321.172 8 121377255.053 8        47.100    23097328.734 7  94579700.53949
        34.600    23097327.89149  23097325.910 3  90638867.260 3        33.900
  20186314.023 9 106079805.791 9        49.900                    82659611.86049
        45.100    20186317.21549
  21293428.148 9 111897869.163 9        49.900                    87193039.82449
        42.400    21293429.07049
  23397041.063 8 122952328.505 8        45.400    23397048.031 7  95807051.18948
        32.800    23397047.12548  23397044.750 4  91815082.333 4        34.600
  23563514.914 7 123827141.712 7        42.700    23563521.059 7  96488722.39248
        30.900    23563520.72348  23563516.625 3  92468344.510 3        33.000
 17  4  8  0  4 30.0000000  0 10G01G32G08G28G14G03G11G22G27G10
  20946367.070 9 110073916.531 9        53.700    20946373.988 9  85771915.96849
        45.500    20946373.48049  20946369.699 7  82198071.896 7        41.300
  22168379.313 9 116495638.344 9        48.000    22168385.863 9  90775843.27949
        39.300    22168384.81649  22168382.039 5  86993509.401 5        37.600
  21045521.570 9 110595043.160 9        53.000    21045528.703 9  86177956.72849
        47.200    21045527.58249  21045524.426 7  82587199.143 7        41.400
  23492772.672 7 123455348.972 7        43.600                    96198989.41147
        28.500    23492775.55947
  22219533.945 9 116764436.908 9        48.300                    90985301.12549
        35.700    22219537.43449
  23079015.406 8 121281057.470 8        47.500    23079022.824 7  94504741.40949
        34.700    23079022.15649  23079020.000 3  90567031.427 3        33.700
  20180442.430 9 106048950.020 9        50.500                    82635568.40049
        45.300    20180445.59049
  21282086.070 9 111838268.008 9        49.800                    87146597.37649
        42.500    21282087.38349
  23417548.766 8 123060095.759 8        45.400    23417555.863 8  95891025.65348
        33.500    23417555.69548  23417551.797 3  91895557.875 3        33.700
  23581950.477 7 123924024.989 7        42.700    23581957.117 7  96564215.84848
        30.000    23581956.97348  23581952.230 3  92540692.407 3        32.600
 17  4  8  0  5  0.0000000  0 10G01G32G08G28G14G03G11G22G27G10
  20936471.672 9 110021915.785 9        53.700    20936478.535 9  85731395.90549
        45.800    20936478.20749  20936474.309 7  82159240.169 7        41.700
  22169280.313 9 116500371.973 9        48.200    22169286.836 9  90779531.83749
        40.300    22169285.82049  22169282.398 5  86997044.268 5        37.100
  21057321.508 9 110657053.031 9        52.600    21057328.734 9  86226276.10149
        46.900    21057327.57049  21057324.535 6  82633505.209 6        40.900
  23490810.781 7 123445041.330 7        43.100                    96190957.47247
        29.200    23490813.48447
  22211500.586 9 116722223.899 9        48.600                    90952407.87949
        36.400    22211504.55149
  23060753.477 8 121185089.453 8        47.000    23060760.559 7  94429961.15349
        35.400    23060759.73049  23060757.926 4  90495367.014 4        34.700
  20174661.570 9 106018570.067 9        50.000                    82611895.70749
        45.300    20174664.32049
  21270812.789 9 111779026.854 9        49.800                    87100435.45149
        42.900    21270814.23049
  23438090.695 8 123168044.538 8        45.100    23438097.531 7  95975141.58148
        33.000    23438097.04348  23438093.617 4  91976168.994 4        34.100
  23600411.086 7 124021034.311 7        42.100    23600417.512 7  96639807.52247
        29.400    23600416.92247  23600412.645 2  92613134.430 2        31.600
 17  4  8  0  5 30.0000000  0 10G01G32G08G28G14G03G11G22G27G10
  20926630.891 9 109970201.872 9        54.100    20926637.883 9  85691099.35649
        45.700    20926637.45349  20926633.789 7  82120622.637 7        41.100
  22170296.344 8 116505710.285 8        47.900    22170302.930 8  90783691.57449
        40.000    22170302.02049  22170298.418 5  87001030.689 5        37.600
  21069211.188 9 110719534.347 9        52.400    21069219.066 9  86274962.83049
        46.700    21069217.73049  21069214.809 6  82680163.322 6        40.900
  23488949.727 7 123435259.577 7        44.300                    96183335.34547
        27.900    23488951.77047
  22203564.242 8 116680515.501 8        47.200                    90919907.84049
        36.600    22203567.58649
  23042535.680 9 121089352.760 9        48.900    23042542.824 8  94355361.14449
        35.400    23042542.07849  23042540.453 5  90423875.346 5        35.500
  20168971.164 9 105988667.684 9        49.900                    82588595.14649
        45.200    20168974.10949
  21259608.367 9 111720148.126 9        49.600                    87054555.93149
        42.600    21259610.18049
  23458667.336 8 123276173.222 8        45.800    23458673.605 7  96059397.70448
        32.800    23458672.61748  23458670.301 4  92056914.437 4        34.700
  23618895.242 7 124118168.270 7        42.600    23618901.176 7  96715496.31247
        29.600    23618901.19147  23618897.270 3  92685669.520 3        32.200
 17  4  8  0  6  0.0000000  0 10G01G32G08G28G14G03G11G22G27G10
  20916845.008 9 109918775.463 9        53.100    20916852.152 9  85651026.83249
        45.900    20916851.72749  20916848.063 7  82082219.804 7        41.700
  22171426.883 9 116511653.008 9        48.000    22171433.598 8  90788322.27749
        40.100    22171432.36349  22171428.824 5  87005468.443 5        37.700
  21081190.648 9 110782485.666 9        52.800    21081197.961 9  86324015.79849
        47.000    21081196.86349  21081193.711 6  82727172.413 6        40.400
  23487188.445 7 123426003.844 7        44.600                    96176123.08047
        29.900    23487191.80147
  22195723.602 9 116639313.337 9        48.600                    90887802.26849
        36.500    22195727.33249
  23024361.781 8 120993848.534 8        47.800    23024368.637 8  94280942.27749
        34.800    23024367.98049  23024365.941 4  90352557.274 4        34.900
  20163371.930 9 105959243.947 9        49.700                    82565667.56049
        45.200    20163374.64849
  21248473.211 9 111661631.683 9        49.900                    87008958.71549
        42.500    21248474.82049
  23479276.523 7 123384479.424 7        43.800    23479283.488 7  96143792.16348
        32.300    23479282.74248  23479280.137 4  92137792.441 4        34.600
  23637402.719 7 124215424.718 7        43.100    23637408.738 7  96791280.53948
        30.400    23637408.43448  23637404.215 3  92758296.079 3        33.300
 17  4  8  0  6 30.0000000  0 10G01G32G08G28G14G03G11G22G27G10
  20907113.633 9 109867637.553 9        52.900    20907120.496 9  85611179.10949
        45.900    20907120.14549  20907116.480 7  82044032.418 7        41.300
  22172672.789 9 116518200.094 9        48.100    22172679.492 9  90793423.91249
        40.200    22172678.56649  22172674.969 5  87010357.511 5        37.300
  21093258.953 9 110845905.184 9        52.500    21093266.223 9  86373433.60149
        46.800    21093265.07449  21093261.859 6  82774531.141 6        40.800
  23485527.578 7 123417274.265 7        44.700                    96169320.79847
        28.700    23485530.52747
  22187979.938 9 116598619.140 9        48.700                    90856092.51449
        36.500    22187983.44949
  23006232.109 8 120898578.151 8        47.900    23006239.473 7  94206705.63049
        35.000    23006238.66049  23006236.914 4  90281413.815 4        34.900
  20157864.227 9 105930300.459 9        49.700                    82543114.18349
        45.400    20157867.06349
  21237406.758 9 111603478.053 9        49.800                    86963644.20649
        42.700    21237408.10949
  23499920.133 7 123492961.247 7        44.300    23499927.836 8  96228323.44148
        33.200    23499926.50048  23499923.309 3  92218801.598 3        33.300
  23655932.477 7 124312801.946 7        42.900    23655938.797 7  96867158.88848
        30.200    23655938.84848  23655934.570 3  92831012.827 3        32.400
 17  4  8  0  7  0.0000000  0 10G01G32G08G28G14G03G11G22G27G10
  20897437.289 9 109816788.846 9        54.500    20897444.359 9  85571556.74149
        46.400    20897444.28549  20897440.387 7  82006060.977 7        41.400
  22174033.484 9 116525351.280 9        48.500    22174039.961 8  90798996.27649
        40.000    22174039.55549  22174035.840 5  87015697.696 5        37.600
  21105415.828 9 110909791.192 9        52.400    21105422.863 9  86423214.89149
        46.900    21105422.10249  21105419.121 6  82822238.217 6        40.900
  23483965.867 7 123409070.350 7        43.100                    96162928.13547
        27.200    23483969.10947
  22180332.734 9 116558433.670 9        48.800                    90824779.16649
        36.900    22180336.43449
  22988147.188 8 120803542.747 8        46.900    22988154.910 8  94132652.08349
        35.900    22988154.01249  22988151.738 4  90210445.844 4        34.800
  20152448.070 9 105901837.929 9        49.600                    82520935.59649
        45.300    20152450.83649
  21226409.727 9 111545687.639 9        49.600                    86918612.72649
        42.600    21226411.14149
  23520596.664 7 123601616.378 7        44.900    23520603.379 7  96312989.75948
        32.400    23520602.41448  23520599.805 3  92299940.169 3        33.600
  23674485.602 7 124410297.899 7        42.300    23674491.473 7  96943129.78147
        29.300    23674490.95747  23674487.676 3  92903818.236 3        32.100
 17  4  8  0  7 30.0000000  0 10G01G32G08G28G14G03G11G22G27G10
  20887816.531 9 109766230.473 9        53.100    20887823.375 9  85532160.60649
        46.200    20887823.17649  20887819.219 7  81968306.352 7        41.300
  22175509.289 9 116533106.572 9        48.100    22175515.707 8  90805039.36549
        40.200    22175515.13349  22175512.121 5  87021488.993 5        37.900
  21117661.664 9 110974142.904 9        52.100    21117668.770 9  86473359.07349
        46.600    21117667.69149  21117665.008 7  82870293.053 7        41.300
  23482504.836 7 123401392.565 7        43.000                    96156945.45247
        29.600    23482508.12147
  22172782.570 9 116518759.306 9        48.500                    90793864.08849
        36.400    22172786.59849
  22970108.008 8 120708743.884 8        46.800    22970115.387 8  94058782.84749
        35.800    22970114.57449  22970112.418 4  90139654.497 4        34.800
  20147123.555 9 105873858.061 9        50.100                    82499133.09649
        45.400    20147126.43849
  21215481.648 9 111488261.276 9        49.500                    86873864.91649
        42.700    21215483.36349
  23541305.836 7 123710442.871 7        44.400    23541312.348 7  96397789.63748
        32.300    23541311.44548  23541309.598 5  92381206.687 5        35.100
  23693060.836 7 124507910.911 7        42.100    23693066.824 7  97019191.86147
        29.300    23693066.80547  23693062.766 3  92976711.067 3        32.400
 17  4  8  0  8  0.0000000  0 10G01G32G08G28G14G03G11G22G27G10
  20878250.781 9 109715963.382 9        53.400    20878257.945 9  85492991.44349
        46.100    20878257.66049  20878253.527 7  81930769.237 7        41.800
  22177099.898 8 116541465.825 8        47.700    22177106.379 8  90811553.08349
        40.000    22177105.52349  22177102.277 5  87027731.302 5        37.900
  21129995.758 9 111038958.645 9        52.400    21130002.711 9  86523864.84349
        46.400    21130001.52749  21129998.664 6  82918694.413 6        40.800
  23481144.328 7 123394241.389 7        43.600                    96151373.10447
        29.100    23481147.40247
  22165330.797 9 116479597.732 9        48.400                    90763348.57749
        35.900    22165334.27749
  22952113.297 8 120614182.866 8        47.300    22952121.227 8  93985098.96149
        36.500    22952120.24649  22952118.148 5  90069040.771 5        35.100
  20141891.352 9 105846362.470 9        50.200                    82477707.96049
        45.400    20141894.18049
  21204623.445 9 111431199.627 9        49.600                    86829401.30849
        43.200    21204624.83649
  23562047.125 7 123819438.727 7        44.000    23562054.457 8  96482721.47348
        32.400    23562053.46948  23562050.332 3  92462599.685 3        33.800
  23711657.891 7 124605639.188 7        42.200    23711664.215 7  97095343.74747
        29.900    23711664.35947  23711659.852 3  93049689.961 3        32.800
 17  4  8  0  8 30.0000000  0 10G01G32G08G28G14G03G11G22G27G10
  20868741.266 9 109665988.317 9        53.900    20868748.465 9  85454049.84049
        46.300    20868748.03949  20868743.789 7  81893450.207 7        41.600
  22178805.586 8 116550428.651 8        47.900    22178811.973 9  90818537.11149
        40.300    22178811.16049  22178807.617 5  87034424.336 5        37.800
  21142417.742 9 111104236.867 9        52.300    21142425.113 9  86574730.98149
        46.500    21142424.05149  21142420.953 6  82967441.128 6        40.900
  23479883.141 7 123387616.127 7        43.300                    96146210.55447
        28.300    23479886.63747
  22157976.297 9 116440950.320 9        49.100                    90733233.72449
        36.800    22157979.96149
  22934164.273 8 120519860.907 8        47.900    22934171.727 8  93911601.33949
        36.200    22934170.99649  22934169.195 5  89998605.560 5        35.100
  20136751.648 9 105819351.808 9        49.900                    82456660.68549
        45.900    20136754.41849
  21193834.219 9 111374502.961 9        50.000                    86785222.09249
        42.900    21193835.49249
  23582820.164 7 123928601.672 7        44.200    23582826.938 7  96567783.49148
        32.300    23582826.49648  23582822.602 3  92544117.472 3        32.500
  23730276.531 7 124703480.796 7        41.600    23730282.762 7  97171583.94747
        29.300    23730283.07047  23730278.914 2  93122753.501 2        31.800
 17  4  8  0  9  0.0000000  0 10G01G32G08G28G14G03G11G22G27G10
  20859287.016 9 109616306.225 9        53.500    20859294.188 9  85415336.52349
        46.500    20859293.80949  20859289.734 7  81856349.940 7        41.400
  22180626.008 9 116559994.870 9        48.300    22180632.824 9  90825991.31849
        40.100    22180631.52049  22180627.859 5  87041567.953 5        37.000
  21154927.656 9 111169975.961 9        52.400    21154934.906 9  86625956.24249
        46.400    21154934.01649  21154930.684 6  83016532.007 6        40.700
  23478723.016 7 123381516.912 7        43.300                    96141457.91447
        27.900    23478725.46147
  22150720.063 9 116402818.619 9        48.300                    90703520.72049
        36.500    22150723.54749
  22916261.523 8 120425779.292 8        47.300    22916268.781 8  93838291.01349
        36.200    22916267.85949  22916266.055 4  89928349.828 4        34.700
  20131704.203 9 105792827.491 9        50.300                    82435992.38149
        45.600    20131707.05149
  21183114.984 9 111318171.942 9        49.900                    86741327.79349
        42.700    21183116.02749
  23603624.609 7 124037929.706 7        44.100    23603630.973 7  96652974.15948
        32.100    23603630.12548  23603626.813 4  92625758.552 4        34.000
  23748915.719 7 124801433.892 7        41.000    23748922.117 7  97247911.02747
        28.100    23748922.20747  23748918.109 3  93195900.289 3        32.000
 17  4  8  0  9 30.0000000  0 10G01G32G08G28G14G03G11G22G27G10
  20849888.492 9 109566918.076 9        53.700    20849895.770 9  85376852.26049
        46.300    20849895.61349  20849891.539 7  81819469.183 7        41.500
  22182561.047 9 116570164.277 9        48.400    22182567.746 9  90833915.53349
        39.800    22182566.64549  22182563.691 5  87049161.997 5        37.500
  21167524.727 9 111236174.362 9        52.200    21167532.348 9  86677539.40649
        46.400    21167531.20749  21167528.289 6  83065965.872 6        40.900
  23477662.156 7 123375943.573 7        43.400                    96137115.06147
        29.700    23477665.55947
  22143562.297 9 116365204.232 9        48.300                    90674210.81749
        36.800    22143566.20349
  22898404.492 8 120331939.392 8        47.300    22898411.449 8  93765169.02349
        36.900    22898411.11749  22898408.609 4  89858274.601 4        34.900
  20126749.242 9 105766790.705 9        49.500                    82415703.97649
        45.500    20126752.10549
  21172465.609 9 111262207.479 9        49.700                    86697719.13649
        42.900    21172466.64149
  23624459.508 7 124147420.676 7        43.800    23624466.063 7  96738291.80748
        31.800    23624465.64148  23624462.914 4  92707521.274 4        34.400
  23767577.375 7 124899496.684 7        41.100    23767583.195 7  97324323.59147
        27.700    23767583.37147  23767579.094 2  93269128.975 2        31.900
 17  4  8  0 10  0.0000000  0 10G01G32G08G28G14G03G11G22G27G10
  20840546.320 9 109517824.742 9        54.500    20840553.418 9  85338597.71449
        46.500    20840553.02349  20840549.121 7  81782808.578 7        41.600
  22184611.438 9 116580936.533 9        49.800    22184617.652 9  90842309.50549
        40.200    22184616.50449  22184613.137 5  87057206.215 5        37.600
  21180209.016 9 111302830.871 9        52.100    21180216.121 9  86729479.53549
        46.100    21180215.14849  21180212.582 7  83115741.826 7        41.300
  23476701.828 7 123370896.182 7        43.800                    96133182.02548
        30.100    23476705.48448
  22136503.133 9 116328108.542 9        48.700                    90645305.09549
        37.300    22136506.98049
  22880593.531 8 120238342.468 8        47.200    22880600.574 8  93692236.36649
        36.400    22880599.77349  22880597.504 5  89788380.805 5        35.100
  20121887.734 9 105741242.434 9        49.500                    82395796.23149
        45.500    20121890.57049
  21161885.109 9 111206609.818 9        50.100                    86654396.29249
        43.300    21161887.16049
  23645325.656 7 124257072.519 7        43.200    23645332.504 8  96823734.80248
        32.600    23645332.30548  23645328.641 3  92789404.141 3        33.600
  23786258.000 7 124997667.435 7        41.200    23786264.551 7  97400820.28447
        28.300    23786264.89547  23786260.855 3  93342438.297 3        32.500
 17  4  8  0 10 30.0000000  0 10G01G32G08G28G14G03G11G22G27G10
  20831260.484 9 109469027.114 9        52.900    20831267.500 9  85300573.59349
        46.500    20831267.26249  20831263.125 7  81746368.793 7        41.400
  22186775.602 9 116592311.362 9        49.000    22186782.012 9  90851173.02549
        39.700    22186780.88349  22186777.637 5  87065700.423 5        37.300
  21192979.984 9 111369943.698 9        52.100    21192987.211 9  86781775.23849
        46.000    21192986.07049  21192983.383 7  83165858.539 7        41.000
  23475841.484 7 123366374.483 7        44.600                    96129658.61847
        29.700    23475844.50047
  22129543.375 8 116291533.007 8        47.200                    90616804.69149
        36.600    22129546.83249
  22862828.844 8 120144989.809 8        46.500    22862836.137 8  93619494.04949
        37.000    22862835.68849  22862832.949 5  89718669.419 5        35.200
  20117119.383 9 105716184.116 9        49.900                    82376270.27049
        45.200    20117122.16449
  21151375.211 9 111151379.404 9        50.200                    86611359.61049
        43.200    21151376.59449
  23666221.609 7 124366883.090 7        43.400    23666228.863 7  96909301.46948
        31.100    23666228.87948  23666225.156 3  92871405.543 3        33.300
  23804959.070 6 125095944.256 6        40.200    23804965.930 7  97477399.60847
        26.400    23804966.09447  23804962.344 1  93415826.816 1        30.700
 17  4  8  0 11  0.0000000  0 10G01G32G08G28G14G03G11G22G27G10
  20822030.961 9 109420526.359 9        52.800    20822038.469 9  85262780.79649
        46.500    20822038.36349  20822034.344 7  81710150.698 7        41.700
  22189054.938 9 116604288.599 9        49.700    22189061.188 9  90860505.95049
        39.500    22189060.64549  22189057.340 5  87074644.476 5        37.600
  21205837.844 9 111437511.305 9        52.200    21205845.023 9  86834425.31549
        46.400    21205843.88349  21205840.609 6  83216314.867 6        40.600
  23475081.391 7 123362378.346 7        43.600                    96126544.74247
        28.900    23475084.06347
  22122682.469 9 116255479.418 9        48.400                    90588710.99949
        37.200    22122685.80149
  22845111.289 8 120051882.868 8        47.100    22845118.953 8  93546943.20649
        36.500    22845118.00849  22845115.855 5  89649141.535 5        35.900
  20112444.305 9 105691617.345 9        49.500                    82357127.33249
        45.900    20112447.50049
  21140935.680 9 111096517.351 9        50.700                    86568609.96049
        43.400    21140936.66049
  23687148.367 7 124476850.526 7        43.900    23687154.625 7  96994990.38348
        31.200    23687154.24248  23687151.402 3  92953524.074 3        33.400
  23823680.820 6 125194325.656 6        40.700    23823687.238 7  97554060.41247
        26.800    23823687.23447  23823683.484 1  93489293.417 1        30.700
 17  4  8  0 11 30.0000000  0 10G01G32G08G28G14G03G11G22G27G10
  20812858.023 9 109372323.109 9        53.400    20812865.645 9  85225219.83149
        46.600    20812865.25449  20812861.527 7  81674154.774 7        41.400
  22191448.570 9 116616867.675 9        49.100    22191455.055 8  90870307.83749
        40.100    22191454.30149  22191450.938 5  87084037.953 5        37.500
  21218781.813 9 111505532.020 9        52.100    21218789.148 9  86887428.46149
        46.000    21218788.16849  21218784.719 6  83267109.552 6        40.100
  23474419.773 7 123358907.672 7        44.800                    96123840.30747
        28.300    23474423.10947
  22115920.813 8 116219948.831 8        47.800                    90561024.83649
        37.300    22115924.47349
  22827440.484 8 119959022.725 8        47.700    22827447.652 8  93474584.66349
        36.600    22827447.04349  22827444.891 4  89579797.938 4        34.900
  20107862.922 9 105667542.709 9        49.800                    82338367.86949
        45.200    20107866.06349
  21130565.703 9 111042023.851 9        50.500                    86526147.50849
        43.300    21130567.03949
  23708103.969 8 124586972.414 8        45.100    23708111.086 8  97080799.62248
        32.200    23708110.89548  23708107.523 4  93035757.921 4        34.200
  23842422.227 7 125292809.437 7        41.300    23842428.313 7  97630801.01247
        27.900    23842428.38747  23842424.348 1  93562836.514 1        30.400
 17  4  8  0 12  0.0000000  0 10G01G32G08G28G14G03G11G22G27G10
  20803742.422 9 109324418.375 9        52.800    20803749.660 9  85187891.46749
        46.900    20803749.39149  20803745.375 7  81638381.763 7        41.700
  22193956.578 9 116630048.265 9        49.300    22193963.008 9  90880578.43449
        40.100    22193962.41849  22193959.230 5  87093880.604 5        37.900
  21231811.555 9 111574004.465 9        52.100    21231819.184 9  86940783.61049
        46.000    21231818.03949  21231814.941 6  83318241.566 6        40.400
  23473859.953 7 123355962.319 7        44.200                    96121545.24147
        29.300    23473863.11347
  22109259.547 8 116184943.097 8        47.600                    90533747.64849
        36.900    22109263.10949
  22809817.297 8 119866410.672 8        47.300    22809824.148 8  93402419.44549
        36.800    22809823.28549  22809821.367 5  89510639.603 5        35.600
  20103375.617 9 105643961.662 9        49.600                    82319993.02949
        45.400    20103378.63749
  21120266.344 9 110987899.209 9        50.200                    86483972.46349
        43.400    21120267.33249
  23729088.469 8 124697246.757 8        45.200    23729094.906 7  97166727.67148
        31.200    23729094.53948  23729090.875 3  93118105.643 3        33.000
  23861181.758 6 125391394.053 6        40.500    23861188.070 7  97707620.18847
        25.900    23861188.00447  23861184.375 3  93636454.885 3        32.100
 17  4  8  0 12 30.0000000  0 10G01G32G08G28G14G03G11G22G27G10
  20794683.555 9 109276813.055 9        52.900    20794690.566 9  85150796.41349
        46.700    20794690.20749  20794686.074 7  81602832.339 7        41.900
  22196579.156 9 116643829.901 9        48.200    22196585.953 9  90891317.38449
        39.800    22196585.12549  22196581.586 6  87104172.104 6        38.300
  21244927.070 9 111642926.735 9        51.900    21244934.219 9  86994489.26649
        46.000    21244933.48049  21244930.559 6  83369709.485 6        40.700
  23473399.141 7 123353541.987 7        42.600                    96119659.27447
        28.400    23473401.81647
  22102698.320 9 116150463.427 9        48.400                    90506880.37949
        37.200    22102701.80949
  22792241.141 8 119774047.985 8        47.900    22792248.141 8  93330448.54049
        37.300    22792247.35949  22792245.379 5  89441667.484 5        35.500
  20098982.492 9 105620875.196 9        49.500                    82302003.57349
        45.000    20098985.53149
  21110037.078 9 110934144.047 9        50.100                    86442085.33349
        43.300    21110038.49649
  23750101.352 7 124807671.401 7        44.000    23750108.340 7  97252772.85347
        29.900    23750107.26247  23750104.770 4  93200565.610 4        34.000
  23879960.586 6 125490077.606 6        40.400    23879967.191 6  97784516.45247
        25.800    23879967.08647  23879963.395 1  93710147.113 1        30.400
 17  4  8  0 13  0.0000000  0 10G01G32G08G28G14G03G11G22G27G10
  20785681.523 9 109229507.783 9        52.800    20785688.203 9  85113935.16649
        46.800    20785687.96549  20785684.008 7  81567506.976 7        41.700
  22199315.727 9 116658211.878 9        48.200    22199322.574 9  90902524.11849
        39.700    22199322.31649  22199318.660 5  87114911.890 5        37.600
  21258127.938 9 111712297.320 9        51.800    21258135.285 9  87048544.26549
        45.900    21258134.02049  21258131.508 6  83421512.181 6        40.900
  23473037.914 7 123351646.485 7        42.600                    96118182.24147
        28.500    23473041.57047
  22096237.813 9 116116510.846 9        48.100                    90480423.83949
        37.300    22096241.25449
  22774712.711 8 119681935.653 8        47.900    22774720.000 8  93258672.70649
        37.100    22774719.54749  22774717.566 4  89372882.316 4        34.900
  20094683.570 9 105598283.974 9        49.500                    82284400.02449
        45.100    20094686.03949
  21099878.141 9 110880758.560 9        50.000                    86400486.26049
        43.600    21099879.12149
  23771143.016 8 124918244.019 8        45.000    23771149.543 7  97338933.32448
        31.500    23771148.71948  23771146.055 3  93283136.050 3        32.600
  23898758.727 7 125588858.128 7        41.100    23898763.793 6  97861488.31147
        25.900    23898763.59447  23898759.551 1  93783911.800 1        29.400
 17  4  8  0 13 30.0000000  0 10G01G32G08G28G14G03G11G22G27G10
  20776737.000 9 109182504.098 9        53.300    20776744.047 9  85077308.91349
        46.700    20776743.67249  20776740.008 7  81532406.821 7        41.400
  22202166.852 9 116673194.452 9        48.300    22202173.340 9  90914198.85949
        39.600    22202172.98449  22202169.324 5  87126100.190 5        37.500
  21271413.625 9 111782114.799 9        51.800    21271420.582 9  87102947.48349
        45.600    21271419.62149  21271416.523 6  83473648.608 6        40.500
  23472777.578 7 123350275.907 7        43.600                    96117114.24747
        28.500    23472780.28147
  22089877.172 9 116083087.348 9        48.300                    90454379.55749
        37.000    22089880.68449
  22757232.406 8 119590075.531 8        47.500    22757239.340 8  93187093.40249
        37.300    22757238.86349  22757237.000 5  89304285.498 5        36.200
  20090479.148 9 105576190.226 9        49.300                    82267184.10549
        45.400    20090482.16849
  21089789.461 9 110827743.828 9        50.000                    86359176.08349
        43.700    21089790.77049
  23792212.188 7 125028963.049 7        44.400    23792218.848 7  97425207.88048
        31.600    23792218.10948  23792214.566 3  93365815.835 3        32.400
  23917573.211 6 125687734.470 6        39.400    23917580.055 6  97938534.84346
        24.900    23917579.39546  23917574.887 1  93857748.060 1        30.400
 17  4  8  0 14  0.0000000  0 10G01G32G08G28G14G03G11G22G27G10
  20767850.117 9 109135802.600 9        53.500    20767856.996 9  85040918.14049
        46.900    20767856.66449  20767852.707 7  81497532.324 7        41.900
  22205132.172 8 116688776.756 8        47.400    22205138.906 9  90926340.91749
        40.200    22205138.36349  22205134.766 6  87137736.331 6        38.200
  21284784.438 9 111852377.321 9        51.800    21284791.797 9  87157697.49249
        45.600    21284790.67249  21284787.516 6  83526117.370 6        40.800
  23472616.367 7 123349429.647 7        43.900                    96116454.81547
        27.500    23472619.60547
  22083618.063 8 116050194.291 8        47.700                    90428748.61349
        37.200    22083621.42649
  22739800.016 8 119498468.556 8        47.600    22739807.129 8  93115711.35549
        37.400    22739806.52049  22739804.250 5  89235877.702 5        36.200
  20086369.680 9 105554594.646 9        49.600                    82250356.38249
        45.500    20086372.39149
  21079771.570 9 110775100.158 9        50.000                    86318155.04749
        43.400    21079773.11349
  23813308.680 7 125139826.057 7        44.800    23813315.172 7  97511594.61648
        30.700    23813314.54348  23813311.465 3  93448603.127 3        32.300
  23936407.297 6 125786704.678 6        38.700    23936414.020 6  98015654.42847
        26.300    23936413.98847  23936409.246 1  93931654.346 1        30.200
 17  4  8  0 14 30.0000000  0 10G01G32G08G28G14G03G11G22G27G10
  20759020.500 9 109089404.297 9        53.000    20759027.773 9  85004763.61449
        46.800    20759027.25849  20759023.355 7  81462884.240 7        41.400
  22208211.320 9 116704958.337 9        48.200    22208217.828 9  90938949.94949
        40.000    22208217.17649  22208213.988 6  87149819.991 6        38.100
  21298239.344 9 111923083.593 9        51.900    21298246.785 9  87212793.28049
        45.900    21298245.71549  21298242.559 6  83578917.495 6        40.400
  23472554.844 7 123349107.416 7        43.200                    96116203.74247
        27.100    23472557.85247
  22077459.719 8 116017832.965 8        47.800                    90403532.00849
        37.200    22077463.18449
  22722416.211 8 119407116.006 8        47.900    22722423.594 8  93044527.56749
        36.900    22722422.61349  22722420.695 5  89167659.910 5        35.800
  20082355.055 9 105533498.467 9        49.100                    82233917.78949
        45.000    20082358.36749
  21069824.516 9 110722827.662 9        50.000                    86277423.24649
        43.700    21069825.91049
  23834432.273 7 125250830.999 7        44.800    23834438.629 7  97598091.98548
        30.600    23834437.94148  23834434.980 3  93531496.433 3        32.600
  23955258.289 6 125885766.852 6        40.900    23955263.945 6  98092845.71246
        23.500    23955264.03946  23955260.465 1  94005629.306 1        29.300
 17  4  8  0 15  0.0000000  0 10G01G32G08G28G14G03G11G22G27G10
  20750249.164 9 109043309.841 9        52.900    20750256.410 9  84968845.86149
        46.600    20750255.93449  20750252.094 7  81428463.056 7        42.000
  22211404.773 9 116721738.475 9        48.600    22211411.320 9  90952025.38949
        39.900    22211410.70749  22211407.285 6  87162350.612 6        38.100
  21311778.117 9 111994231.240 9        52.000    21311785.395 9  87268233.00649
        45.400    21311784.22749  21311781.188 6  83632047.231 6        40.900
  23472593.336 7 123349308.950 7        43.600                    96116360.77747
        28.500    23472596.73447
  22071403.477 9 115986004.517 9        48.000                    90378730.63549
        36.700    22071406.36349
  22705080.805 9 119316018.936 9        48.100    22705088.082 8  92973542.83649
        37.000    22705087.13749  22705085.039 5  89099632.884 5        35.800
  20078435.859 9 105512902.364 9        49.100                    82217868.87849
        45.500    20078438.33649
  21059948.453 9 110670927.059 9        50.900                    86236981.22249
        43.700    21059949.58249
  23855581.758 7 125361975.535 7        43.100    23855589.121 7  97684698.09248
        31.000    23855588.65248  23855585.984 3  93614493.956 3        33.600
  23974125.992 6 125984919.168 6        39.300    23974131.398 6  98170107.28646
        22.900    23974131.30546  23974126.441 1  94079671.637 1        28.900
 17  4  8  0 15 30.0000000  0 10G01G32G08G28G14G03G11G22G27G10
  20741535.641 9 108997520.625 9        52.800    20741542.906 9  84933165.95149
        46.900    20741542.49249  20741538.766 7  81394269.812 7        42.100
  22214711.734 9 116739116.994 9        48.500    22214718.465 9  90965567.10349
        40.100    22214717.75449  22214714.039 5  87175328.089 5        37.600
  21325400.969 9 112065819.424 9        51.700    21325408.352 9  87324015.99649
        45.600    21325407.33249  21325404.473 6  83685505.929 6        40.800
  23472731.891 7 123350034.224 7        43.000                    96116925.92847
        29.200    23472735.26647
  22065447.805 8 115954710.400 8        47.600                    90354345.61249
        37.500    22065451.57849
  22687795.125 9 119225178.945 9        48.600    22687802.145 8  92902758.45049
        37.900    22687801.17249  22687799.309 5  89031797.849 5        36.100
  20074612.125 9 105492807.997 9        49.300                    82202210.92949
        45.200    20074615.14149
  21050142.766 9 110619399.318 9        51.200                    86196829.73949
        43.600    21050144.12149
  23876757.703 7 125473257.933 7        43.400    23876765.426 7  97771411.63448
        30.400    23876765.16048  23876762.730 3  93697594.409 3        33.200
  23993010.750 6 126084160.335 6        38.100    23993017.789 6  98247438.05046
        22.200    23993017.08646  23993012.520 1  94153780.318 1        29.300
 17  4  8  0 16  0.0000000  0 10G01G32G08G28G14G03G11G22G27G10
  20732880.539 9 108952037.166 9        53.000    20732887.691 9  84897724.29749
        47.000    20732887.46949  20732883.746 7  81360304.893 7        41.800
  22218132.469 9 116757092.939 9        48.400    22218139.098 9  90979574.34149
        39.800    22218138.12949  22218134.297 5  87188751.695 5        37.400
  21339106.984 9 112137845.625 9        51.500    21339114.262 9  87380140.30449
        45.300    21339113.19149  21339110.094 6  83739291.725 6        40.500
  23472969.188 7 123351282.596 7        43.800                    96117898.66847
        29.200    23472972.21147
  22059594.852 9 115923951.512 9        48.000                    90330377.65549
        36.900    22059597.89549
  22670557.672 9 119134596.922 9        48.500    22670564.738 8  92832175.06749
        37.700    22670564.19149  22670561.859 5  88964155.437 5        35.700
  20070883.969 9 105473216.026 9        49.200                    82186944.45449
        45.400    20070886.93849
  21040408.594 9 110568244.433 9        50.000                    86156968.80049
        43.900    21040409.55149
  23897960.313 7 125584675.727 7        43.600    23897967.188 7  97858230.67048
        30.400    23897967.07848  23897963.824 3  93780795.994 3        32.500
  24011912.227 6 126183488.251 6        38.100    24011919.117 6  98324836.40846
        22.900    24011918.61346  24011914.453 1  94227953.734 1        30.000
 17  4  8  0 16 30.0000000  0 10G01G32G08G28G14G03G11G22G27G10
  20724283.813 9 108906860.606 9        53.500    20724290.957 9  84862521.78349
        47.300    20724290.59849  20724286.875 7  81326569.157 7        41.900
  22221666.609 9 116775665.988 9        49.300    22221673.035 8  90994046.84949
        38.900    22221672.38349  22221668.723 5  87202621.192 5        37.600
  21352896.297 9 112210308.984 9        51.700    21352903.602 9  87436605.26749
        45.100    21352902.43849  21352899.105 6  83793403.985 6        39.900
  23473306.492 7 123353053.712 7        42.400                    96119278.75847
        27.900    23473309.95747
  22053843.219 9 115893729.538 9        48.000                    90306828.07949
        37.200    22053846.99249
  22653369.992 9 119044274.312 9        48.100    22653377.320 8  92761793.82749
        37.500    22653376.48049  22653374.617 5  88896706.753 5        36.200
  20067251.641 9 105454127.725 9        49.300                    82172070.45249
        45.100    20067254.51249
  21030744.844 9 110517462.878 9        50.200                    86117398.76749
        43.900    21030746.46949
  23919188.234 7 125696226.999 7        42.700    23919194.527 7  97945153.74747
        29.300    23919193.94947  23919190.285 2  93864097.279 2        31.900
  24030830.609 5 126282901.364 5        37.900    24030836.793 6  98402301.15146
        22.600    24030836.59446  24030832.027 2  94302190.790 2        31.200
 17  4  8  0 17  0.0000000  0 10G01G32G08G28G14G03G11G22G27G10
  20715745.281 9 108861991.745 9        52.900    20715752.824 9  84827559.02349
        47.300    20715752.46949  20715748.332 7  81293063.182 7        42.200
  22225314.539 9 116794835.281 9        49.600    22225321.105 9  91008983.96549
        39.700    22225320.35549  22225317.227 5  87216935.924 5        37.500
  21366768.320 9 112283206.767 9        51.600    21366775.668 9  87493408.72349
        45.700    21366774.68049  21366771.645 6  83847840.628 6        40.200
  23473742.281 7 123355347.151 7        43.200                    96121065.83847
        29.300    23473746.19947
  22048194.836 8 115864045.453 8        47.100                    90283697.62749
        36.800    22048198.42249
  22636231.695 9 118954212.132 9        48.400    22636238.609 8  92691615.51049
        37.900    22636237.91449  22636236.051 5  88829452.542 5        36.000
  20063715.133 9 105435543.812 9        49.300                    82157589.47349
        45.000    20063718.15249
  21021152.688 9 110467054.990 9        51.500                    86078119.89849
        44.000    21021154.17249
  23940441.289 7 125807909.455 7        44.000    23940447.707 7  98032179.02648
        31.300    23940447.00448  23940443.516 3  93947496.505 3        32.600
  24049763.484 5 126382397.952 5        37.500    24049769.660 6  98479830.95146
        22.000    24049768.83246  24049765.320 1  94376490.126 1        30.300
 17  4  8  0 17 30.0000000  0 10G01G32G08G28G14G03G11G22G27G10
  20707266.000 9 108817431.638 9        52.800    20707273.273 9  84792836.87149
        47.400    20707273.00049  20707268.867 7  81259787.787 7        42.500
  22229075.734 9 116814600.375 9        49.800    22229082.074 8  91024385.35249
        39.400    22229081.54349  22229078.180 5  87231695.577 5        37.300
  21380722.758 9 112356537.936 9        51.300    21380730.059 9  87550549.89149
        44.900    21380729.06649  21380725.969 6  83902600.914 6        40.600
  23474278.648 7 123358162.451 7        42.800                    96123259.56347
        28.200    23474282.67647
  22042648.688 8 115834900.681 8        47.900                    90260987.42549
        36.800    22042652.10949
  22619143.086 9 118864411.781 9        48.300    22619150.418 8  92621641.22649
        38.600    22619149.80149  22619147.586 5  88762393.853 5        36.200
  20060275.086 9 105417465.855 9        49.100                    82143502.75349
        45.200    20060277.62949
  21011631.359 9 110417020.921 9        50.100                    86039132.32349
        44.100    21011632.62949
  23961717.016 7 125919721.120 7        43.200    23961724.906 7  98119304.99448
        31.400    23961723.92248  23961720.668 3  94030992.213 3        33.100
  24068713.578 6 126481976.352 6        39.200    24068719.609 6  98557424.49846
        24.600    24068719.56346  24068714.410 1  94450850.600 1        30.300
 17  4  8  0 18  0.0000000  0 10G01G32G08G28G14G03G11G22G27G10
  20698845.188 9 108773181.186 9        53.400    20698852.699 9  84758355.99849
        47.400    20698852.03949  20698848.199 7  81226743.609 7        41.700
  22232950.234 9 116834960.543 9        49.500    22232956.773 9  91040250.42649
        39.500    22232956.04349  22232952.441 5  87246899.609 5        37.100
  21394759.531 9 112430300.807 9        51.500    21394766.965 9  87608027.43649
        45.100    21394765.89849  21394762.918 6  83957683.560 6        40.900
  23474913.375 7 123361499.427 7        43.600                    96125859.79347
        27.900    23474916.81647
  22037205.320 8 115806296.375 8        47.500                    90238698.36549
        37.400    22037208.88349
  22602104.477 9 118774874.413 9        48.300    22602111.402 8  92551871.85349
        38.300    22602110.68449  22602108.824 5  88695531.535 5        36.800
  20056931.344 9 105399894.814 9        49.100                    82129811.03249
        45.400    20056933.97349
  21002181.508 9 110367361.400 9        50.300                    86000436.59449
        43.900    21002183.18449
  23983018.523 7 126031659.851 7        41.900    23983025.320 7  98206529.97547
        29.700    23983024.44547  23983022.012 2  94114582.828 2        31.800
  24087677.461 6 126581634.890 6        39.200    24087684.223 7  98635080.48547
        26.500    24087684.04347  24087678.539 1  94525270.950 1        29.100
 17  4  8  0 18 30.0000000  0 10G01G32G08G28G14G03G11G22G27G10
  20690483.789 9 108729241.349 9        52.800    20690491.344 9  84724117.16749
        47.600    20690491.02749  20690487.242 7  81193931.395 7        42.400
  22236937.219 9 116855915.142 9        49.500    22236943.684 9  91056578.68949
        39.800    22236943.09049  22236939.258 5  87262547.535 5        36.900
  21408877.867 9 112504493.415 9        51.500    21408885.113 9  87665839.86049
        44.900    21408884.03549  21408881.172 6  84013087.131 6        40.300
  23475647.383 7 123365357.410 7        42.900                    96128866.00947
        27.500    23475650.51247
  22031865.758 8 115778233.839 8        47.000                    90216831.47249
        37.300    22031869.12549
  22585116.281 9 118685601.239 9        48.100    22585123.602 8  92482308.35549
        38.100    22585122.93449  22585121.480 5  88628866.521 5        36.600
  20053684.305 9 105382831.554 9        49.100                    82116514.98649
        45.400    20053687.23849
  20992803.047 9 110318077.264 9        50.900                    85962033.37149
        44.100    20992804.15249
  24004344.078 7 126143723.549 7        44.000    24004350.809 7  98293852.32047
        29.600    24004349.65647  24004346.637 2  94198266.742 2        31.600
  24106655.820 6 126681371.994 6        38.600    24106662.953 6  98712797.64046
        23.400    24106663.23046  24106657.668 1  94599749.940 1        29.400
 17  4  8  0 19  0.0000000  0 11G01G32G08G28G17G14G03G11G22G27G10
  20682181.734 9 108685612.977 9        52.700    20682188.879 9  84690121.03749
        47.400    20682188.52049  20682184.855 7  81161351.767 7        42.100
  22241038.430 9 116877463.327 9        50.000    22241044.836 9  91073369.49149
        39.800    22241043.80949  22241040.563 5  87278638.719 5        37.500
  21423077.711 9 112579113.899 9        51.400    21423084.941 9  87723985.69049
        44.600    21423083.75449  21423080.715 6  84068810.218 6        40.200
  23476481.055 7 123369735.964 7        43.700                    96132277.86247
        28.300    23476483.90647
  25589378.500 5 134473096.05715        37.200    25589382.477 4 104784238.49355
        18.600    25589381.93445
  22026628.500 8 115750713.900 8        47.500                    90195387.37149
        37.300    22026632.52349
  22568178.758 9 118596593.399 9        48.200    22568185.750 8  92412951.61049
        37.600    22568184.95349  22568183.383 5  88562399.649 5        36.600
  20050533.844 9 105366277.057 9        48.900                    82103615.36749
        45.300    20050537.10949
  20983496.188 9 110269168.296 9        50.800                    85923922.50649
        44.300    20983497.38349
  24025691.750 7 126255909.993 7        42.900    24025699.195 7  98381270.32847
        29.700    24025698.19147  24025696.227 3  94282042.324 3        33.900
  24125650.445 6 126781185.797 6        39.200    24125656.676 6  98790574.64146
        22.800    24125656.75846  24125652.250 1  94674286.198 1        29.600
 17  4  8  0 19 30.0000000  0 11G01G32G08G28G17G14G03G11G22G27G10
  20673939.031 9 108642296.872 9        53.400    20673945.926 9  84656368.23149
        47.600    20673945.74649  20673942.082 7  81129005.335 7        42.400
