     2.11           OBSERVATION DATA    G (GPS)             RINEX VERSION / TYPE
teqc  2016Nov7                          20170411 00:13:59UTCPGM / RUN BY / DATE
ZIMM                                                        MARKER NAME
14001M004                                                   MARKER NUMBER
TRIMBLE NETR9       SWISSTOPO                               OBSERVER / AGENCY
5429R49141          TRIMBLE NETR9       5.10                REC # / TYPE / VERS
99390               TRM29659.00     NONE                    ANT # / TYPE
  4331297.3480   567555.6400  4633133.7280                  APPROX POSITION XYZ
        0.0000        0.0000        0.0000                  ANTENNA: DELTA H/E/N
     1     1                                                WAVELENGTH FACT L1/2
    10    C1    L1    S1    C2    L2    S2    P2    C5    L5# / TYPES OF OBSERV
          S5                                                # / TYPES OF OBSERV
    30.0000                                                 INTERVAL
Linux 2.4.21-27.ELsmp|Opteron|gcc -static|Linux x86_64|=+   COMMENT
     2.11           OBSERVATION DATA    M (MIXED)           COMMENT
NetR9 5.10          Receiver Operator   10-APR-17 00:00:00  COMMENT
L2C CARRIER PHASE MEASUREMENTS: PHASE SHIFTS REMOVED        COMMENT
L2C PHASE MATCHES L2 P PHASE                                COMMENT
GLONASS C/A & P PHASE MATCH: PHASE SHIFTS REMOVED           COMMENT
GIOVE-A if present is mapped to satellite ID 51             COMMENT
GIOVE-B if present is mapped to satellite ID 52             COMMENT
Forced Modulo Decimation to 30 seconds                      COMMENT
teqc edited: all GLONASS satellites excluded                COMMENT
teqc edited: all Galileo satellites excluded                COMMENT
  2017     4    10     0     0    0.0000000     GPS         TIME OF FIRST OBS
                                                            END OF HEADER
 17  4 10  0  0  0.0000000  0 10G01G32G08G28G14G03G11G22G27G10
  20874960.633 9 109698674.281 9        53.400    20874967.445 9  85479537.80749
        45.700    20874967.29749  20874963.105 6  81917873.002 6        40.900
  22177068.242 8 116541302.947 8        47.700    22177074.848 9  90811427.93449
        39.200    22177073.69549  22177070.449 5  87027623.590 5        36.900
  21137095.906 9 111076207.881 9        51.900    21137102.895 9  86552928.75149
        45.800    21137101.57449  21137098.305 6  82946548.974 6        40.500
  23479827.977 7 123387330.062 7        42.900                    96145984.95447
        28.300    23479830.84047
  22162556.109 8 116465027.758 8        47.800                    90751987.61849
        36.000    22162559.88349
  22953401.234 8 120620946.408 8        47.000    22953409.141 8  93990373.13249
        35.500    22953408.29749  22953406.027 4  90074101.178 4        34.400
  20140435.203 9 105838730.148 9        49.500                    82471760.24149
        45.300    20140437.78949
  21194761.180 9 111379202.127 9        49.500                    86789032.88549
        42.400    21194762.30949
  23570205.313 7 123862293.961 7        43.900    23570212.176 8  96516117.40748
        32.800    23570211.70748  23570208.395 3  92494605.699 3        32.600
  23717489.250 7 124636299.402 7        41.600    23717495.867 7  97119233.62847
        29.900    23717495.58247  23717491.133 2  93072588.999 2        31.800
 17  4 10  0  0 30.0000000  0 10G01G32G08G28G14G03G11G22G27G10
  20865466.984 9 109648785.165 9        53.600    20865474.227 9  85440663.17549
        46.100    20865473.66849  20865469.770 7  81880618.150 7        41.200
  22178800.984 8 116550407.676 8        47.500    22178807.441 9  90818522.55449
        39.100    22178806.53949  22178802.879 5  87034422.598 5        36.600
  21149568.914 9 111141755.077 9        51.900    21149576.523 9  86604004.47149
        46.300    21149575.25849  21149571.984 6  82995496.541 6        40.500
  23478606.781 7 123380911.808 7        43.800                    96140983.72147
        28.300    23478609.25447
  22155248.453 9 116426624.075 9        48.000                    90722062.68449
        36.200    22155251.73849
  22935454.258 8 120526632.938 8        46.500    22935461.625 8  93916882.12449
        35.100    22935460.57449  22935458.301 4  90003672.309 4        34.300
  20135320.156 9 105811850.823 9        49.400                    82450815.31049
        44.500    20135323.11749
  21184035.766 9 111322840.536 9        49.100                    86745114.78149
        42.500    21184037.15649
  23590991.586 7 123971528.845 7        43.700    23590998.910 7  96601235.48448
        32.100    23590998.77748  23590994.176 3  92576177.196 3        32.600
  23736113.016 6 124734167.875 6        40.900    23736118.816 7  97195494.76947
        28.600    23736118.56347  23736114.289 2  93145672.599 2        31.600
 17  4 10  0  1  0.0000000  0 10G01G32G08G28G14G03G11G22G27G10
  20856029.188 9 109599189.195 9        53.400    20856036.270 9  85402016.96449
        46.000    20856035.99249  20856031.859 7  81843582.195 7        41.100
  22180648.281 9 116560115.659 9        48.300    22180654.395 9  90826087.23149
        39.700    22180653.63349  22180649.918 5  87041672.089 5        36.900
  21162129.734 9 111207761.939 9        51.900    21162137.168 9  86655438.36949
        46.100    21162136.06649  21162132.973 6  83044787.370 6        40.500
  23477485.258 7 123375019.566 7        43.400                    96136392.36347
        28.100    23477487.32047
  22148038.320 8 116388736.650 8        47.500                    90692540.04049
        36.000    22148041.85949
  22917552.469 8 120432559.535 8        46.400    22917559.746 8  93843578.20049
        35.800    22917558.87549  22917556.953 4  89933422.714 4        34.700
  20130297.781 9 105785458.033 9        49.300                    82430249.49649
        44.500    20130300.61749
  21173380.766 9 111266845.449 9        49.500                    86701482.27849
        42.600    21173381.93049
  23611810.617 7 124080927.778 7        44.300    23611816.629 7  96686481.39748
        31.000    23611815.90648  23611812.770 3  92657871.213 3        33.100
  23754757.281 6 124832147.128 6        40.300    23754763.590 7  97271842.23647
        26.500    23754763.61347  23754759.688 2  93218838.914 2        31.700
 17  4 10  0  1 30.0000000  0 10G01G32G08G28G14G03G11G22G27G10
  20846647.523 9 109549887.396 9        53.500    20846654.383 9  85363599.97549
        46.000    20846654.35949  20846650.520 7  81806765.909 7        41.400
  22182610.359 9 116570426.720 9        48.600    22182616.723 9  90834121.83649
        39.400    22182616.05549  22182612.633 5  87049371.931 5        37.100
  21174777.688 9 111274227.299 9        51.900    21174784.574 9  86707229.53749
        45.700    21174783.56649  21174780.707 6  83094420.564 6        40.700
  23476464.328 7 123369653.270 7        42.900                    96132210.82447
        29.600    23476467.59847
  22140927.391 8 116351367.012 8        47.300                    90663420.85549
        37.000    22140931.27349
  22899697.102 8 120338727.617 8        46.000    22899704.512 8  93770462.43249
        35.200    22899703.74249  22899701.469 4  89863353.439 4        34.600
  20125368.352 9 105759553.181 9        49.300                    82410063.89249
        44.400    20125370.82049
  21162794.781 9 111211217.384 9        49.700                    86658135.74449
        42.800    21162796.07049
  23632658.750 7 124190488.845 7        43.200    23632665.625 7  96771853.67548
        30.800    23632665.25848  23632662.066 3  92739686.275 3        33.400
  23773423.352 7 124930235.424 7        41.000    23773428.633 6  97348274.67947
        27.400    23773428.80147  23773425.051 2  93292086.652 2        31.500
 17  4 10  0  2  0.0000000  0 10G01G32G08G28G14G03G11G22G27G10
  20837321.992 9 109500881.034 9        53.700    20837329.082 9  85325413.18849
        46.000    20837328.59449  20837324.809 7  81770170.247 7        41.300
  22184687.125 8 116581340.851 8        47.800    22184693.445 8  90842626.37049
        39.400    22184692.81649  22184689.332 5  87057522.102 5        37.300
  21187512.680 9 111341149.789 9        51.800    21187519.672 9  86759376.89249
        45.700    21187518.56649  21187515.703 6  83144395.101 6        40.900
  23475543.578 7 123364812.575 7        43.200                    96128438.82747
        28.600    23475546.45347
  22133914.672 8 116314516.955 8        47.300                    90634706.54249
        36.600    22133918.52349
  22881888.063 8 120245138.785 8        46.300    22881895.285 8  93697536.08749
        36.100    22881894.56349  22881892.586 5  89793465.698 5        35.000
  20120531.938 9 105734137.808 9        49.900                    82390259.70449
        45.100    20120534.87549
  21152279.242 9 111155957.087 9        49.600                    86615075.81149
        42.900    21152280.68449
  23653537.906 7 124300210.194 7        43.600    23653544.805 7  96857350.80948
        31.100    23653544.44148  23653540.836 3  92821621.053 3        32.700
  23792109.617 6 125028431.240 6        40.400    23792115.512 7  97424790.91147
        27.500    23792115.68847  23792111.590 2  93365414.712 2        31.300
 17  4 10  0  2 30.0000000  0 10G01G32G08G28G14G03G11G22G27G10
  20828052.742 9 109452170.781 9        52.800    20828059.512 9  85287457.14649
        46.000    20828059.05949  20828055.277 7  81733795.700 7        41.400
  22186879.078 9 116592857.446 9        48.800    22186885.219 8  90851600.36249
        39.800    22186884.23449  22186880.695 5  87066122.178 5        36.700
  21200334.313 9 111408528.007 9        51.800    21200341.320 9  86811879.39549
        45.500    21200340.31349  21200337.219 6  83194709.993 6        39.900
  23474722.156 7 123360497.462 7        43.700                    96125076.37847
        28.800    23474724.61747
  22127002.078 8 116278188.071 8        47.400                    90606398.34949
        36.000    22127005.44549
  22864124.797 8 120151794.117 8        46.300    22864131.898 8  93624800.00049
        36.200    22864131.29749  22864128.789 4  89723760.285 4        34.800
  20115788.992 9 105709212.788 9        49.500                    82370837.60749
        44.700    20115791.91049
  21141833.117 9 111101064.916 9        49.600                    86572302.71249
        42.600    21141834.12549
  23674447.227 7 124410089.536 7        42.900    23674453.934 7  96942971.06048
        30.500    23674453.90248  23674450.770 3  92903673.799 3        32.800
  23810815.461 6 125126732.695 6        39.100    23810821.297 7  97501389.42847
        25.600    23810821.57847  23810817.594 1  93438821.623 1        30.300
 17  4 10  0  3  0.0000000  0 10G01G32G08G28G14G03G11G22G27G10
  20818839.828 9 109403757.366 9        51.900    20818846.523 9  85249732.41049
        45.900    20818846.51249  20818842.609 7  81697642.833 7        41.100
  22189184.953 9 116604976.112 9        48.200    22189191.254 8  90861043.49549
        39.200    22189190.32449  22189186.898 5  87075171.853 5        37.600
  21213242.320 9 111476359.728 9        51.800    21213249.605 9  86864735.26849
        45.600    21213248.46549  21213245.074 6  83245363.545 6        40.700
  23474000.789 7 123356707.943 7        42.400                    96122123.47947
        28.600    23474003.66447
  22120187.672 8 116242381.498 8        47.500                    90578497.14449
        36.000    22120191.35549
  22846408.203 8 120058694.672 8        46.800    22846415.742 8  93552254.99749
        36.300    22846415.13749  22846413.043 4  89654237.997 4        34.700
  20111139.266 9 105684778.860 9        49.100                    82351798.18249
        44.600    20111141.82849
  21131457.680 9 111046541.147 9        49.900                    86529816.65649
        43.000    21131458.96149
  23695386.258 7 124520124.578 7        44.300    23695393.016 7  97028712.65648
        31.600    23695392.60248  23695390.051 3  92985842.815 3        33.900
  23829541.289 6 125225137.739 6        40.100    23829546.820 6  97578068.67147
        25.700    23829546.63747  23829543.008 1  93512305.890 1        30.200
 17  4 10  0  3 30.0000000  0 10G01G32G08G28G14G03G11G22G27G10
  20809683.867 9 109355641.978 9        52.300    20809690.629 9  85212239.91149
        46.100    20809690.53149  20809686.457 7  81661712.525 7        41.100
  22191605.305 8 116617696.648 8        47.800    22191611.867 8  90870955.60249
        38.800    22191611.14149  22191607.715 5  87084670.959 5        37.000
  21226236.156 9 111544643.954 9        51.800    21226243.391 9  86917943.73949
        45.400    21226242.31649  21226238.984 6  83296354.999 6        39.700
  23473379.445 7 123353443.847 7        43.000                    96119580.03147
        28.000    23473383.00447
  22113473.844 8 116207098.859 8        47.200                    90551004.20949
        36.100    22113477.60249
  22828739.047 8 119965842.006 8        46.800    22828746.848 8  93479902.28349
        36.100    22828746.12149  22828744.320 4  89584899.974 4        34.700
  20106583.352 9 105660838.175 9        49.900                    82333143.10449
        44.900    20106586.34849
  21121152.867 9 110992386.446 9        50.000                    86487618.18849
        43.000    21121153.77049
  23716354.758 7 124630313.439 7        44.200    23716361.477 7  97114574.09548
        30.700    23716360.99248  23716357.918 4  93068126.688 4        34.000
  23848286.797 6 125323644.773 6        40.100    23848292.953 6  97654827.38847
        26.000    23848293.03547  23848288.879 1  93585866.365 1        30.300
 17  4 10  0  4  0.0000000  0 10G01G32G08G28G14G03G11G22G27G10
  20800584.805 9 109307825.365 9        52.300    20800591.594 9  85174980.21649
        46.600    20800591.36349  20800587.289 7  81626005.312 7        41.200
  22194140.695 8 116631018.567 8        47.500    22194146.832 8  90881336.32349
        39.200    22194145.89549  22194142.645 5  87094619.143 5        37.200
  21239316.031 9 111613378.827 9        51.700    21239323.449 9  86971503.35949
        45.300    21239322.24249  21239319.438 7  83347682.959 7        41.200
  23472858.672 7 123350704.948 7        42.900                    96117445.81347
        26.500    23472860.81347
  22106859.789 8 116172341.523 8        47.200                    90523920.57649
        35.900    22106863.07449
  22811116.914 8 119873237.214 8        47.000    22811124.461 8  93407742.71449
        36.600    22811123.79349  22811121.465 4  89515747.064 4        34.900
  20102121.289 9 105637391.084 9        49.300                    82314872.65049
        44.500    20102124.47349
  21110917.820 9 110938601.584 9        50.000                    86445707.89849
        42.600    21110919.19949
  23737351.039 7 124740653.883 7        43.000    23737358.469 7  97200553.64647
        29.800    23737357.63347  23737354.555 3  93150523.770 3        32.300
  23867050.508 6 125422251.934 6        40.000    23867056.758 6  97731664.12647
        25.800    23867056.75847  23867053.066 1  93659501.555 1        30.200
 17  4 10  0  4 30.0000000  0 10G01G32G08G28G14G03G11G22G27G10
  20791542.234 9 109260308.508 9        52.600    20791549.875 9  85137954.09749
        46.000    20791549.59049  20791545.398 7  81590521.953 7        41.100
  22196790.109 9 116644941.441 9        48.700    22196796.668 9  90892185.31549
        39.300    22196796.06349  22196792.168 5  87105016.090 5        37.400
  21252481.344 9 111682562.527 9        51.500    21252488.477 9  87025412.69549
        45.500    21252487.64149  21252484.543 6  83399346.063 6        40.300
  23472437.039 7 123348491.137 7        43.500                    96115720.75747
        27.200    23472439.93447
  22100345.891 8 116138110.961 8        47.300                    90497247.40849
        36.100    22100348.85249
  22793541.930 8 119780881.679 8        46.800    22793549.629 8  93335777.39549
        36.200    22793548.85549  22793546.875 4  89446780.308 4        34.500
  20097754.047 9 105614439.112 9        49.200                    82296987.99649
        45.000    20097756.50049
  21100753.211 9 110885187.042 9        50.200                    86404086.18949
        43.700    21100754.29749
  23758376.352 7 124851143.858 7        44.100    23758383.918 7  97286649.73148
        30.100    23758383.10548  23758380.438 3  93233032.510 3        32.300
  23885833.914 6 125520957.532 6        40.400    23885840.191 6  97808577.56247
        25.000    23885839.62547  23885836.055 1  93733210.254 1        30.000
 17  4 10  0  5  0.0000000  0 10G01G32G08G28G14G03G11G22G27G10
  20782557.367 9 109213092.425 9        52.300    20782564.531 9  85101162.35149
        46.300    20782564.25849  20782560.414 7  81555263.200 7        41.300
  22199553.891 8 116659465.030 8        47.000    22199560.383 9  90903502.38249
        39.700    22199559.93049  22199556.270 5  87115861.618 5        36.900
  21265731.516 9 111752193.866 9        51.200    21265738.996 9  87079670.83649
        44.700    21265737.93049  21265734.773 6  83451343.444 6        40.100
  23472115.648 7 123346802.098 7        42.600                    96114404.58847
        27.900    23472118.79747
  22093932.852 9 116104408.798 9        48.100                    90470985.99249
        36.500    22093936.20749
  22776015.531 8 119688776.733 8        47.500    22776022.250 8  93264007.32349
        36.100    22776021.64849  22776019.785 4  89378000.667 4        34.100
  20093480.906 9 105591983.677 9        49.000                    82279490.25849
        45.200    20093483.29749
  21090659.406 9 110832143.190 9        49.500                    86362753.31949
        43.000    21090660.44949
  23779430.867 7 124961781.310 7        44.900    23779437.781 7  97372860.74648
        30.700    23779436.37948  23779433.773 3  93315651.375 3        32.100
  23904635.281 6 125619759.851 6        40.000    23904640.984 6  97885566.44547
        25.200    23904641.06647  23904636.906 1  93806991.250 1        29.100
 17  4 10  0  5 30.0000000  0 10G01G32G08G28G14G03G11G22G27G10
  20773629.836 9 109166177.962 9        52.300    20773636.855 9  85064605.63049
        46.300    20773636.33249  20773632.547 7  81520229.676 7        41.300
  22202431.391 8 116674588.749 8        46.900    22202438.184 9  90915287.09849
        39.800    22202437.64149  22202433.984 5  87127155.306 5        36.900
  21279066.859 9 111822271.044 9        51.500    21279074.602 9  87134276.40149
        45.200    21279073.40649  21279070.250 6  83503673.773 6        39.900
  23471894.461 7 123345637.663 7        42.800                    96113497.23247
        28.400    23471897.26247
  22087620.234 9 116071236.247 9        48.000                    90445137.27249
        36.600    22087623.46149
  22758536.453 8 119596923.512 8        47.500    22758543.797 8  93192433.41149
        36.400    22758543.05949  22758540.961 4  89309409.006 4        34.900
  20089302.398 9 105570025.621 9        49.600                    82262380.08249
        44.600    20089304.60249
  21080636.227 9 110779470.643 9        49.800                    86321709.79649
        43.000    21080637.55549
  23800511.688 7 125072564.075 7        43.900    23800518.879 7  97459184.94648
        30.500    23800518.33648  23800515.199 3  93398378.758 3        32.300
  23923454.461 6 125718657.185 6        38.400    23923461.426 6  97962629.30746
        23.900    23923460.99646  23923456.602 1  93880843.161 1        30.200
 17  4 10  0  6  0.0000000  0 10G01G32G08G28G14G03G11G22G27G10
  20764759.750 9 109119566.112 9        52.100    20764766.875 9  85028284.71549
        46.300    20764766.36749  20764762.406 7  81485422.135 7        41.300
  22205423.875 8 116690312.132 8        47.300    22205430.203 9  90927539.09449
        39.300    22205429.81349  22205426.156 5  87138896.799 5        36.800
  21292486.820 9 111892792.344 9        51.700    21292494.016 9  87189228.04849
        45.100    21292492.85949  21292489.527 6  83556335.765 6        40.200
  23471771.727 7 123344997.420 7        42.300                    96112998.30547
        28.100    23471775.23047
  22081408.203 9 116038594.484 9        48.200                    90419702.15249
        36.900    22081411.87949
  22741105.508 8 119505323.318 8        47.400    22741112.492 8  93121056.65649
        36.700    22741111.85949  22741109.824 5  89241006.287 5        35.500
  20085218.617 9 105548566.119 9        49.000                    82245658.38749
        44.600    20085221.41049
  21070683.617 9 110727169.838 9        49.800                    86280955.93049
        43.400    21070684.89849
  23821620.578 7 125183490.035 7        44.500    23821627.621 7  97545620.77548
        30.700    23821626.96948  23821623.777 3  93481213.094 3        32.300
  23942292.516 6 125817647.762 6        38.900    23942298.441 6  98039764.77447
        25.200    23942298.50847  23942294.293 1  93954764.657 1        30.200
 17  4 10  0  6 30.0000000  0 10G01G32G08G28G14G03G11G22G27G10
  20755947.313 9 109073257.662 9        52.200    20755954.766 9  84992200.21349
        46.100    20755954.37149  20755950.473 7  81450841.165 7        41.400
  22208529.852 9 116706634.651 9        48.700    22208536.484 9  90940257.95449
        39.900    22208535.70349  22208532.223 5  87151085.706 5        37.500
  21305990.758 9 111963756.151 9        51.700    21305997.887 9  87244524.50549
        45.000    21305996.93449  21305993.723 6  83609328.196 6        39.800
  23471750.305 7 123344881.218 7        41.800                    96112907.71447
        27.500    23471753.22747
  22075298.320 8 116006485.115 8        47.600                    90394681.89549
        36.600    22075302.05549
  22723722.781 8 119413977.323 8        46.600    22723730.406 8  93049877.97849
        36.400    22723729.56349  22723727.527 5  89172793.396 5        35.000
  20081230.406 9 105527606.101 9        49.300                    82229325.91049
        44.800    20081232.87149
  21060801.758 9 110675241.340 9        50.200                    86240492.16849
        43.200    21060802.80149
  23842755.578 7 125294557.065 7        43.700    23842762.977 7  97632166.51247
        29.600    23842762.07447  23842759.176 3  93564152.765 3        32.200
  23961147.031 6 125916729.688 6        39.000    23961151.910 5  98116971.47546
        23.200    23961151.89146  23961147.672 1  94028754.406 1        29.300
 17  4 10  0  7  0.0000000  0 10G01G32G08G28G14G03G11G22G27G10
  20747193.195 9 109027253.557 9        52.200    20747200.352 9  84956352.87449
        46.300    20747200.04749  20747195.969 6  81416487.460 6        40.800
  22211750.063 9 116723555.711 9        48.800    22211756.445 9  90953443.20349
        39.200    22211755.63349  22211752.207 5  87163721.575 5        37.200
  21319578.547 9 112035160.710 9        51.400    21319585.871 9  87300164.39949
        45.200    21319584.87949  21319581.723 6  83662649.754 6        40.400
  23471827.648 7 123345288.769 7        42.100                    96113225.25647
        28.600    23471830.82447
  22069289.461 9 115974909.217 9        48.400                    90370077.32349
        36.400    22069293.27049
  22706388.773 8 119322886.757 8        46.700    22706396.434 8  92978898.34049
        35.900    22706395.54749  22706393.336 5  89104771.244 5        35.100
  20077336.633 9 105507146.946 9        48.700                    82213383.71249
        44.600    20077339.63749
  21050991.039 9 110623685.259 9        49.600                    86200318.61649
        43.100    21050992.23849
  23863917.063 7 125405763.005 7        43.100    23863924.945 7  97718820.47747
        29.400    23863923.80147  23863921.660 3  93647196.138 3        33.600
  23980018.500 6 126015901.298 6        38.300    23980023.961 6  98194248.06546
        23.200    23980023.47746  23980018.910 1  94102811.142 1        28.900
 17  4 10  0  7 30.0000000  0 10G01G32G08G28G14G03G11G22G27G10
  20738497.094 9 108981554.871 9        52.100    20738504.195 9  84920743.51549
        46.500    20738504.00449  20738500.219 7  81382361.821 7        41.200
  22215083.742 9 116741074.920 9        48.200    22215090.203 9  90967094.55749
        39.200    22215089.41849  22215085.816 5  87176804.115 5        37.500
  21333249.945 9 112107004.601 9        51.200    21333257.355 9  87356146.62649
        44.500    21333256.28549  21333253.363 6  83716299.388 6        39.800
  23472005.063 7 123346219.721 7        42.400                    96113950.66447
        27.100    23472008.37947
  22063382.203 8 115943868.278 8        47.500                    90345889.58949
        35.900    22063386.39149
  22689104.023 9 119232052.974 9        48.100    22689110.914 8  92908118.77649
        36.300    22689109.86349  22689107.887 5  89036940.831 5        35.600
  20073539.141 9 105487189.954 9        49.100                    82197832.81249
        45.100    20073542.05949
  21041251.125 9 110572502.447 9        50.000                    86160435.92849
        43.200    21041252.70349
  23885104.852 7 125517105.830 7        43.200    23885112.449 7  97805581.10648
        30.500    23885111.84448  23885108.941 3  93730341.731 3        32.600
  23998906.828 5 126115161.072 5        37.900    23998913.629 6  98271593.32646
        22.600    23998913.19546  23998907.922 1  94176933.698 1        29.400
 17  4 10  0  8  0.0000000  0 10G01G32G08G28G14G03G11G22G27G10
  20729859.398 9 108936162.399 9        52.500    20729866.480 9  84885372.76449
        46.700    20729866.05149  20729862.445 7  81348464.852 7        41.800
  22218530.922 9 116759191.513 9        48.600    22218537.582 8  90981211.39349
        39.600    22218536.77749  22218533.004 5  87190332.763 5        36.600
  21347004.836 9 112179285.816 9        51.300    21347012.254 9  87412469.63749
        44.900    21347011.21949  21347008.184 6  83770275.606 6        40.200
  23472282.250 7 123347673.570 7        42.700                    96115083.51247
        28.900    23472284.86347
  22057577.758 8 115913363.409 8        47.300                    90322119.58349
        36.300    22057581.14849
  22671867.750 9 119141477.109 9        48.100    22671875.168 8  92837540.21649
        37.200    22671874.34849  22671872.195 5  88969303.048 5        35.500
  20069837.266 9 105467735.614 9        48.900                    82182673.58749
        44.600    20069840.02049
  21031582.617 9 110521692.981 9        49.800                    86120844.15349
        43.400    21031583.72349
  23906319.461 7 125628583.359 7        44.300    23906326.063 7  97892446.70848
        30.200    23906325.05948  23906322.098 1  93813587.924 1        30.600
  24017811.422 5 126214507.082 5        36.700    24017818.137 6  98349005.81146
        22.800    24017817.97346  24017813.227 1  94251120.633 1        30.000
 17  4 10  0  8 30.0000000  0 10G01G32G08G28G14G03G11G22G27G10
  20721279.969 9 108891077.087 9        52.500    20721287.266 9  84850241.35349
        46.800    20721286.90249  20721283.059 7  81314797.249 7        41.700
  22222091.813 9 116777904.990 9        48.400    22222098.664 8  90995793.33649
        39.400    22222097.72349  22222094.004 5  87204307.132 5        36.600
  21360842.477 9 112252002.801 9        51.400    21360849.781 9  87469132.20649
        44.900    21360848.70749  21360845.551 6  83824577.235 6        40.300
  23472657.586 7 123349649.977 7        42.900                    96116623.54047
        28.200    23472660.94547
  22051874.906 8 115883395.842 8        47.300                    90298768.24649
        36.700    22051878.19549
  22654680.828 8 119051160.394 8        47.500    22654688.301 8  92767163.56349
        37.400    22654687.34449  22654685.305 5  88901858.767 5        35.700
  20066230.977 9 105448785.478 9        48.900                    82167907.24949
        44.600    20066233.87549
  21021985.086 9 110471257.207 9        50.000                    86081543.55949
        43.600    21021986.41449
  23927557.867 7 125740193.444 7        42.900    23927564.848 7  97979415.60347
        29.300    23927564.04747  23927560.676 3  93896933.140 3        32.100
  24036732.969 5 126313937.700 5        35.900    24036739.008 6  98426484.17546
        21.300    24036739.13746  24036734.742 2  94325370.753 2        31.300
 17  4 10  0  9  0.0000000  0 10G01G32G08G28G14G03G11G22G27G10
  20712759.250 9 108846299.986 9        52.500    20712766.016 9  84815350.10149
        46.900    20712765.71149  20712761.809 7  81281359.809 7        41.400
  22225766.477 9 116797214.754 9        48.100    22225772.879 9  91010839.90549
        38.600    22225772.34849  22225769.043 5  87218726.755 5        37.400
  21374762.570 9 112325153.852 9        51.100    21374769.648 9  87526133.01249
        45.100    21374768.40649  21374765.250 6  83879203.002 6        39.600
  23473133.508 7 123352148.640 7        42.500                    96118570.54447
        28.300    23473136.23047
  22046274.414 8 115853967.020 8        46.900                    90275836.70849
        36.400    22046278.21949
  22637543.758 8 118961104.129 8        47.700    22637550.973 8  92696989.87149
        36.700    22637550.10949  22637548.367 5  88834608.979 5        35.500
  20062721.008 9 105430340.436 9        48.900                    82153534.48549
        45.000    20062723.84449
  21012458.875 9 110421196.134 9        49.800                    86042534.94949
        43.600    21012460.05549
  23948821.063 7 125851934.097 7        42.700    23948828.414 7  98066486.23548
        30.600    23948827.73448  23948824.367 3  93980375.812 3        32.800
  24055669.781 5 126413451.415 5        36.600    24055675.617 6  98504027.30746
        22.200    24055675.52346  24055670.840 1  94399682.862 1        29.900
 17  4 10  0  9 30.0000000  0 10G01G32G08G28G14G03G11G22G27G10
  20704297.102 9 108801831.870 9        52.400    20704304.086 9  84780699.62449
        47.200    20704304.02749  20704300.012 7  81248153.095 7        41.800
  22229554.898 9 116817120.023 9        49.200    22229561.164 8  91026350.51149
        38.700    22229560.28149  22229556.855 5  87233591.083 5        37.400
  21388764.836 9 112398737.051 9        51.200    21388772.246 9  87583470.55049
        44.700    21388771.26249  21388768.344 6  83934151.470 6        40.600
  23473708.367 7 123355169.106 7        43.600                    96120924.12247
        27.500    23473711.37947
  22040777.406 8 115825077.876 8        47.300                    90253325.71349
        36.600    22040780.92649
  22620456.266 9 118871309.392 9        48.100    22620463.699 8  92627019.96849
        36.900    22620462.99249  22620460.781 5  88767554.497 5        35.500
  20059307.570 9 105412401.341 9        48.800                    82139555.97849
        44.700    20059310.37149
  21003003.852 9 110371509.596 9        50.700                    86003818.16649
        43.500    21003004.58649
  23970108.984 7 125963803.016 7        41.600    23970115.832 7  98153656.81247
        29.800    23970115.35247  23970111.863 3  94063914.289 3        32.100
  24074622.422 6 126513046.202 6        38.400    24074628.285 7  98581633.62146
        24.500    24074628.11346  24074622.723 1  94474055.598 1        28.800
 17  4 10  0 10  0.0000000  0 10G01G32G08G28G14G03G11G22G27G10
  20695894.070 9 108757673.593 9        53.100    20695900.988 9  84746290.58149
        46.700    20695900.82049  20695896.629 7  81215177.771 7        41.500
  22233455.484 9 116837620.111 9        49.100    22233461.848 9  91042324.60949
        38.800    22233461.35249  22233457.516 5  87248899.590 5        36.500
  21402849.141 9 112472750.618 9        51.000    21402856.285 9  87641143.44949
        44.600    21402855.37549  21402852.336 6  83989421.332 6        40.200
  23474382.008 7 123358711.004 7        41.700                    96123684.01447
        27.400    23474384.51647
  22035382.813 8 115796729.696 8        47.000                    90231236.23949
        36.500    22035386.05149
  22603418.758 8 118781777.364 8        47.800    22603426.043 8  92557254.77449
        38.000    22603425.47749  22603423.379 5  88700696.193 5        35.400
  20055989.969 9 105394969.438 9        48.700                    82125972.67949
        44.500    20055993.11749
  20993620.070 9 110322198.381 9        50.300                    85965393.85449
        43.500    20993621.14149
  23991420.719 7 126075798.024 7        41.900    23991428.027 7  98240925.65147
        28.600    23991426.69547  23991423.910 2  94147546.921 2        31.900
  24093589.797 5 126612720.497 5        37.500    24093595.656 7  98659301.88146
        24.300    24093595.44546  24093590.172 1  94548487.687 1        28.400
 17  4 10  0 10 30.0000000  0 11G01G32G08G28G17G14G03G11G22G27G10
  20687550.281 9 108713826.357 9        52.500    20687557.449 9  84712123.91449
        46.900    20687557.04349  20687553.027 7  81182434.714 7        41.700
  22237469.477 9 116858714.470 9        48.500    22237475.855 8  91058761.76749
        39.600    22237475.05549  22237471.281 5  87264651.868 5        36.500
  21417015.031 9 112547192.905 9        51.000    21417022.414 9  87699150.41849
        44.500    21417021.30949  21417018.270 6  84045011.345 6        39.900
  23475155.555 7 123362773.891 7        42.900                    96126849.90447
        27.000    23475157.54347
  25596496.008 6 134510495.78116        38.300    25596500.297 5 104813389.18156
        20.400    25596499.84846
  22030091.492 8 115768923.844 8        46.400                    90209569.36349
        36.600    22030095.22749
  22586431.422 8 118692509.387 8        46.800    22586439.043 8  92487695.33949
        37.500    22586438.54349  22586436.859 5  88634035.068 5        36.100
  20052769.570 9 105378045.971 9        48.700                    82112785.56549
        45.200    20052772.45349
  20984308.070 9 110273262.804 9        50.900                    85927262.25349
        43.800    20984309.10549
  24012757.063 7 126187917.230 7        43.100    24012763.742 7  98328291.24948
        30.200    24012763.02748  24012759.598 3  94231272.292 3        32.700
  24112571.148 5 126712472.887 5        37.100    24112578.152 6  98737030.95646
        22.900    24112578.00046  24112572.785 1  94622978.082 1        28.600
 17  4 10  0 11  0.0000000  0 11G01G32G08G28G17G14G03G11G22G27G10
  20679265.953 9 108670290.931 9        53.000    20679273.016 9  84678200.20449
        47.000    20679272.62549  20679268.781 7  81149924.490 7        41.700
  22241596.508 9 116880402.290 9        49.900    22241602.715 9  91075661.37349
        39.400    22241602.16049  22241598.387 5  87280847.329 5        36.900
  21431262.039 9 112622061.935 9        50.800    21431269.520 9  87757489.91549
        44.100    21431268.17649  21431265.195 6  84100920.031 6        39.900
  23476027.891 7 123367357.350 7        43.000                    96130421.47647
        28.000    23476030.55547
  25576627.094 6 134406082.199 6        38.000    25576630.699 5 104732027.94845
        19.300    25576630.71145
  22024903.594 8 115741661.238 8        47.900                    90188325.78649
        36.800    22024907.28949
  22569495.195 8 118603506.548 8        47.300    22569502.371 8  92418342.51049
        37.100    22569501.45349  22569499.941 5  88567571.950 5        35.900
  20049646.352 9 105361631.648 9        48.700                    82099995.18149
        44.700    20049648.85249
  20975067.242 9 110224703.079 9        50.400                    85889423.52249
        43.700    20975068.55949
  24034115.258 7 126300158.344 7        41.700    24034123.285 7  98415751.86548
        31.200    24034122.30948  24034119.465 3  94315088.690 3        32.700
  24131569.000 6 126812301.352 6        39.600    24131574.238 6  98814819.37846
        21.100    24131574.44546  24131569.527 1  94697525.320 1        28.600
 17  4 10  0 11 30.0000000  0 11G01G32G08G28G17G14G03G11G22G27G10
  20671040.852 9 108627068.306 9        52.700    20671048.117 9  84644520.24449
        47.000    20671047.55149  20671043.594 7  81117647.869 7        41.700
  22245836.648 9 116902682.907 9        48.800    22245843.152 8  91093022.90549
        39.200    22245842.35249  22245839.047 5  87297485.460 5        37.300
  21445590.414 9 112697356.313 9        51.300    21445597.563 9  87816160.84649
        44.500    21445596.52749  21445593.313 6  84157146.346 6        39.500
  23476998.344 7 123372460.740 7        43.200                    96134398.11747
        26.700    23477001.43447
  25556769.539 6 134301728.194 6        40.800    25556772.730 5 104650713.12446
        22.300    25556772.59446
  22019820.211 8 115714943.055 8        47.000                    90167506.45049
        36.900    22019823.23449
  22552608.898 8 118514770.159 8        47.000    22552616.113 8  92349197.28549
        38.000    22552615.11749  22552613.605 5  88501307.791 5        36.400
  20046619.969 9 105345727.589 9        48.700                    82087602.41449
        44.900    20046622.62949
  20965898.531 9 110176519.384 9        50.300                    85851877.78149
        43.900    20965899.64149
  24055496.711 7 126412519.305 7        42.300    24055504.129 7  98503305.85047
        29.400    24055503.83247  24055499.992 1  94398994.588 1        30.900
  24150579.563 6 126912204.492 6        39.800    24150585.203 6  98892665.99546
        23.000    24150585.40646  24150580.250 1  94772128.335 1        27.500
 17  4 10  0 12  0.0000000  0 11G01G32G08G28G17G14G03G11G22G27G10
  20662875.438 9 108584159.552 9        53.200    20662882.496 9  84611084.85449
        46.900    20662882.13349  20662878.527 7  81085605.618 7        41.500
  22250189.172 9 116925555.619 9        49.200    22250195.320 8  91110845.79549
        38.700    22250194.37549  22250190.949 5  87314565.731 5        36.700
  21459998.797 9 112773074.431 9        51.000    21460006.031 9  87875161.97749
        44.200    21460005.06349  21460001.965 6  84213689.084 6        39.900
  23478069.047 7 123378083.458 7        43.200                    96138779.45247
        26.600    23478071.29347
  25536923.422 6 134197435.616 6        39.800    25536927.008 6 104569446.17246
        22.800    25536926.49646
  22014839.289 8 115688770.823 8        47.400                    90147112.52849
        36.400    22014842.67249
  22535774.195 8 118426301.426 8        47.700    22535781.379 8  92280260.63049
        37.300    22535780.55549  22535779.043 5  88435243.500 5        36.000
  20043690.898 9 105330334.694 9        48.900                    82075607.94749
        44.600    20043693.19549
  20956801.031 9 110128713.083 9        50.400                    85814626.14249
        44.000    20956802.14849
  24076901.164 7 126524998.115 7        41.800    24076908.008 7  98590951.66547
        27.900    24076907.16047  24076904.316 2  94482988.494 2        31.100
  24169604.391 6 127012180.770 6        38.300    24169610.063 6  98970569.58746
        24.200    24169609.84046  24169605.625 1  94846785.903 1        29.600
 17  4 10  0 12 30.0000000  0 11G01G32G08G28G17G14G03G11G22G27G10
  20654770.086 9 108541565.276 9        53.200    20654776.805 9  84577894.52149
        47.000    20654776.66449  20654772.996 7  81053798.214 7        42.100
  22254653.961 9 116949019.304 9        49.300    22254660.824 8  91129129.19449
        39.100    22254659.62949  22254656.320 5  87332087.316 5        36.500
  21474487.633 9 112849213.484 9        50.900    21474494.742 9  87934491.09749
        44.200    21474494.03149  21474490.875 6  84270546.165 6        40.200
  23479237.414 7 123384224.932 7        41.700                    96143564.99347
        28.000    23479239.81647
  25517088.844 5 134093206.233 5        37.000    25517092.012 6 104488228.55446
        20.400    25517092.69546
  22009962.945 8 115663144.770 8        47.300                    90127144.19449
        36.000    22009966.23849
  22518990.102 9 118338101.217 9        48.700    22518997.336 8  92211533.21149
        37.700    22518996.69949  22518994.957 5  88369379.725 5        36.900
  20040859.188 9 105315453.641 9        48.800                    82064012.32449
        44.600    20040861.53949
  20947775.352 9 110081283.389 9        50.100                    85777667.95149
        44.100    20947776.66049
  24098326.836 7 126637592.293 7        41.700    24098334.863 7  98678687.38948
        30.400    24098333.76248  24098331.035 2  94567068.570 2        31.900
  24188642.766 6 127112228.103 6        39.600    24188648.523 6  99048528.51446
        23.000    24188648.62546  24188644.176 1  94921496.533 1        30.000
 17  4 10  0 13  0.0000000  0 11G01G32G08G28G17G14G03G11G22G27G10
  20646724.695 9 108499286.265 9        52.900    20646731.285 9  84544949.84049
        47.200    20646731.12549  20646727.227 7  81022226.239 7        41.600
  22259231.070 9 116973073.045 9        48.900    22259238.082 8  91147872.36749
        38.400    22259237.60949  22259233.719 5  87350049.524 5        37.800
  21489056.469 9 112925772.188 9        50.700    21489063.766 9  87994147.21849
        44.200    21489062.82449  21489059.434 6  84327716.619 6        40.500
  23480504.766 7 123390884.544 7        42.000                    96148754.29747
        27.200    23480507.26647
  25497267.438 6 133989042.343 6        38.500    25497270.758 6 104407061.77546
        22.500    25497270.47746
  22005190.070 8 115638066.136 8        47.300                    90107602.41649
        35.900    22005193.57849
  22502257.273 8 118250170.599 8        47.800    22502264.438 8  92143015.87249
        37.500    22502263.53549  22502262.199 5  88303717.282 5        35.900
  20038124.414 9 105301085.703 9        48.400                    82052816.52649
        44.800    20038127.32049
  20938821.313 9 110034230.967 9        49.700                    85741003.72449
        43.800    20938822.96549
  24119774.250 7 126750299.567 7        42.800    24119781.695 7  98766511.20447
        29.700    24119781.49247  24119777.828 3  94651233.067 3        32.100
  24207694.648 6 127212344.859 6        39.100    24207699.883 6  99126541.58446
        23.000    24207699.88346  24207695.668 1  94996259.029 1        29.100
 17  4 10  0 13 30.0000000  0 11G01G32G08G28G17G14G03G11G22G27G10
  20638739.531 9 108457324.169 9        53.000    20638746.270 9  84512252.12449
        47.100    20638746.12149  20638742.164 7  80990890.927 7        41.600
  22263921.023 9 116997716.716 9        48.700    22263927.629 9  91167075.23149
        39.200    22263927.12549  22263923.352 5  87368452.272 5        36.200
  21503704.641 9 113002748.905 9        50.900    21503712.309 9  88054129.07149
        44.100    21503710.71949  21503707.563 6  84385199.227 6        39.400
  23481870.383 7 123398062.373 7        43.800                    96154347.42047
        28.700    23481873.40647
  25477459.344 7 133884946.467 7        42.000    25477462.641 5 104325948.22546
        22.000    25477461.38746
  22000522.625 8 115613536.878 8        47.800                    90088488.72849
        36.900    22000526.51649
  22485576.500 9 118162511.443 9        48.100    22485583.660 8  92074710.05949
        37.800    22485582.57049  22485580.945 5  88238257.554 5        35.700
  20035488.688 9 105287232.563 9        48.400                    82042021.87949
        44.600    20035491.50849
  20929939.820 9 109987556.879 9        50.000                    85704634.34449
        44.000    20929940.71949
  24141242.711 7 126863118.553 7        41.800    24141249.973 7  98854422.10747
        29.200    24141249.32047  24141246.184 1  94735481.006 1        30.900
  24226759.328 6 127312530.102 6        39.200    24226765.109 6  99204608.00246
        22.000    24226764.10946  24226760.129 1  95071072.702 1        27.400
 17  4 10  0 14  0.0000000  0 11G01G32G08G28G17G14G03G11G22G27G10
  20630814.852 9 108415679.353 9        52.800    20630821.629 9  84479801.63349
        47.600    20630821.56649  20630817.254 7  80959792.546 7        42.000
  22268722.445 9 117022948.857 9        49.500    22268728.934 8  91186736.64349
        39.000    22268728.37949  22268724.781 5  87387294.466 5        37.000
  21518431.867 9 113080141.258 9        51.100    21518439.348 9  88114434.80149
        43.700    21518438.13349  21518435.035 6  84442992.214 6        39.500
  23483334.367 7 123405756.910 7        42.100                    96160343.11947
        26.700    23483337.28147
  25457662.680 6 133780920.107 6        39.200    25457666.891 5 104244888.68346
        21.100    25457665.60546
  21995959.117 9 115589557.231 9        48.600                    90069803.30449
        36.700    21995962.66049
  22468947.242 9 118075124.294 9        48.000    22468954.336 8  92006616.21349
        38.200    22468953.85549  22468951.758 5  88173000.958 5        36.000
  20032950.164 9 105273893.950 9        48.400                    82031628.15349
        44.900    20032952.88349
  20921129.961 9 109941260.617 9        50.500                    85668559.34449
        43.900    20921130.77749
  24162733.203 7 126976046.550 7        42.100    24162739.926 7  98942417.93647
        28.500    24162738.83647  24162735.758 2  94819810.354 2        31.000
  24245836.789 6 127412781.641 6        38.900    24245842.543 6  99282726.08046
        22.200    24245841.83246  24245837.910 1  95145935.872 1        27.700
 17  4 10  0 14 30.0000000  0 11G01G32G08G28G17G14G03G11G22G27G10
  20622950.500 9 108374352.771 9        53.000    20622957.770 9  84447599.11649
        47.300    20622957.10249  20622953.262 7  80928931.805 7        42.200
  22273635.633 9 117048768.572 9        48.800    22273641.969 8  91206855.91949
        38.800    22273641.26649  22273637.668 5  87406575.438 5        37.500
  21533237.984 9 113157947.503 9        50.500    21533245.426 9  88175063.04349
        43.500    21533244.54349  21533241.273 6  84501094.278 6        39.300
  23484896.969 7 123413967.875 7        42.200                    96166741.22347
        28.400    23484899.97747
  25437879.984 5 133676965.658 5        36.500    25437883.945 4 104163885.16645
        16.900    25437883.49645
  21991500.695 9 115566128.106 9        48.700                    90051546.87049
        36.700    21991504.54749
  22452370.078 9 117988010.334 9        48.100    22452377.121 8  91938735.21949
        38.600    22452376.26249  22452374.402 5  88107948.336 5        36.600
  20030510.469 9 105261071.230 9        48.600                    82021636.41849
        44.800    20030513.12949
  20912392.055 9 109895342.468 9        50.200                    85632778.96749
        44.300    20912393.21949
  24184242.883 7 127089081.353 7        41.300    24184250.133 7  99030496.98548
        30.400    24184249.65248  24184246.281 2  94904219.448 2        31.600
  24264925.328 5 127513097.902 5        37.400    24264931.215 6  99360894.53546
        20.400    24264931.55946  24264927.691 1  95220847.336 1        28.200
 17  4 10  0 15  0.0000000  0 11G01G32G08G28G17G14G03G11G22G27G10
  20615147.344 9 108333345.496 9        53.900    20615154.141 9  84415645.40949
        47.500    20615153.66449  20615149.531 7  80898309.510 7        42.000
  22278660.453 9 117075175.194 9        48.800    22278666.879 8  91227432.52649
        38.900    22278666.05949  22278662.637 5  87426294.681 5        36.700
  21548122.328 9 113236166.000 9        50.500    21548129.500 9  88236012.51149
        43.900    21548128.69949  21548125.602 6  84559504.183 6        39.400
  23486558.016 7 123422694.515 7        43.700                    96173541.14647
        26.700    23486560.26647
  25418113.961 7 133573085.351 7        41.100    25418117.680 6 104082939.53547
        26.700    25418116.87947
  21987147.344 9 115543250.786 9        48.700                    90033720.42249
        36.400    21987150.94149
  22435845.063 9 117901170.895 9        49.100    22435852.055 8  91871068.15249
        38.800    22435851.60949  22435849.453 5  88043100.742 5        35.900
  20028168.648 9 105248765.596 9        48.600                    82012047.61749
        44.700    20028171.58249
  20903726.148 9 109849803.120 9        50.800                    85597293.77249
        44.300    20903727.10249
  24205772.898 7 127202221.062 7        41.600    24205779.742 7  99118657.78347
        28.500    24205778.98847  24205776.203 3  94988706.862 3        32.800
  24284027.102 5 127613477.393 5        37.000    24284033.117 5  99439112.37445
        19.000    24284032.81345  24284028.828 1  95295806.030 1        27.400
 17  4 10  0 15 30.0000000  0 11G01G32G08G28G17G14G03G11G22G27G10
  20607404.523 9 108292658.372 9        55.000    20607411.484 9  84383941.17049
        47.500    20607411.17249  20607407.039 7  80867926.272 7        42.400
  22283797.336 9 117102167.685 9        48.200    22283803.359 8  91248465.65149
        38.300    22283802.68049  22283798.844 5  87446451.438 5        36.600
  21563084.867 9 113314794.553 9        51.100    21563092.375 9  88297281.50749
        43.600    21563091.21549  21563087.824 6  84618220.316 6        39.700
  23488316.898 7 123431936.264 7        43.500                    96180742.49647
        27.300    23488319.21947
  25398360.016 6 133469281.053 6        40.000    25398362.992 5 104002053.07046
        21.100    25398362.09846
  21982899.266 9 115520926.257 9        48.600                    90016324.69149
        37.200    21982902.90249
  22419372.008 9 117814606.958 9        48.300    22419379.539 8  91803615.75749
        38.700    22419378.88349  22419376.848 5  87978458.863 5        36.600
  20025925.328 9 105236977.559 9        48.500                    82002862.13149
        44.900    20025928.28549
  20895132.391 9 109804642.737 9        50.600                    85562103.88249
        44.300    20895133.39849
  24227321.438 6 127315463.468 6        40.900    24227328.820 7  99206898.61647
        28.200    24227328.32847  24227325.133 2  95073270.964 2        31.900
  24303140.281 5 127713918.445 5        35.800    24303146.637 5  99517378.14345
        18.300    24303145.69145  24303141.184 1  95370810.733 1        25.600
 17  4 10  0 16  0.0000000  0 11G01G32G08G28G17G14G03G11G22G27G10
  20599723.406 9 108252292.353 9        54.400    20599730.234 9  84352487.13149
        47.500    20599730.00849  20599726.051 7  80837782.818 7        42.100
  22289045.148 9 117129745.061 9        48.800    22289051.469 8  91269954.53649
        38.800    22289050.87149  22289047.039 5  87467044.960 5        36.800
  21578125.180 9 113393831.642 9        50.300    21578132.582 9  88358868.85049
        43.600    21578131.27749  21578128.063 6  84677241.515 6        39.900
  23490172.789 7 123441692.622 7        42.900                    96188344.84147
        26.500    23490175.50847
  25378619.680 6 133365554.990 6        38.300    25378624.715 4 103921227.63045
        18.300    25378623.82845
  21978756.164 9 115499154.964 9        48.500                    89999360.06049
        36.700    21978759.52049
  22402951.977 9 117728319.730 9        48.600    22402959.672 8  91736378.97649
        38.600    22402958.87549  22402956.840 5  87914023.626 5        37.300
  20023780.844 9 105225708.258 9        48.800                    81994080.85049
        44.400    20023783.79349
  20886610.734 9 109759861.604 9        50.900                    85527209.49849
        44.100    20886611.66449
  24248890.500 7 127428806.356 7        42.100    24248897.402 7  99295217.75647
        28.700    24248896.46147  24248892.738 2  95157910.166 2        31.300
  24322266.273 5 127814419.617 5        35.900    24322271.715 5  99595690.69045
        19.300    24322271.03545  24322266.293 1  95445860.291 1        25.400
 17  4 10  0 16 30.0000000  0 11G01G32G08G28G17G14G03G11G22G27G10
  20592102.969 9 108212248.188 9        54.200    20592110.016 9  84321283.87849
        47.600    20592109.60549  20592105.703 7  80807879.700 7        41.800
  22294404.094 9 117157906.104 9        48.700    22294410.258 8  91291898.23049
        38.800    22294409.56349  22294406.137 5  87488074.329 5        36.900
  21593242.781 9 113473275.017 9        50.900    21593250.297 9  88420772.77849
        43.200    21593248.93049  21593246.066 6  84736566.113 6        39.400
  23492127.539 7 123451962.513 7        43.400                    96196347.34947
        26.800    23492130.55947
  25358896.727 5 133261909.169 5        37.400    25358901.586 5 103840464.51046
        20.400    25358899.87946
  21974719.148 9 115477937.704 9        48.500                    89982827.15349
        37.400    21974721.69149
  22386585.219 9 117642310.131 9        49.600    22386592.539 8  91669358.53749
        39.200    22386591.89549  22386589.449 5  87849795.703 5        36.000
  20021735.250 9 105214958.284 9        48.300                    81985704.24549
        45.200    20021738.13749
  20878161.461 9 109715459.501 9        50.900                    85492610.46349
        44.200    20878162.44149
  24270476.977 7 127542247.448 7        41.300    24270484.785 7  99383613.39547
        29.700    24270484.13347  24270480.586 2  95242622.649 2        31.400
  24341401.156 5 127914979.022 5        35.300    24341407.199 5  99674048.64145
        18.600    24341407.37545  24341402.570 1  95520953.376 1        26.900
 17  4 10  0 17  0.0000000  0 11G01G32G08G28G17G14G03G11G22G27G10
  20584544.031 9 108172527.141 9        55.000    20584551.664 9  84290332.40149
        47.400    20584551.09449  20584547.254 7  80778217.874 7        41.800
  22299873.414 9 117186650.215 9        48.800    22299880.285 8  91314296.25449
        38.400    22299879.27049  22299875.902 5  87509539.101 5        36.200
  21608437.297 9 113553123.151 9        50.700    21608444.879 9  88482992.09949
        43.500    21608443.77749  21608440.742 6  84796192.963 6        39.400
  23494179.430 7 123462745.393 7        43.500                    96204749.53247
        26.600    23494182.25047
  25339189.602 5 133158345.992 5        37.000    25339194.742 6 103759766.03746
        21.700    25339194.62146
  21970786.977 9 115457276.074 9        49.100                    89966727.19549
        37.300    21970790.43049
  22370271.391 9 117556579.588 9        49.700    22370278.547 8  91602555.54049
        38.700    22370277.64149  22370275.719 5  87785776.167 5        36.200
  20019788.563 9 105204728.801 9        49.000                    81977733.22349
        44.700    20019791.43849
  20869784.031 9 109671437.609 9        52.100                    85458307.68249
        44.300    20869785.53949
  24292082.000 6 127655784.979 6        40.000    24292089.934 7  99472084.17747
        26.900    24292089.19947  24292086.473 3  95327407.136 3        32.300
  24360548.273 3 128015595.405 3        33.300    24360553.629 5  99752451.08244
        14.800    24360553.75844  24360550.012 1  95596088.987 1        28.100
 17  4 10  0 17 30.0000000  0 11G01G32G08G28G17G14G03G11G22G27G10
  20577047.320 9 108133130.130 9        54.300    20577054.148 9  84259633.43449
        47.400    20577053.87949  20577049.805 7  80748798.023 7        42.200
  22305454.063 9 117215976.362 9        48.000    22305460.539 8  91337147.79849
        38.400    22305459.84049  22305456.125 5  87531438.501 5        37.100
  21623708.477 9 113633373.783 9        50.700    21623715.918 9  88545525.05549
        43.200    21623714.70749  21623711.902 6  84856120.385 6        39.200
  23496328.461 7 123474040.444 7        42.500                    96213550.87347
        28.200    23496331.77347
  25319499.367 6 133054867.679 6        39.800    25319504.316 6 103679133.64946
        24.400    25319503.41046
  21966960.984 9 115437170.920 9        48.900                    89951060.85949
        37.300    21966964.95349
  22354010.578 9 117471129.235 9        50.000    22354018.102 8  91535970.88149
        38.800    22354017.01249  22354015.563 5  87721965.880 5        37.100
  20017940.852 9 105195020.482 9        48.600                    81970168.29349
        44.300    20017943.92249
  20861479.555 9 109627796.111 9        50.700                    85424301.34949
        44.100    20861480.69549
  24313706.563 7 127769416.678 7        42.100    24313712.816 7  99560628.37647
        29.500    24313712.06347  24313708.633 1  95412261.993 1        29.900
  24379705.188 3 128116267.355 3        33.400    24379710.813 5  99830896.69545
        15.600    24379710.67645  24379706.809 1  95671266.019 1        28.100
 17  4 10  0 18  0.0000000  0 11G01G32G08G28G17G14G03G11G22G27G10
  20569612.336 9 108094057.849 9        54.300    20569618.793 9  84229187.49949
        47.600    20569618.35249  20569614.453 7  80719620.675 7        42.100
  22311145.234 9 117245883.225 9        48.800    22311151.711 8  91360451.84449
        38.100    22311150.83649  22311147.410 5  87553771.546 5        36.400
  21639055.500 9 113714024.515 9        50.300    21639063.008 9  88608369.78349
        43.000    21639062.03149  21639058.992 6  84916346.572 6        39.300
  23498575.227 7 123485846.815 7        42.400                    96222750.62747
        27.500    23498577.85947
  25299824.289 6 132951476.168 6        40.700    25299828.410 6 103598568.78246
        22.600    25299828.18446
  21963241.227 9 115417622.721 9        48.900                    89935828.51449
        36.100    21963244.35249
  22337803.727 9 117385959.876 9        50.400    22337810.496 8  91469605.17349
        39.100    22337809.47749  22337808.258 5  87658365.421 5        36.700
  20016192.703 9 105185834.023 9        49.600                    81963010.01049
        44.100    20016195.68849
  20853247.078 9 109584534.640 9        51.300                    85390591.14149
        44.300    20853248.22349
  24335346.742 6 127883140.256 6        40.300    24335354.273 7  99649244.15047
        28.200    24335353.79747  24335350.250 2  95497185.458 2        31.600
  24398873.297 5 128216992.868 5        35.700    24398878.805 5  99909384.11745
        17.400    24398878.19545  24398874.504 1  95746483.082 1        26.800
 17  4 10  0 18 30.0000000  0 11G01G32G08G28G17G14G03G11G22G27G10
  20562238.984 9 108055311.402 9        53.500    20562245.859 9  84198995.46149
        47.700    20562245.80949  20562241.559 7  80690686.635 7        42.400
  22316946.688 9 117276369.909 9        48.400    22316952.852 8  91384207.70549
        38.300    22316952.21949  22316948.855 5  87576537.584 5        36.700
  21654479.227 9 113795074.160 9        50.600    21654486.855 9  88671525.33749
        43.100    21654485.83249  21654482.441 6  84976870.653 6        39.400
  23500919.531 7 123498163.848 7        42.300                    96232348.29147
        27.100    23500922.97747
  25280165.820 6 132848173.587 6        38.600    25280169.863 5 103518073.15846
        20.100    25280169.30946
  21959627.352 9 115398632.345 9        49.100                    89921030.84449
        37.800    21959630.62549
  22321650.078 9 117301072.807 9        50.000    22321657.137 8  91403459.44349
        39.000    22321656.24249  22321654.910 5  87594975.772 5        37.200
  20014544.477 9 105177170.590 9        48.600                    81956259.28549
        44.700    20014547.34449
  20845087.250 9 109541653.772 9        50.000                    85357177.49349
        44.400    20845087.97749
  24357004.648 7 127996953.739 7        41.200    24357012.543 7  99737929.93047
        28.100    24357012.16447  24357008.793 3  95582176.013 3        32.500
