     2.10           OBSERVATION DATA    G (GPS)             RINEX VERSION / TYPE
goGPS                                                       PGM / RUN BY / DATE 
yamatogawa_master                                           MARKER NAME         
                                                            OBSERVER / AGENCY   
                                                            REC # / TYPE / VERS 
                                                            ANT # / TYPE        
 -3749943.5172  3683398.2394  3600629.5295                  APPROX POSITION XYZ 
        0.0000        0.0000        0.0000                  ANTENNA: DELTA H/E/N
     1     1                                                WAVELENGTH FACT L1/2
     6    C1    P2    L1    L2    S1    S2                  # / TYPES OF OBSERV 
  2010     1     6     5    57   14.0000000     GPS         TIME OF FIRST OBS   
                                                            END OF HEADER       
 10  1  6  5 57 14.0000000  0  9G02G04G05G07G10G12G13G17G23
  21124906.520 8  21124902.780 7 111012132.702 8  86502960.907 7        51.000 8
        44.000 7
  20671985.904 8  20671984.224 7 108632018.816 8  84648326.266 7        52.000 8
        47.000 7
  22607020.170 7  22607017.890 6 118800693.281 7  92571968.600 6        47.000 7
        37.000 6
  24673504.216 6  24673503.956 4 129660139.474 6 101033875.005 4        40.000 6
        26.000 4
  21253529.700 8  21253528.320 7 111688052.582 8  87029651.252 7        50.000 8
        42.000 7
  24805300.076 5  24805297.576 3 130352731.892 5 101573556.763 3        34.000 5
        22.000 3
  21526986.738 8  21526984.458 6 113125079.089 8  88149411.698 6        49.000 8
        40.000 6
  22497497.110 7  22497496.810 6 118225145.588 7  92123490.267 6        47.000 7
        37.000 6
  23995925.980 7  23995921.160 4 126099442.525 7  98259305.729 4        42.000 7
        27.000 4
 10  1  6  5 57 15.0000000  0  9G02G04G05G07G10G12G13G17G23
  21124517.060 8  21124513.420 7 111010087.332 8  86501367.108 7        51.000 8
        44.000 7
  20672086.304 8  20672084.804 7 108632545.744 8  84648736.859 7        52.000 8
        47.000 7
  22606604.070 7  22606602.090 6 118798508.222 7  92570265.956 6        47.000 7
        36.000 6
  24673081.556 6  24673080.916 4 129657916.347 6 101032142.708 4        40.000 6
        25.000 4
  21253224.340 8  21253222.800 7 111686447.310 8  87028400.391 7        50.000 8
        42.000 7
  24805583.296 5  24805581.056 3 130354221.665 5 101574717.667 3        34.000 5
        22.000 3
  21527284.218 8  21527282.218 6 113126642.242 8  88150629.739 6        49.000 8
        40.000 6
  22498144.310 7  22498144.050 6 118228546.610 7  92126140.406 6        47.000 7
        37.000 6
  23996498.720 7  23996494.000 4 126102452.901 7  98261651.480 4        42.000 7
        27.000 4
 10  1  6  5 57 16.0000000  0  9G02G04G05G07G10G12G13G17G23
  21124127.800 8  21124123.900 7 111008042.256 8  86499773.547 7        52.000 8
        44.000 7
  20672186.484 8  20672185.224 7 108633073.113 8  84649147.794 7        53.000 8
        47.000 7
  22606188.290 7  22606186.530 6 118796323.528 7  92568563.605 6        47.000 7
        36.000 6
  24672658.736 6  24672657.736 4 129655693.454 6 101030410.616 4        40.000 6
        25.000 4
  21252918.820 8  21252917.520 7 111684842.515 8  87027149.911 7        50.000 8
        42.000 7
  24805867.356 5  24805864.656 3 130355711.875 5 101575878.843 3        35.000 5
        22.000 3
  21527581.518 8  21527579.458 6 113128206.124 8  88151848.345 6        49.000 8
        40.000 6
  22498791.730 7  22498791.330 6 118231948.052 7  92128790.887 6        46.000 7
        37.000 6
  23997071.560 7  23997066.980 4 126105463.687 7  98263997.517 4        42.000 7
        27.000 4
 10  1  6  5 57 17.0000000  0  9G02G04G05G07G10G12G13G17G23
  21123738.880 8  21123735.020 7 111005996.991 8  86498179.832 7        52.000 8
        44.000 7
  20672286.744 8  20672285.064 7 108633600.458 8  84649558.721 7        53.000 8
        47.000 7
  22605772.450 7  22605770.850 6 118794138.697 7  92566861.152 6        47.000 7
        36.000 6
  24672235.276 6  24672234.836 4 129653470.369 6 101028678.330 4        40.000 6
        26.000 4
  21252613.440 8  21252612.200 7 111683237.682 8  87025899.382 7        51.000 8
        42.000 7
  24806150.496 5  24806148.396 3 130357202.098 5 101577040.064 3        35.000 5
        22.000 3
  21527879.158 8  21527877.658 6 113129770.241 8  88153067.145 6        50.000 8
        41.000 6
  22499438.730 7  22499438.530 6 118235349.353 7  92131441.253 6        47.000 7
        37.000 6
  23997644.120 7  23997639.840 4 126108474.429 7  98266343.563 4        42.000 7
        26.000 4
 10  1  6  5 57 18.0000000  0  9G02G04G05G07G10G12G13G17G23
  21123349.480 8  21123345.660 7 111003950.922 8  86496585.496 7        52.000 8
        44.000 7
  20672386.984 8  20672385.264 7 108634127.105 8  84649969.095 7        53.000 8
        47.000 7
  22605356.490 7  22605355.030 6 118791953.085 7  92565158.078 6        47.000 7
        36.000 6
  24671812.376 6  24671811.796 4 129651246.377 6 101026945.299 4        40.000 6
        26.000 4
  21252307.960 8  21252306.800 7 111681632.171 8  87024648.326 7        51.000 8
        43.000 7
  24806433.916 5  24806432.036 3 130358691.591 5 101578200.691 3        35.000 5
        22.000 3
  21528176.618 8  21528174.938 6 113131333.950 8  88154285.624 6        50.000 8
        41.000 6
  22500085.810 7  22500085.270 6 118238749.897 7  92134091.019 6        47.000 7
        37.000 6
  23998217.300 7  23998212.860 4 126111484.368 7  98268688.961 4        42.000 7
        27.000 4
 10  1  6  5 57 19.0000000  0  9G02G04G05G07G10G12G13G17G23
  21122960.120 8  21122955.960 7 111001904.338 8  86494990.751 7        52.000 8
        45.000 7
  20672487.164 8  20672485.824 8 108634653.365 8  84650379.170 8        53.000 8
        48.000 8
  22604940.770 7  22604938.930 6 118789767.030 7  92563454.646 6        47.000 7
        37.000 6
  24671388.416 6  24671388.436 4 129649021.887 6 101025211.948 4        40.000 6
        26.000 4
  21252002.680 8  21252000.900 7 111680026.319 8  87023397.032 7        51.000 8
        43.000 7
  24806717.616 6  24806715.216 3 130360180.765 6 101579361.050 3        36.000 6
        22.000 3
  21528474.158 8  21528472.578 6 113132897.563 8  88155504.015 6        50.000 8
        41.000 6
  22500732.750 7  22500732.210 6 118242150.036 7  92136740.474 6        46.000 7
        37.000 6
  23998789.920 7  23998785.360 4 126114493.953 7  98271034.112 4        43.000 7
        27.000 4
 10  1  6  5 57 20.0000000  0  9G02G04G05G07G10G12G13G17G23
  21122571.000 8  21122567.200 7 110999860.751 8  86493398.355 7        52.000 8
        44.000 7
  20672587.824 8  20672586.444 7 108635182.731 8  84650791.654 7        52.000 8
        47.000 7
  22604525.050 7  22604523.470 6 118787583.999 7  92561753.589 6        47.000 7
        36.000 6
  24670965.716 6  24670965.736 4 129646800.331 6 101023480.888 4        41.000 6
        25.000 4
  21251697.420 8  21251695.860 7 111678423.599 8  87022148.148 7        50.000 8
        42.000 7
  24807001.096 6  24806999.396 3 130361673.019 6 101580523.845 3        36.000 6
        22.000 3
  21528772.478 8  21528771.018 6 113134464.572 8  88156725.059 6        49.000 8
        40.000 6
  22501380.630 7  22501379.770 6 118245553.221 7  92139392.313 6        46.000 7
        37.000 6
  23999363.000 7  23999358.860 4 126117506.623 7  98273381.641 4        42.000 7
        26.000 4
 10  1  6  5 57 21.0000000  0  9G02G04G05G07G10G12G13G17G23
  21122181.980 8  21122177.920 7 110997815.302 8  86491804.488 7        52.000 8
        44.000 7
  20672688.244 8  20672686.904 7 108635710.421 8  84651202.845 7        52.000 8
        47.000 7
  22604109.430 7  22604107.710 6 118785399.160 7  92560051.118 6        47.000 7
        36.000 6
  24670542.876 6  24670542.616 4 129644576.854 6 101021748.317 4        40.000 6
        25.000 4
  21251391.980 8  21251390.700 7 111676819.179 8  87020897.947 7        50.000 8
        42.000 7
  24807285.256 6  24807282.936 3 130363163.576 6 101581685.338 3        36.000 6
        22.000 3
  21529070.538 8  21529068.598 6 113136030.147 8  88157944.994 6        48.000 8
        40.000 6
  22502027.570 7  22502027.390 6 118248954.637 7  92142042.759 6        46.000 7
        37.000 6
  23999936.000 7  23999931.720 4 126120517.522 7  98275727.786 4        42.000 7
        27.000 4
 10  1  6  5 57 22.0000000  0  9G02G04G05G07G10G12G13G17G23
  21121792.760 8  21121788.900 7 110995770.445 8  86490211.103 7        52.000 8
        44.000 7
  20672788.824 8  20672787.104 7 108636238.807 8  84651614.573 7        52.000 8
        47.000 7
  22603693.650 7  22603692.170 6 118783214.934 7  92558349.127 6        47.000 7
        36.000 6
  24670119.876 6  24670119.416 4 129642353.924 6 101020016.135 4        41.000 6
        25.000 4
  21251086.720 8  21251085.440 7 111675215.468 8  87019648.314 7        50.000 8
        42.000 7
  24807568.596 5  24807567.036 3 130364654.889 5 101582847.374 3        35.000 5
        22.000 3
  21529368.598 8  21529366.898 6 113137596.699 8  88159165.680 6        49.000 8
        40.000 6
  22502675.170 7  22502674.750 6 118252356.695 7  92144693.713 6        46.000 7
        37.000 6
  24000509.380 7  24000504.840 4 126123529.088 7  98278074.481 4        42.000 7
        26.000 4
 10  1  6  5 57 23.0000000  0  9G02G04G05G07G10G12G13G17G23
  21121404.000 8  21121400.040 7 110993725.863 8  86488617.922 7        52.000 8
        44.000 7
  20672889.184 8  20672887.944 7 108636767.623 8  84652026.638 7        53.000 8
        47.000 7
  22603278.090 7  22603276.390 6 118781031.054 7  92556647.409 6        47.000 7
        36.000 6
  24669696.956 6  24669696.276 4 129640131.239 6 101018284.203 4        41.000 6
        25.000 4
  21250781.940 8  21250780.420 7 111673612.217 8  87018399.024 7        50.000 8
        42.000 7
  24807852.336 6  24807850.696 3 130366146.631 6 101584009.836 3        36.000 6
        22.000 3
  21529666.918 8  21529665.098 6 113139163.966 8  88160386.927 6        49.000 8
        40.000 6
  22503322.470 7  22503322.030 6 118255759.123 7  92147344.951 6        46.000 7
        37.000 6
  24001082.000 7  24001077.980 4 126126541.036 7  98280421.437 4        42.000 7
        26.000 4
 10  1  6  5 57 24.0000000  0  9G02G04G05G07G10G12G13G17G23
  21121014.700 8  21121010.880 7 110991680.159 8  86487023.859 7        52.000 8
        44.000 7
  20672989.904 8  20672988.324 7 108637295.444 8  84652437.927 7        52.000 8
        47.000 7
  22602862.010 7  22602860.770 6 118778846.102 7  92554944.838 6        47.000 7
        36.000 6
  24669274.036 6  24669273.256 4 129637907.402 6 101016551.335 4        41.000 6
        25.000 4
  21250476.520 8  21250474.840 7 111672007.976 8  87017148.962 7        51.000 8
        42.000 7
  24808136.136 6  24808134.296 3 130367637.385 6 101585171.431 3        36.000 6
        22.000 3
  21529965.138 8  21529963.238 6 113140730.524 8  88161607.621 6        49.000 8
        40.000 6
  22503970.190 7  22503969.310 6 118259160.492 7  92149995.364 6        46.000 7
        37.000 6
  24001655.300 7  24001650.760 4 126129551.982 7  98282767.643 4        42.000 7
        27.000 4
 10  1  6  5 57 25.0000000  0  9G02G04G05G07G10G12G13G17G23
  21120625.740 8  21120621.480 7 110989636.993 8  86485431.784 7        52.000 8
        44.000 7
  20673090.844 8  20673089.404 7 108637825.938 8  84652851.292 7        52.000 8
        47.000 7
  22602447.030 7  22602445.610 6 118776663.728 7  92553244.293 6        47.000 7
        36.000 6
  24668851.196 6  24668850.656 4 129635686.031 6 101014820.404 4        41.000 6
        24.000 4
  21250171.700 8  21250170.280 7 111670406.436 8  87015901.016 7        51.000 8
        42.000 7
  24808419.776 6  24808418.136 3 130369130.832 6 101586335.132 3        37.000 6
        22.000 3
  21530263.638 8  21530262.158 6 113142300.032 8  88162830.615 6        49.000 8
        40.000 6
  22504617.690 7  22504617.190 6 118262564.467 7  92152647.809 6        46.000 7
        36.000 6
  24002228.600 7  24002224.160 4 126132565.529 7  98285115.866 4        42.000 7
        27.000 4
 10  1  6  5 57 26.0000000  0  9G02G04G05G07G10G12G13G17G23
  21120236.940 8  21120232.960 7 110987593.307 8  86483839.305 7        52.000 8
        44.000 7
  20673191.504 8  20673190.404 7 108638356.026 8  84653264.360 7        52.000 8
        47.000 7
  22602031.450 7  22602030.010 6 118774480.862 7  92551543.365 6        47.000 7
        36.000 6
  24668427.436 6  24668427.296 4 129633464.107 6 101013089.042 4        41.000 6
        25.000 4
  21249867.120 8  21249865.360 7 111668804.488 8  87014652.743 7        51.000 8
        42.000 7
  24808704.276 6  24808702.536 3 130370623.853 6 101587498.531 3        36.000 6
        23.000 3
  21530562.338 8  21530560.418 6 113143869.414 8  88164053.506 6        49.000 8
        41.000 6
  22505265.270 7  22505264.870 6 118265967.983 7  92155299.909 6        47.000 7
        36.000 6
  24002801.980 6  24002797.420 4 126135578.627 6  98287463.714 4        41.000 6
        27.000 4
 10  1  6  5 57 27.0000000  0  9G02G04G05G07G10G12G13G17G23
  21119847.700 8  21119843.880 7 110985548.986 8  86482246.323 7        51.000 8
        44.000 7
  20673292.444 8  20673291.144 7 108638885.595 8  84653677.005 7        53.000 8
        47.000 7
  22601616.090 7  22601614.690 6 118772297.424 7  92549841.987 6        47.000 7
        37.000 6
  24668004.856 6  24668004.576 4 129631241.506 6 101011357.150 4        41.000 6
        25.000 4
  21249562.060 8  21249560.500 7 111667202.070 8  87013404.112 7        51.000 8
        42.000 7
  24808987.976 6  24808986.356 3 130372116.441 6 101588661.570 3        37.000 6
        23.000 3
  21530861.058 8  21530858.918 6 113145438.576 8  88165276.239 6        50.000 8
        41.000 6
  22505912.910 7  22505911.930 6 118269370.934 7  92157951.551 6        47.000 7
        36.000 6
  24003375.260 7  24003370.980 4 126138591.236 7  98289811.216 4        42.000 7
        26.000 4
 10  1  6  5 57 28.0000000  0  9G02G04G05G07G10G12G13G17G23
  21119458.860 8  21119454.980 7 110983506.035 8  86480654.420 7        52.000 8
        44.000 7
  20673393.424 8  20673392.184 7 108639416.668 8  84654090.824 7        53.000 8
        47.000 7
  22601200.910 7  22601199.630 6 118770115.386 7  92548141.706 6        47.000 7
        37.000 6
  24667582.756 6  24667581.836 4 129629020.197 6 101009626.236 4        41.000 6
        25.000 4
  21249257.380 8  21249255.760 7 111665601.165 8  87012156.642 7        51.000 8
        42.000 7
  24809272.696 6  24809271.236 3 130373610.516 6 101589825.815 3        37.000 6
        23.000 3
  21531159.818 8  21531158.078 6 113147009.522 8  88166500.346 6        50.000 8
        41.000 6
  22506560.950 7  22506560.030 6 118272775.322 7  92160604.313 6        46.000 7
        36.000 6
  24003948.760 7  24003944.160 4 126141605.286 7  98292159.838 4        42.000 7
        27.000 4
 10  1  6  5 57 29.0000000  0  9G02G04G05G07G10G12G13G17G23
  21119069.760 8  21119065.760 7 110981461.075 8  86479060.951 7        52.000 8
        44.000 7
  20673494.304 9  20673492.964 7 108639945.871 9  84654503.193 7        54.000 9
        47.000 7
  22600785.270 7  22600784.030 6 118767931.396 7  92546439.889 6        47.000 7
        36.000 6
  24667159.556 6  24667158.676 4 129626796.888 6 101007893.761 4        41.000 6
        24.000 4
  21248952.520 8  21248950.680 7 111663998.424 8  87010907.761 7        51.000 8
        42.000 7
  24809556.676 6  24809554.896 3 130375102.728 6 101590988.520 3        37.000 6
        22.000 3
  21531458.598 8  21531456.558 6 113148578.877 8  88167723.223 6        50.000 8
        40.000 6
  22507208.310 7  22507207.250 6 118276177.786 7  92163255.588 6        46.000 7
        36.000 6
  24004522.300 7  24004517.520 4 126144617.422 7  98294506.945 4        42.000 7
        26.000 4
 10  1  6  5 57 30.0000000  0  9G02G04G05G07G10G12G13G17G23
  21118681.000 8  21118676.820 7 110979417.489 8  86477468.538 7        52.000 8
        44.000 7
  20673595.304 8  20673593.744 7 108640476.585 8  84654916.738 7        53.000 8
        47.000 7
  22600370.230 7  22600368.750 6 118765748.817 7  92544739.192 6        47.000 7
        36.000 6
  24666736.856 7  24666735.716 4 129624574.889 7 101006162.364 4        42.000 7
        26.000 4
  21248647.720 8  21248646.200 7 111662397.186 8  87009660.038 7        51.000 8
        42.000 7
  24809840.616 6  24809839.016 3 130376596.443 6 101592152.474 3        37.000 6
        22.000 3
  21531757.558 8  21531755.578 6 113150150.010 8  88168947.486 6        50.000 8
        41.000 6
  22507856.090 7  22507855.070 6 118279581.691 7  92165907.979 6        47.000 7
        36.000 6
  24005095.780 7  24005091.180 4 126147631.030 7  98296855.217 4        42.000 7
        26.000 4
 10  1  6  5 57 31.0000000  0  9G02G04G05G07G10G12G13G17G23
  21118292.480 8  21118288.480 7 110977376.733 8  86475878.332 7        52.000 8
        44.000 7
  20673696.644 8  20673695.284 8 108641010.258 8  84655332.591 8        53.000 8
        48.000 8
  22599955.270 8  22599954.070 6 118763569.112 8  92543040.711 6        48.000 8
        37.000 6
  24666314.136 7  24666313.496 4 129622355.669 7 101004433.124 4        42.000 7
        25.000 4
  21248343.560 8  21248342.080 7 111660798.927 8  87008414.650 7        51.000 8
        42.000 7
  24810125.816 6  24810123.556 3 130378093.155 6 101593318.754 3        38.000 6
        22.000 3
  21532057.018 8  21532054.998 6 113151724.379 8  88170174.253 6        50.000 8
        40.000 6
  22508504.070 7  22508503.490 6 118282988.491 7  92168562.626 6        47.000 7
        36.000 6
  24005669.660 7  24005665.180 4 126150647.583 7  98299205.790 4        43.000 7
        27.000 4
 10  1  6  5 57 32.0000000  0  9G02G04G05G07G10G12G13G17G23
  21117903.900 8  21117899.580 7 110975333.312 8  86474286.070 7        53.000 8
        44.000 7
  20673797.964 8  20673796.764 8 108641541.421 8  84655746.480 8        52.000 8
        48.000 8
  22599539.510 8  22599538.590 6 118761386.804 8  92541340.217 6        48.000 8
        37.000 6
  24665891.216 7  24665890.596 4 129620133.766 7 101002701.753 4        42.000 7
        26.000 4
  21248038.900 8  21248037.000 7 111659198.167 8  87007167.305 7        50.000 8
        42.000 7
  24810410.456 6  24810408.056 3 130379587.346 6 101594483.038 3        38.000 6
        22.000 3
  21532356.258 8  21532354.578 6 113153296.515 8  88171399.302 6        49.000 8
        41.000 6
  22509151.910 7  22509151.150 6 118286392.700 7  92171215.261 6        46.000 7
        37.000 6
  24006243.200 7  24006238.580 4 126153661.538 7  98301554.324 4        43.000 7
        26.000 4
 10  1  6  5 57 33.0000000  0  9G02G04G05G07G10G12G13G17G23
  21117514.740 8  21117510.600 7 110973289.427 8  86472693.424 7        52.000 8
        44.000 7
  20673898.824 8  20673897.444 7 108642072.216 8  84656160.083 7        53.000 8
        47.000 7
  22599124.670 8  22599123.570 6 118759204.067 8  92539639.385 6        48.000 8
        37.000 6
  24665468.296 7  24665467.796 4 129617911.322 7 101000969.991 4        42.000 7
        25.000 4
  21247734.600 8  21247732.460 7 111657597.071 8  87005919.691 7        50.000 8
        42.000 7
  24810694.136 6  24810692.616 3 130381081.213 6 101595647.095 3        38.000 6
        22.000 3
  21532655.438 8  21532653.398 6 113154868.579 8  88172624.290 6        50.000 8
        41.000 6
  22509800.070 7  22509799.190 6 118289796.497 7  92173867.566 6        46.000 7
        37.000 6
  24006816.680 7  24006811.880 4 126156675.130 7  98303902.586 4        43.000 7
        27.000 4
 10  1  6  5 57 34.0000000  0  9G02G04G05G07G10G12G13G17G23
  21117126.220 8  21117122.160 7 110971247.861 8  86471102.600 7        52.000 8
        44.000 7
  20674000.464 8  20673998.744 7 108642605.476 8  84656575.614 7        52.000 8
        47.000 7
  22598709.290 8  22598708.510 6 118757023.705 8  92537940.415 6        48.000 8
        37.000 6
  24665046.536 7  24665045.216 4 129615691.186 7 100999240.012 4        42.000 7
        25.000 4
  21247430.040 8  21247428.300 7 111655998.453 8  87004674.023 7        51.000 8
        42.000 7
  24810979.776 6  24810977.476 3 130382577.490 6 101596813.027 3        38.000 6
        22.000 3
  21532954.938 8  21532952.878 6 113156443.369 8  88173851.392 6        49.000 8
        41.000 6
  22510447.990 7  22510447.030 6 118293202.709 7  92176521.747 6        46.000 7
        37.000 6
  24007390.120 7  24007385.900 4 126159691.121 7  98306252.707 4        43.000 7
        26.000 4
 10  1  6  5 57 35.0000000  0  9G02G04G05G07G10G12G13G17G23
  21116737.640 8  21116733.660 7 110969205.208 8  86469510.918 7        52.000 8
        44.000 7
  20674101.784 8  20674100.064 7 108643137.788 8  84656990.396 7        52.000 8
        47.000 7
  22598294.130 8  22598293.150 6 118754842.306 8  92536240.623 6        48.000 8
        37.000 6
  24664623.356 7  24664622.396 4 129613469.887 7 100997509.138 4        42.000 7
        25.000 4
  21247125.780 8  21247123.800 7 111654398.875 8  87003427.596 7        51.000 8
        42.000 7
  24811263.696 6  24811261.936 3 130384072.897 6 101597978.306 3        37.000 6
        21.000 3
  21533254.578 8  21533252.678 6 113158017.502 8  88175077.991 6        49.000 8
        41.000 6
  22511096.050 7  22511094.910 6 118296607.882 7  92179175.135 6        46.000 7
        37.000 6
  24007964.220 7  24007959.660 4 126162706.169 7  98308602.076 4        42.000 7
        27.000 4
 10  1  6  5 57 36.0000000  0  9G02G04G05G07G10G12G13G17G23
  21116349.220 8  21116345.320 7 110967164.580 8  86467920.823 7        52.000 8
        44.000 7
  20674203.304 8  20674201.844 7 108643672.241 8  84657406.859 7        51.000 8
        47.000 7
  22597879.590 8  22597878.570 6 118752662.953 8  92534542.420 6        48.000 8
        37.000 6
  24664201.416 7  24664200.456 4 129611250.560 7 100995779.782 4        42.000 7
        25.000 4
  21246821.680 8  21246820.100 7 111652801.462 8  87002182.857 7        50.000 8
        42.000 7
  24811548.496 6  24811547.036 3 130385570.414 6 101599145.200 3        36.000 6
        21.000 3
  21533554.818 8  21533552.718 6 113159594.054 8  88176306.472 6        48.000 8
        41.000 6
  22511744.550 7  22511743.510 6 118300015.137 7  92181830.139 6        46.000 7
        37.000 6
  24008537.980 7  24008533.360 4 126165723.271 7  98310953.045 4        42.000 7
        26.000 4
 10  1  6  5 57 37.0000000  0  9G02G04G05G07G10G12G13G17G23
  21115960.720 8  21115956.660 7 110965123.104 8  86466330.060 7        52.000 8
        45.000 7
  20674304.964 8  20674303.624 7 108644205.971 8  84657822.757 7        51.000 8
        47.000 7
  22597464.590 8  22597463.490 6 118750482.815 8  92532843.615 6        48.000 8
        37.000 6
  24663779.276 7  24663778.196 4 129609030.362 7 100994049.729 4        43.000 7
        25.000 4
  21246517.540 8  21246516.020 7 111651203.388 8  87000937.598 7        51.000 8
        42.000 7
  24811833.856 6  24811831.936 3 130387067.248 6 101600311.513 3        36.000 6
        21.000 3
  21533854.558 7  21533852.818 6 113161170.160 7  88177534.615 6        47.000 7
        41.000 6
  22512393.070 7  22512391.990 6 118303421.635 7  92184484.540 6        46.000 7
        37.000 6
  24009112.400 7  24009107.480 4 126168739.635 7  98313303.493 4        42.000 7
        26.000 4
 10  1  6  5 57 38.0000000  0  9G02G04G05G07G10G12G13G17G23
  21115572.340 8  21115568.240 7 110963081.920 8  86464739.525 7        52.000 8
        45.000 7
  20674406.784 8  20674405.344 8 108644740.140 8  84658238.986 8        52.000 8
        48.000 8
  22597049.950 8  22597048.710 6 118748303.011 8  92531145.072 6        48.000 8
        37.000 6
  24663356.576 7  24663355.076 4 129606810.420 7 100992319.910 4        42.000 7
        26.000 4
  21246213.540 8  21246212.000 7 111649605.731 8  86999692.669 7        51.000 8
        42.000 7
  24812118.736 6  24812116.476 3 130388564.515 6 101601478.257 3        36.000 6
        22.000 3
  21534154.358 8  21534152.818 6 113162746.997 8  88178763.310 6        48.000 8
        41.000 6
  22513040.970 7  22513040.190 6 118306828.495 7  92187139.231 6        46.000 7
        37.000 6
  24009686.080 7  24009681.480 4 126171756.396 7  98315654.218 4        42.000 7
        24.000 4
 10  1  6  5 57 39.0000000  0  9G02G04G05G07G10G12G13G17G23
  21115183.560 8  21115179.540 7 110961038.641 8  86463147.361 7        52.000 8
        44.000 7
  20674507.964 8  20674506.244 8 108645272.326 8  84658653.678 8        52.000 8
        48.000 8
  22596634.750 7  22596633.650 6 118746121.157 7  92529444.922 6        47.000 7
        37.000 6
  24662934.076 7  24662932.556 4 129604588.323 7 100990588.406 4        42.000 7
        25.000 4
  21245909.300 8  21245907.520 7 111648006.135 8  86998446.236 7        50.000 8
        42.000 7
  24812403.036 5  24812401.556 3 130390059.862 5 101602643.409 3        35.000 5
        22.000 3
  21534454.518 8  21534452.218 6 113164322.139 8  88179990.699 6        48.000 8
        40.000 6
  22513688.930 7  22513687.970 6 118310233.312 7  92189792.338 6        46.000 7
        37.000 6
  24010259.540 6  24010255.080 4 126174771.149 6  98318003.370 4        41.000 6
        26.000 4
 10  1  6  5 57 40.0000000  0  9G02G04G05G07G10G12G13G17G23
  21114795.040 8  21114791.040 7 110958997.249 8  86461556.672 7        52.000 8
        45.000 7
  20674609.524 8  20674608.004 8 108645806.518 8  84659069.932 8        52.000 8
        48.000 8
  22596219.910 7  22596218.590 6 118743941.232 7  92527746.283 6        47.000 7
        37.000 6
  24662511.056 7  24662510.096 4 129602368.089 7 100988858.382 4        42.000 7
        25.000 4
  21245605.400 8  21245603.220 7 111646408.546 8  86997201.364 7        51.000 8
        42.000 7
  24812688.436 6  24812686.736 3 130391557.250 6 101603810.230 3        36.000 6
        22.000 3
  21534754.698 8  21534752.418 6 113165899.577 8  88181219.874 6        48.000 8
        40.000 6
  22514337.570 7  22514336.530 6 118313640.104 7  92192446.986 6        46.000 7
        37.000 6
  24010833.840 6  24010829.280 4 126177787.897 6  98320354.056 4        41.000 6
        26.000 4
 10  1  6  5 57 41.0000000  0  9G02G04G05G07G10G12G13G17G23
  21114407.120 8  21114403.240 7 110956959.228 8  86459968.594 7        51.000 8
        45.000 7
  20674711.664 8  20674710.344 8 108646344.245 8  84659488.940 8        52.000 8
        48.000 8
  22595805.730 7  22595804.850 6 118741764.722 7  92526050.312 6        47.000 7
        37.000 6
  24662089.296 7  24662087.976 4 129600151.165 7 100987130.907 4        43.000 7
        25.000 4
  21245301.960 8  21245300.260 7 111644814.478 8  86995959.236 7        51.000 8
        42.000 7
  24812974.236 5  24812972.216 3 130393058.154 5 101604979.757 3        35.000 5
        23.000 3
  21535055.618 8  21535053.658 6 113167480.780 8  88182451.972 6        48.000 8
        41.000 6
  22514986.110 7  22514985.250 6 118317050.317 7  92195104.289 6        46.000 7
        37.000 6
  24011408.520 6  24011404.140 4 126180808.108 6  98322707.502 4        41.000 6
        26.000 4
 10  1  6  5 57 42.0000000  0  9G02G04G05G07G10G12G13G17G23
  21114018.660 8  21114014.800 7 110954917.746 8  86458377.835 7        51.000 8
        45.000 7
  20674813.504 8  20674812.024 8 108646878.614 8  84659905.338 8        52.000 8
        48.000 8
  22595390.750 7  22595389.710 6 118739584.802 7  92524351.671 6        47.000 7
        37.000 6
  24661666.456 7  24661665.656 4 129597930.721 7 100985400.705 4        43.000 7
        25.000 4
  21244997.880 8  21244996.240 7 111643217.108 8  86994714.535 7        52.000 8
        42.000 7
  24813258.256 6  24813257.596 3 130394555.689 6 101606146.713 3        36.000 6
        22.000 3
  21535355.818 8  21535353.598 6 113169058.938 8  88183681.716 6        49.000 8
        41.000 6
  22515634.790 7  22515633.710 6 118320457.136 7  92197758.950 6        46.000 7
        37.000 6
  24011983.060 6  24011977.840 4 126183824.945 6  98325058.263 4        41.000 6
        26.000 4
 10  1  6  5 57 43.0000000  0  9G02G04G05G07G10G12G13G17G23
  21113630.060 8  21113625.860 7 110952875.556 8  86456786.514 7        51.000 8
        45.000 7
  20674915.224 8  20674913.764 7 108647412.447 8  84660321.305 7        52.000 8
        47.000 7
  22594976.210 7  22594974.730 6 118737404.217 7  92522652.516 6        47.000 7
        37.000 6
  24661244.336 7  24661243.116 4 129595709.536 7 100983669.895 4        43.000 7
        26.000 4
  21244693.900 8  21244691.900 7 111641619.173 8  86993469.389 7        51.000 8
        42.000 7
  24813542.936 6  24813542.116 3 130396052.696 6 101607313.134 3        37.000 6
        22.000 3
  21535656.158 8  21535653.778 6 113170636.807 8  88184911.219 6        49.000 8
        41.000 6
  22516282.650 7  22516281.750 6 118323863.331 7  92200413.121 6        47.000 7
        37.000 6
  24012557.220 7  24012552.300 4 126186841.149 7  98327408.548 4        42.000 7
        25.000 4
 10  1  6  5 57 44.0000000  0  9G02G04G05G07G10G12G13G17G23
  21113242.280 8  21113238.040 7 110950836.384 8  86455197.557 7        51.000 8
        45.000 7
  20675017.164 8  20675015.664 7 108647949.406 8  84660739.721 7        52.000 8
        47.000 7
  22594562.110 7  22594560.510 6 118735226.680 7  92520955.732 6        47.000 7
        37.000 6
  24660822.376 7  24660821.176 4 129593491.341 7 100981941.448 4        43.000 7
        25.000 4
  21244390.320 8  21244388.700 7 111640024.411 8  86992226.718 7        52.000 8
        42.000 7
  24813828.296 6  24813827.776 3 130397552.825 6 101608482.092 3        36.000 6
        22.000 3
  21535956.838 8  21535954.898 6 113172218.087 8  88186143.382 6        49.000 8
        41.000 6
  22516931.350 7  22516930.170 6 118327272.596 7  92203069.699 6        47.000 7
        37.000 6
  24013131.380 7  24013126.540 4 126189860.490 7  98329761.308 4        42.000 7
        25.000 4
 10  1  6  5 57 45.0000000  0  9G02G04G05G07G10G12G13G17G23
  21112854.040 8  21112850.000 7 110948796.539 8  86453608.063 7        51.000 8
        45.000 7
  20675119.324 8  20675117.664 7 108648485.832 8  84661157.714 7        52.000 8
        47.000 7
  22594147.250 7  22594145.550 6 118733048.518 7  92519258.467 6        47.000 7
        37.000 6
  24660399.716 7  24660398.816 4 129591272.392 7 100980212.407 4        44.000 7
        24.000 4
  21244086.700 8  21244085.440 7 111638429.109 8  86990983.627 7        51.000 8
        42.000 7
  24814113.976 6  24814113.536 3 130399052.418 6 101609650.586 3        36.000 6
        22.000 3
  21536258.098 8  21536255.718 6 113173799.109 8  88187375.350 6        48.000 8
        41.000 6
  22517580.070 7  22517578.970 6 118330681.251 7  92205725.787 6        46.000 7
        37.000 6
  24013705.240 7  24013701.040 4 126192879.205 7  98332113.576 4        42.000 7
        26.000 4
 10  1  6  5 57 46.0000000  0  9G02G04G05G07G10G12G13G17G23
  21112465.800 8  21112461.500 7 110946756.419 8  86452018.359 7        52.000 8
        45.000 7
  20675221.384 8  20675220.184 7 108649022.098 8  84661575.577 7        52.000 8
        47.000 7
  22593732.970 7  22593731.470 6 118730870.140 7  92517561.040 6        47.000 7
        37.000 6
  24659977.156 7  24659976.676 4 129589053.153 7 100978483.120 4        44.000 7
        26.000 4
  21243783.180 8  21243781.460 7 111636833.680 8  86989740.442 7        52.000 8
        42.000 7
  24814399.996 6  24814399.056 3 130400551.908 6 101610819.030 3        37.000 6
        23.000 3
  21536558.878 8  21536556.438 6 113175380.257 8  88188607.417 6        48.000 8
        41.000 6
  22518228.770 7  22518227.530 6 118334089.701 7  92208381.727 6        46.000 7
        36.000 6
  24014279.860 7  24014275.520 4 126195897.782 7  98334465.640 4        42.000 7
        25.000 4
 10  1  6  5 57 47.0000000  0  9G02G04G05G07G10G12G13G17G23
  21112077.700 8  21112073.640 7 110944717.885 8  86450429.892 7        52.000 8
        45.000 7
  20675323.704 8  20675322.304 7 108649560.082 8  84661994.792 7        52.000 8
        47.000 7
  22593318.530 7  22593317.130 6 118728693.373 7  92515864.864 6        47.000 7
        37.000 6
  24659555.276 7  24659554.476 4 129586835.449 7 100976755.045 4        43.000 7
        26.000 4
  21243480.020 8  21243478.340 7 111635239.972 8  86988498.585 7        51.000 8
        42.000 7
  24814685.256 6  24814684.936 4 130402053.132 6 101611988.837 4        37.000 6
        24.000 4
  21536860.118 8  21536857.978 6 113176963.400 8  88189841.031 6        49.000 8
        41.000 6
  22518877.710 7  22518876.630 6 118337499.807 7  92211038.946 6        46.000 7
        36.000 6
  24014854.380 7  24014850.160 4 126198918.008 7  98336819.121 4        42.000 7
        25.000 4
 10  1  6  5 57 48.0000000  0  9G02G04G05G07G10G12G13G17G23
  21111689.920 8  21111685.780 7 110942679.024 8  86448841.164 7        51.000 8
        45.000 7
  20675426.004 8  20675424.544 7 108650097.898 8  84662413.867 7        52.000 8
        47.000 7
  22592903.930 7  22592902.770 6 118726516.348 7  92514168.479 6        47.000 7
        37.000 6
  24659133.376 7  24659132.456 4 129584617.396 7 100975026.641 4        43.000 7
        25.000 4
  21243176.680 8  21243175.300 7 111633646.091 8  86987256.598 7        51.000 8
        42.000 7
  24814970.916 6  24814970.756 4 130403554.120 6 101613158.422 4        37.000 6
        25.000 4
  21537161.398 8  21537159.378 6 113178546.637 8  88191074.718 6        49.000 8
        41.000 6
  22519526.630 7  22519525.790 6 118340909.655 7  92213695.966 6        46.000 7
        37.000 6
  24015429.900 7  24015424.960 4 126201938.009 7  98339172.350 4        42.000 7
        25.000 4
 10  1  6  5 57 49.0000000  0  9G02G04G05G07G10G12G13G17G23
  21111301.760 8  21111297.960 7 110940640.472 8  86447252.690 7        51.000 8
        45.000 7
  20675528.604 8  20675527.304 7 108650636.135 8  84662833.270 7        52.000 8
        47.000 7
  22592490.130 8  22592488.550 6 118724339.676 8  92512472.372 6        48.000 8
        37.000 6
  24658711.056 7  24658710.456 4 129582399.614 7 100973298.558 4        43.000 7
        25.000 4
  21242873.140 8  21242871.760 7 111632052.680 8  86986014.989 7        51.000 8
        43.000 7
  24815256.956 6  24815256.396 4 130405055.607 6 101614328.422 4        37.000 6
        24.000 4
  21537462.678 8  21537460.398 6 113180130.591 8  88192308.974 6        49.000 8
        41.000 6
  22520175.630 7  22520174.730 6 118344319.863 7  92216353.263 6        46.000 7
        37.000 6
  24016004.440 7  24016000.160 4 126204958.425 7  98341525.929 4        42.000 7
        26.000 4
 10  1  6  5 57 50.0000000  0  9G02G04G05G07G10G12G13G17G23
  21110913.800 8  21110909.740 7 110938601.463 8  86445663.850 7        52.000 8
        45.000 7
  20675630.884 8  20675629.604 7 108651174.075 8  84663252.446 7        52.000 8
        47.000 7
  22592075.810 8  22592074.690 6 118722162.583 8  92510775.934 6        48.000 8
        37.000 6
  24658289.516 7  24658288.456 4 129580181.298 7 100971570.002 4        43.000 7
        24.000 4
  21242569.860 8  21242568.580 7 111630458.938 8  86984773.108 7        51.000 8
        43.000 7
  24815543.076 6  24815541.976 4 130406556.753 6 101615498.105 4        37.000 6
        24.000 4
  21537764.098 8  21537761.958 6 113181714.493 8  88193543.186 6        49.000 8
        41.000 6
  22520824.590 7  22520823.250 6 118347729.684 7  92219010.267 6        47.000 7
        37.000 6
  24016579.000 6  24016574.560 4 126207978.436 6  98343879.170 4        41.000 6
        25.000 4
 10  1  6  5 57 51.0000000  0  9G02G04G05G07G10G12G13G17G23
  21110525.860 8  21110521.800 7 110936561.629 8  86444074.371 7        51.000 8
        45.000 7
  20675733.304 8  20675731.884 7 108651711.294 8  84663671.056 7        53.000 8
        47.000 7
  22591661.310 8  22591659.690 6 118719984.712 8  92509078.905 6        48.000 8
        37.000 6
  24657866.236 7  24657865.876 4 129577962.141 7 100969840.805 4        43.000 7
        25.000 4
  21242266.780 8  21242265.180 7 111628864.524 8  86983530.712 7        51.000 8
        42.000 7
  24815828.476 6  24815827.356 4 130408057.215 6 101616667.317 4        38.000 6
        25.000 4
  21538065.518 8  21538063.378 6 113183297.975 8  88194777.063 6        49.000 8
        41.000 6
  22521472.970 7  22521472.190 6 118351138.757 7  92221666.689 6        46.000 7
        36.000 6
  24017153.380 6  24017148.920 4 126210997.766 6  98346231.884 4        41.000 6
        26.000 4
 10  1  6  5 57 52.0000000  0  9G02G04G05G07G10G12G13G17G23
  21110138.020 8  21110134.140 7 110934524.307 8  86442486.837 7        51.000 8
        45.000 7
  20675835.864 8  20675834.724 7 108652251.154 8  84664091.735 7        53.000 8
        47.000 7
  22591247.690 8  22591245.970 6 118717809.401 8  92507383.851 6        48.000 8
        37.000 6
  24657444.816 7  24657444.036 4 129575745.446 7 100968113.478 4        43.000 7
        26.000 4
  21241963.820 8  21241962.480 7 111627272.781 8  86982290.391 7        51.000 8
        43.000 7
  24816113.816 6  24816113.796 4 130409560.326 6 101617838.574 4        38.000 6
        25.000 4
  21538367.338 8  21538365.038 6 113184884.391 8  88196013.238 6        49.000 8
        41.000 6
  22522122.210 7  22522121.230 6 118354550.426 7  92224325.126 6        46.000 7
        37.000 6
  24017728.700 6  24017724.060 4 126214019.685 6  98348586.669 4        41.000 6
        24.000 4
 10  1  6  5 57 53.0000000  0  9G02G04G05G07G10G12G13G17G23
  21109750.040 8  21109746.200 7 110932485.366 8  86440898.059 7        52.000 8
        45.000 7
  20675938.204 8  20675936.704 7 108652789.533 8  84664511.244 7        53.000 8
        47.000 7
  22590832.930 8  22590831.470 6 118715632.516 8  92505687.574 6        48.000 8
        37.000 6
  24657022.976 7  24657022.156 4 129573527.085 7 100966384.885 4        43.000 7
        26.000 4
  21241660.720 8  21241659.020 7 111625679.544 8  86981048.901 7        51.000 8
        43.000 7
  24816399.876 6  24816399.476 4 130411061.953 6 101619008.675 4        37.000 6
        25.000 4
  21538669.098 8  21538666.718 6 113186469.591 8  88197248.448 6        49.000 8
        41.000 6
  22522771.110 7  22522770.310 6 118357960.516 7  92226982.349 6        46.000 7
        36.000 6
  24018303.500 6  24018298.940 4 126217040.053 6  98350940.148 4        41.000 6
        25.000 4
 10  1  6  5 57 54.0000000  0  9G02G04G05G07G10G12G13G17G23
  21109362.320 8  21109358.400 7 110930448.451 8  86439310.852 7        52.000 8
        45.000 7
  20676041.224 8  20676039.924 7 108653330.087 8  84664932.447 7        53.000 8
        47.000 7
  22590419.450 8  22590417.870 6 118713457.714 8  92503992.926 6        48.000 8
        37.000 6
  24656601.296 7  24656600.336 4 129571310.708 7 100964657.842 4        42.000 7
        26.000 4
  21241358.040 8  21241356.380 7 111624088.506 8  86979809.131 7        50.000 8
        43.000 7
  24816685.896 6  24816685.876 4 130412565.744 6 101620180.454 4        37.000 6
        26.000 4
  21538970.958 8  21538968.878 6 113188057.218 8  88198485.563 6        49.000 8
        41.000 6
  22523420.050 7  22523419.550 6 118361372.718 7  92229641.194 6        46.000 7
        37.000 6
  24018878.080 6  24018874.180 4 126220062.561 6  98353295.361 4        41.000 6
        25.000 4
 10  1  6  5 57 55.0000000  0  9G02G04G05G07G10G12G13G17G23
  21108974.400 8  21108970.380 7 110928409.750 8  86437722.256 7        52.000 8
        44.000 7
  20676143.704 8  20676142.364 7 108653868.946 8  84665352.346 7        52.000 8
        47.000 7
  22590005.410 8  22590003.450 6 118711281.141 8  92502296.901 6        48.000 8
        37.000 6
  24656179.536 7  24656178.076 4 129569092.484 7 100962929.348 4        42.000 7
        25.000 4
  21241054.960 8  21241053.540 7 111622495.783 8  86978568.049 7        50.000 8
        43.000 7
  24816972.516 6  24816971.576 4 130414067.891 6 101621350.944 4        37.000 6
        24.000 4
  21539272.958 8  21539271.018 6 113189643.461 8  88199721.606 6        49.000 8
        41.000 6
  22524069.530 7  22524068.650 6 118364783.181 7  92232298.695 6        46.000 7
        37.000 6
  24019452.940 6  24019449.260 4 126223083.323 6  98355649.255 4        40.000 6
        25.000 4
 10  1  6  5 57 56.0000000  0  9G02G04G05G07G10G12G13G17G23
  21108586.720 8  21108582.860 7 110926372.496 8  86436134.783 7        52.000 8
        45.000 7
  20676246.584 8  20676245.164 7 108654409.382 8  84665773.458 7        52.000 8
        47.000 7
  22589591.110 8  22589589.630 6 118709106.087 8  92500602.060 6        48.000 8
        37.000 6
  24655757.476 7  24655756.536 4 129566875.698 7 100961202.000 4        42.000 7
        26.000 4
  21240752.000 8  21240750.460 7 111620904.679 8  86977328.236 7        50.000 8
        43.000 7
  24817258.396 6  24817257.636 3 130415571.659 6 101622522.725 3        38.000 6
        23.000 3
  21539575.218 8  21539572.998 6 113191231.562 8  88200959.083 6        48.000 8
        41.000 6
  22524718.810 7  22524717.830 6 118368195.165 7  92234957.384 6        46.000 7
        36.000 6
  24020028.180 6  24020024.280 4 126226105.702 6  98358004.336 4        41.000 6
        25.000 4
 10  1  6  5 57 57.0000000  0  9G02G04G05G07G10G12G13G17G23
  21108198.900 8  21108194.840 7 110924333.923 8  86434546.287 7        52.000 8
        44.000 7
  20676349.184 8  20676347.864 7 108654948.648 8  84666193.664 7        52.000 8
        47.000 7
  22589177.130 8  22589175.070 6 118706929.746 8  92498906.206 6        49.000 8
        37.000 6
  24655335.056 7  24655333.956 4 129564657.542 7 100959473.559 4        42.000 7
        24.000 4
  21240448.980 8  21240447.260 7 111619312.406 8  86976087.507 7        51.000 8
        43.000 7
  24817544.516 6  24817543.736 4 130417074.186 6 101623693.547 4        37.000 6
        24.000 4
  21539877.258 8  21539875.118 6 113192818.764 8  88202195.866 6        49.000 8
        41.000 6
  22525367.830 7  22525366.430 6 118371605.904 7  92237615.103 6        46.000 7
        37.000 6
  24020603.280 6  24020599.220 4 126229126.816 6  98360358.437 4        41.000 6
        25.000 4
 10  1  6  5 57 58.0000000  0  9G02G04G05G07G10G12G13G17G23
  21107811.400 8  21107807.460 7 110922297.327 8  86432959.322 7        52.000 8
        45.000 7
  20676452.364 8  20676450.904 7 108655490.035 8  84666615.518 7        52.000 8
        47.000 7
  22588763.410 8  22588761.370 6 118704755.433 8  92497211.934 6        48.000 8
        37.000 6
  24654913.636 7  24654912.416 3 129562441.315 7 100957746.618 3        42.000 7
        23.000 3
  21240146.580 8  21240145.120 7 111617722.256 8  86974848.423 7        50.000 8
        43.000 7
  24817831.316 6  24817830.016 4 130418578.866 6 101624866.002 4        38.000 6
        24.000 4
  21540179.778 8  21540177.878 6 113194408.357 8  88203434.498 6        49.000 8
        40.000 6
  22526017.190 7  22526016.410 6 118375018.695 7  92240274.406 6        46.000 7
        37.000 6
  24021178.460 6  24021174.720 4 126232149.983 6  98362714.143 4        41.000 6
        26.000 4
 10  1  6  5 57 59.0000000  0  9G02G04G05G07G10G12G13G17G23
  21107423.800 8  21107420.020 7 110920260.856 8  86431372.470 7        52.000 8
        44.000 7
  20676555.264 8  20676553.884 7 108656031.645 8  84667037.562 7        53.000 8
        47.000 7
  22588349.510 8  22588347.350 6 118702581.249 8  92495517.768 6        48.000 8
        37.000 6
  24654491.776 7  24654490.276 4 129560225.174 7 100956019.786 4        43.000 7
        24.000 4
  21239843.920 8  21239842.180 7 111616132.361 8  86973609.552 7        50.000 8
        42.000 7
  24818117.056 6  24818116.496 4 130420083.779 6 101626038.643 4        39.000 6
        25.000 4
  21540482.198 8  21540480.498 6 113195998.455 8  88204673.537 6        49.000 8
        40.000 6
  22526666.850 7  22526665.770 6 118378431.643 7  92242933.852 6        46.000 7
        36.000 6
  24021754.000 6  24021750.200 4 126235173.384 6  98365070.040 4        41.000 6
        25.000 4
 10  1  6  5 58  0.0000000  0  9G02G04G05G07G10G12G13G17G23
  21107036.140 8  21107032.340 7 110918224.304 8  86429785.544 7        52.000 8
        44.000 7
  20676658.444 8  20676656.964 7 108656573.350 8  84667459.659 7        53.000 8
        47.000 7
  22587935.910 8  22587933.950 6 118700407.101 8  92493823.627 6        49.000 8
        37.000 6
  24654069.816 7  24654068.596 4 129558008.897 7 100954292.807 4        43.000 7
        24.000 4
  21239541.440 8  21239539.700 7 111614542.555 8  86972370.742 7        50.000 8
        43.000 7
  24818403.056 6  24818402.916 4 130421588.834 6 101627211.438 4        39.000 6
        24.000 4
  21540784.758 8  21540782.698 6 113197588.909 8  88205912.854 6        49.000 8
        40.000 6
  22527315.870 7  22527315.410 6 118381844.615 7  92245593.309 6        46.000 7
        37.000 6
  24022329.560 6  24022325.400 4 126238196.776 6  98367425.930 4        40.000 6
        25.000 4
 10  1  6  5 58  1.0000000  0  9G02G04G05G07G10G12G13G17G23
  21106648.360 8  21106644.840 7 110916187.278 8  86428198.254 7        52.000 8
        44.000 7
  20676761.584 8  20676760.064 7 108657114.682 8  84667881.488 7        53.000 8
        47.000 7
  22587522.410 8  22587520.330 6 118698232.484 8  92492129.122 6        49.000 8
        37.000 6
  24653647.976 7  24653646.816 4 129555792.103 7 100952565.451 4        43.000 7
        25.000 4
  21239238.940 8  21239237.160 7 111612952.397 8  86971131.660 7        50.000 8
        43.000 7
  24818689.416 6  24818688.916 4 130423093.456 6 101628383.852 4        40.000 6
        24.000 4
  21541087.578 8  21541085.258 6 113199179.286 8  88207152.111 6        49.000 8
        41.000 6
  22527965.510 7  22527964.830 6 118385257.154 7  92248252.432 6        46.000 7
        37.000 6
  24022904.300 6  24022901.040 4 126241219.796 6  98369781.524 4        41.000 6
        25.000 4
 10  1  6  5 58  2.0000000  0  9G02G04G05G07G10G12G13G17G23
  21106261.040 8  21106257.220 7 110914150.645 8  86426611.267 7        52.000 8
        44.000 7
  20676864.604 8  20676863.204 7 108657656.513 8  84668303.694 7        52.000 8
        47.000 7
  22587108.190 8  22587106.630 6 118696058.286 8  92490434.951 6        48.000 8
        37.000 6
  24653226.596 7  24653225.076 4 129553575.652 7 100950838.336 4        43.000 7
        25.000 4
  21238936.340 8  21238934.860 7 111611362.778 8  86969892.992 7        50.000 8
        43.000 7
  24818976.016 6  24818975.596 4 130424598.622 6 101629556.696 4        40.000 6
        25.000 4
  21541390.618 8  21541388.058 6 113200770.437 8  88208391.965 6        49.000 8
        41.000 6
  22528614.990 7  22528613.630 6 118388670.123 7  92250911.881 6        46.000 7
        37.000 6
  24023479.600 6  24023476.280 4 126244243.294 6  98372137.531 4        40.000 6
        26.000 4
 10  1  6  5 58  3.0000000  0  9G02G04G05G07G10G12G13G17G23
  21105873.540 8  21105869.780 7 110912114.510 8  86425024.666 7        52.000 8
        44.000 7
  20676967.864 8  20676966.224 7 108658199.011 8  84668726.410 7        52.000 8
        47.000 7
  22586694.730 8  22586692.770 6 118693884.667 8  92488741.219 6        48.000 8
        37.000 6
  24652804.356 7  24652803.476 4 129551359.682 7 100949111.648 4        43.000 7
        24.000 4
  21238634.000 8  21238632.720 7 111609773.813 8  86968654.835 7        51.000 8
        43.000 7
  24819262.516 6  24819261.936 4 130426104.455 6 101630730.109 4        39.000 6
        24.000 4
  21541693.678 8  21541691.178 6 113202362.521 8  88209632.551 6        49.000 8
        41.000 6
  22529264.510 7  22529263.610 6 118392083.700 7  92253571.815 6        46.000 7
        36.000 6
  24024055.040 6  24024051.600 4 126247267.409 6  98374493.954 4        40.000 6
        26.000 4
 10  1  6  5 58  4.0000000  0  9G02G04G05G07G10G12G13G17G23
  21105486.600 8  21105483.320 7 110910081.913 8  86423440.828 7        52.000 8
        44.000 7
  20677071.784 8  20677070.784 7 108658745.143 8  84669151.970 7        53.000 8
        47.000 7
  22586281.990 8  22586279.890 6 118691714.605 8  92487050.264 6        49.000 8
        37.000 6
  24652383.176 7  24652382.716 4 129549147.194 7 100947387.590 4        43.000 7
        25.000 4
  21238332.220 8  21238330.820 7 111608188.537 8  86967419.555 7        50.000 8
        43.000 7
  24819549.556 6  24819549.196 4 130427613.940 6 101631906.319 4        40.000 6
        24.000 4
  21541996.898 8  21541994.878 6 113203958.538 8  88210876.205 6        49.000 8
        41.000 6
  22529914.590 7  22529913.990 6 118395500.858 7  92256234.541 6        46.000 7
        37.000 6
  24024631.280 6  24024627.720 4 126250295.095 6  98376853.194 4        40.000 6
        26.000 4
 10  1  6  5 58  5.0000000  0  9G02G04G05G07G10G12G13G17G23
  21105099.040 8  21105095.280 7 110908044.267 8  86421853.042 7        52.000 8
        44.000 7
  20677174.684 8  20677173.244 7 108659286.357 8  84669573.694 7        52.000 8
        47.000 7
  22585867.830 8  22585865.890 6 118689539.557 8  92485355.419 6        48.000 8
        37.000 6
  24651961.436 7  24651960.536 4 129546929.625 7 100945659.634 4        43.000 7
        24.000 4
  21238029.780 8  21238028.140 7 111606598.347 8  86966180.456 7        51.000 8
        43.000 7
  24819836.296 6  24819835.596 4 130429118.541 6 101633078.731 4        39.000 6
        25.000 4
  21542299.798 8  21542297.858 6 113205549.923 8  88212116.244 6        50.000 8
        40.000 6
  22530564.190 7  22530563.310 6 118398913.034 7  92258893.365 6        46.000 7
        37.000 6
  24025206.040 6  24025203.320 4 126253317.857 6  98379208.591 4        40.000 6
        26.000 4
 10  1  6  5 58  6.0000000  0  9G02G04G05G07G10G12G13G17G23
  21104711.560 8  21104707.740 7 110906008.230 8  86420266.530 7        52.000 8
        44.000 7
  20677277.864 8  20677276.784 7 108659829.323 8  84669996.787 7        52.000 8
        47.000 7
  22585454.290 8  22585451.930 6 118687366.150 8  92483661.862 6        49.000 8
        37.000 6
  24651539.656 7  24651538.916 4 129544713.594 7 100943932.837 4        44.000 7
        25.000 4
  21237727.400 8  21237726.020 7 111605009.913 8  86964942.715 7        51.000 8
        43.000 7
  24820122.676 6  24820122.216 4 130430624.823 6 101634252.466 4        38.000 6
        24.000 4
  21542603.278 8  21542600.518 6 113207143.313 8  88213357.844 6        50.000 8
        41.000 6
  22531213.670 7  22531212.610 6 118402326.891 7  92261553.520 6        46.000 7
        37.000 6
  24025781.980 6  24025778.120 4 126256342.317 6  98381565.294 4        41.000 6
        27.000 4
 10  1  6  5 58  7.0000000  0  9G02G04G05G07G10G12G13G17G23
  21104324.180 8  21104320.400 7 110903972.952 8  86418680.593 7        53.000 8
        44.000 7
  20677381.444 8  20677380.024 7 108660373.193 8  84670420.576 7        52.000 8
        47.000 7
  22585041.110 8  22585039.010 6 118685193.550 8  92481968.923 6        48.000 8
        37.000 6
  24651117.436 7  24651116.996 4 129542498.292 7 100942206.646 4        43.000 7
        26.000 4
  21237425.300 8  21237423.880 7 111603422.369 8  86963705.662 7        51.000 8
        43.000 7
  24820409.576 6  24820409.236 4 130432132.067 6 101635426.944 4        38.000 6
        26.000 4
  21542906.618 8  21542904.278 6 113208737.877 8  88214600.354 6        50.000 8
        41.000 6
  22531863.430 7  22531862.390 6 118405741.561 7  92264214.297 6        47.000 7
        37.000 6
  24026358.400 7  24026354.180 4 126259367.593 7  98383922.671 4        42.000 7
        26.000 4
 10  1  6  5 58  8.0000000  0  9G02G04G05G07G10G12G13G17G23
  21103937.060 8  21103933.480 7 110901938.951 8  86417095.657 7        52.000 8
        45.000 7
  20677485.084 8  20677483.964 7 108660918.479 8  84670845.482 7        52.000 8
        47.000 7
  22584627.770 8  22584625.390 6 118683022.278 8  92480277.028 6        48.000 8
        37.000 6
  24650696.776 7  24650695.716 4 129540284.243 7 100940481.407 4        43.000 7
        26.000 4
  21237123.320 8  21237122.040 7 111601836.258 8  86962469.744 7        51.000 8
        43.000 7
  24820695.896 6  24820696.176 4 130433640.706 6 101636602.511 4        39.000 6
        25.000 4
  21543210.578 8  21543207.858 6 113210334.102 8  88215844.171 6        49.000 8
        41.000 6
  22532513.270 7  22532512.490 6 118409157.597 7  92266876.137 6        47.000 7
        37.000 6
  24026934.040 6  24026930.140 4 126262394.260 6  98386281.116 4        41.000 6
        26.000 4
 10  1  6  5 58  9.0000000  0  9G02G04G05G07G10G12G13G17G23
  21103549.740 8  21103546.160 7 110899903.206 8  86415509.364 7        52.000 8
        45.000 7
  20677588.764 8  20677587.384 7 108661462.120 8  84671269.092 7        52.000 8
        47.000 7
  22584214.090 8  22584211.970 6 118680849.281 8  92478583.775 6        48.000 8
        37.000 6
  24650274.836 7  24650274.296 4 129538068.405 7 100938754.759 4        43.000 7
        25.000 4
  21236821.200 8  21236819.680 7 111600248.554 8  86961232.566 7        50.000 8
        43.000 7
  24820983.556 6  24820983.156 4 130435147.732 6 101637776.786 4        39.000 6
        25.000 4
  21543513.718 8  21543511.058 6 113211929.013 8  88217086.955 6        50.000 8
        41.000 6
  22533163.590 7  22533162.290 6 118412571.930 7  92269536.659 6        47.000 7
        37.000 6
  24027509.000 6  24027505.600 4 126265419.263 6  98388638.274 4        41.000 6
        25.000 4
 10  1  6  5 58 10.0000000  0  9G02G04G05G07G10G12G13G17G23
  21103162.540 8  21103158.860 7 110897868.083 8  86413923.554 7        52.000 8
        45.000 7
  20677692.324 8  20677690.724 7 108662006.534 8  84671693.315 7        52.000 8
        47.000 7
  22583801.130 8  22583798.890 6 118678676.970 8  92476891.080 6        48.000 8
        37.000 6
  24649853.396 7  24649852.596 4 129535853.163 7 100937028.631 4        43.000 7
        24.000 4
  21236519.220 8  21236517.860 7 111598661.633 8  86959996.006 7        51.000 8
        43.000 7
  24821270.036 6  24821270.176 4 130436655.518 6 101638951.709 4        39.000 6
        26.000 4
  21543817.618 8  21543815.218 6 113213524.954 8  88218330.550 6        49.000 8
        41.000 6
  22533813.330 7  22533812.090 6 118415986.967 7  92272197.729 6        47.000 7
        37.000 6
  24028085.200 6  24028081.700 4 126268444.979 6  98390995.964 4        41.000 6
        26.000 4
 10  1  6  5 58 11.0000000  0  9G02G04G05G07G10G12G13G17G23
  21102775.900 8  21102772.580 7 110895835.540 8  86412339.759 7        52.000 8
        45.000 7
  20677796.384 8  20677795.124 7 108662553.644 8  84672119.638 7        52.000 8
        47.000 7
  22583388.210 8  22583385.970 6 118676507.279 8  92475200.408 6        48.000 8
        37.000 6
  24649432.236 7  24649431.516 4 129533640.431 7 100935304.430 4        43.000 7
        25.000 4
  21236217.460 8  21236216.200 7 111597077.408 8  86958761.543 7        51.000 8
        43.000 7
  24821558.236 6  24821557.616 4 130438166.025 6 101640128.727 4        39.000 6
        24.000 4
  21544121.678 8  21544119.298 6 113215123.880 8  88219576.476 6        50.000 8
        41.000 6
  22534463.610 7  22534462.650 6 118419404.627 7  92274860.828 6        47.000 7
        37.000 6
  24028661.620 7  24028657.620 4 126271473.382 7  98393355.733 4        42.000 7
        27.000 4
 10  1  6  5 58 12.0000000  0  9G02G04G05G07G10G12G13G17G23
  21102388.680 8  21102385.040 7 110893801.132 8  86410754.506 7        52.000 8
        45.000 7
  20677900.144 8  20677898.904 7 108663099.027 8  84672544.608 7        53.000 8
        47.000 7
  22582974.690 8  22582972.510 6 118674335.780 8  92473508.335 6        48.000 8
        37.000 6
  24649010.476 7  24649009.956 4 129531425.801 7 100933578.698 4        42.000 7
        25.000 4
  21235915.780 8  21235914.540 7 111595491.480 8  86957525.757 7        51.000 8
        43.000 7
  24821845.036 6  24821844.476 4 130439674.832 6 101641304.430 4        36.000 6
        25.000 4
  21544425.958 8  21544423.458 6 113216721.330 8  88220821.226 6        50.000 8
        41.000 6
  22535113.530 7  22535112.630 6 118422820.502 7  92277522.557 6        47.000 7
        37.000 6
  24029237.180 6  24029233.860 4 126274499.991 6  98395714.125 4        40.000 6
        27.000 4
 10  1  6  5 58 13.0000000  0  9G02G04G05G07G10G12G13G17G23
  21102001.840 8  21101998.260 7 110891768.156 8  86409170.368 7        52.000 8
        45.000 7
  20678004.004 8  20678002.784 7 108663645.940 8  84672970.772 7        52.000 8
        47.000 7
  22582562.090 7  22582559.530 6 118672165.708 7  92471817.373 6        47.000 7
        37.000 6
  24648589.896 7  24648588.676 4 129529212.567 7 100931854.145 4        42.000 7
        26.000 4
  21235614.220 8  21235613.300 7 111593907.103 8  86956291.181 7        51.000 8
        43.000 7
  24822131.756 5  24822132.016 4 130441185.143 5 101642481.285 4        35.000 5
        24.000 4
  21544729.998 8  21544727.558 6 113218320.605 8  88222067.425 6        50.000 8
        40.000 6
  22535763.710 7  22535762.930 6 118426237.841 7  92280185.407 6        47.000 7
        37.000 6
  24029813.380 6  24029809.920 4 126277528.123 6  98398073.715 4        40.000 6
        27.000 4
 10  1  6  5 58 14.0000000  0  9G02G04G05G07G10G12G13G17G23
  21101614.500 8  21101610.940 7 110889733.264 8  86407584.734 7        52.000 8
        45.000 7
  20678108.064 8  20678106.664 7 108664191.092 8  84673395.566 7        53.000 8
        47.000 7
  22582148.350 8  22582146.390 6 118669993.797 8  92470124.971 6        48.000 8
        37.000 6
  24648168.456 7  24648167.356 3 129526997.372 7 100930127.966 3        42.000 7
        23.000 3
  21235312.560 8  21235311.540 7 111592320.989 8  86955055.246 7        51.000 8
        43.000 7
  24822419.336 5  24822418.956 4 130442693.722 5 101643656.792 4        35.000 5
        25.000 4
  21545034.138 8  21545031.678 6 113219918.378 8  88223312.438 6        50.000 8
        41.000 6
  22536414.110 7  22536412.770 6 118429653.344 7  92282846.843 6        47.000 7
        37.000 6
  24030389.520 6  24030385.680 4 126280554.398 6  98400431.886 4        40.000 6
        25.000 4
 10  1  6  5 58 15.0000000  0  9G02G04G05G07G10G12G13G17G23
  21101227.660 8  21101223.840 7 110887699.324 8  86405999.852 7        52.000 8
        45.000 7
  20678211.864 8  20678210.604 7 108664737.308 8  84673821.195 7        53.000 8
        47.000 7
  22581735.490 8  22581733.130 6 118667822.873 8  92468433.344 6        48.000 8
        37.000 6
  24647747.156 7  24647745.876 4 129524783.074 7 100928402.608 4        42.000 7
        24.000 4
  21235010.960 8  21235009.640 7 111590735.959 8  86953820.156 7        50.000 8
        43.000 7
  24822706.296 6  24822706.216 4 130444203.328 6 101644833.119 4        36.000 6
        25.000 4
  21545338.458 8  21545336.078 6 113221517.495 8  88224558.506 6        50.000 8
        41.000 6
  22537064.150 7  22537062.970 6 118433069.858 7  92285509.058 6        47.000 7
        37.000 6
  24030965.300 6  24030962.300 4 126283581.725 6  98402790.829 4        40.000 6
        26.000 4
 10  1  6  5 58 16.0000000  0  9G02G04G05G07G10G12G13G17G23
  21100840.580 8  21100836.500 7 110885665.399 8  86404414.971 7        52.000 8
        45.000 7
  20678315.864 8  20678314.244 7 108665283.706 8  84674246.953 7        53.000 8
        47.000 7
  22581322.190 8  22581320.290 6 118665651.997 8  92466741.752 6        48.000 8
        37.000 6
  24647325.596 7  24647324.556 4 129522568.751 7 100926677.142 4        42.000 7
        25.000 4
  21234709.400 8  21234707.860 7 111589151.093 8  86952585.196 7        51.000 8
        43.000 7
